header:
  stamp:
    sec: 1756280833
    nanosec: 734061773
  frame_id: ''
name:
- fr3_joint1
- fr3_joint2
- fr3_joint3
- fr3_joint4
- fr3_joint5
- fr3_joint6
- fr3_joint7
- fr3_finger_joint1
- fr3_finger_joint2
position:
- 0.34223808461397803
- -0.14135105035439322
- -0.058223757171887866
- -2.2022153265632856
- 0.029791921377359844
- 2.1392702481776786
- 0.23829491203622122
- 0.0
- 0.0
velocity:
- 0.0561660709797963
- -0.01768931392933761
- 0.06568944034542112
- -0.004779895525409512
- 0.21520223284963894
- -0.08443541495945513
- -0.15767672909727107
- 0.0
- 0.0
effort:
- -0.03600597381591797
- -26.167879104614258
- -0.1298636794090271
- 22.664960861206055
- 1.0748478174209595
- 2.2835237979888916
- -0.286673903465271
- 0.0
- 0.0
---
header:
  stamp:
    sec: 1756280833
    nanosec: 767021192
  frame_id: ''
name:
- fr3_joint1
- fr3_joint2
- fr3_joint3
- fr3_joint4
- fr3_joint5
- fr3_joint6
- fr3_joint7
- fr3_finger_joint1
- fr3_finger_joint2
position:
- 0.34421146804580316
- -0.14192865206648927
- -0.05638139185361872
- -2.2023827292378573
- 0.03691092039409065
- 2.1364612497884017
- 0.2332552019719894
- 0.0
- 0.0
velocity:
- 0.06046205315075614
- -0.018584319751271526
- 0.05342562793643088
- -0.004937501870683905
- 0.21243579324125575
- -0.08568462065602772
- -0.14160505174096072
- 0.0
- 0.0
effort:
- 0.24567127227783203
- -26.243257522583008
- 0.1280098557472229
- 22.688764572143555
- 1.0748478174209595
- 2.2963411808013916
- -0.280265212059021
- 0.0
- 0.0
---
header:
  stamp:
    sec: 1756280833
    nanosec: 800384964
  frame_id: ''
name:
- fr3_joint1
- fr3_joint2
- fr3_joint3
- fr3_joint4
- fr3_joint5
- fr3_joint6
- fr3_joint7
- fr3_finger_joint1
- fr3_finger_joint2
position:
- 0.3462855066240328
- -0.14255502504641912
- -0.05464932632465624
- -2.202588784419371
- 0.04381351407765755
- 2.133687301735553
- 0.22870368029935487
- 0.0
- 0.0
velocity:
- 0.06138776834898381
- -0.018848987605210747
- 0.04915537951124278
- -0.007711178788260146
- 0.20724328527029628
- -0.0745509825189182
- -0.1255121957445426
- 0.0
- 0.0
effort:
- 0.34882068634033203
- -26.215486526489258
- 0.3858833909034729
- 22.664960861206055
- 1.1599918603897095
- 2.2569735050201416
- -0.272940993309021
- 0.0
- 0.0
---
header:
  stamp:
    sec: 1756280833
    nanosec: 834165355
  frame_id: ''
name:
- fr3_joint1
- fr3_joint2
- fr3_joint3
- fr3_joint4
- fr3_joint5
- fr3_joint6
- fr3_joint7
- fr3_finger_joint1
- fr3_finger_joint2
position:
- 0.34834671511584975
- -0.14315380361807933
- -0.053194089986643996
- -2.2027664440240065
- 0.05070765137247024
- 2.1310420771486003
- 0.22448798341734108
- 0.0
- 0.0
velocity:
- 0.06801760166788907
- -0.01915484301591952
- 0.04270676935874799
- -0.005328773274530207
- 0.20514879227275323
- -0.08173086538156563
- -0.12268508888021112
- 0.0
- 0.0
effort:
- 0.705876350402832
- -26.267061233520508
- 0.6199532151222229
- 22.637189865112305
- 1.1142154932022095
- 2.3164827823638916
- -0.314139723777771
- 0.0
- 0.0
---
header:
  stamp:
    sec: 1756280833
    nanosec: 867011499
  frame_id: ''
name:
- fr3_joint1
- fr3_joint2
- fr3_joint3
- fr3_joint4
- fr3_joint5
- fr3_joint6
- fr3_joint7
- fr3_finger_joint1
- fr3_finger_joint2
position:
- 0.3505419288281542
- -0.14379365544967146
- -0.05176531727417395
- -2.2029441419980573
- 0.057723805582051944
- 2.128382193178306
- 0.22027114587426264
- 0.0
- 0.0
velocity:
- 0.0630147252242976
- -0.019196756800814802
- 0.0478574671179
- -0.004733893406969693
- 0.21008967478271495
- -0.08257142310433009
- -0.1363688709256427
- 0.0
- 0.0
effort:
- 0.551152229309082
- -26.167879104614258
- 0.4652290940284729
- 22.637189865112305
- 1.1664005517959595
- 2.3036653995513916
- -0.306815505027771
- 0.0
- 0.0
---
header:
  stamp:
    sec: 1756280833
    nanosec: 900216993
  frame_id: ''
name:
- fr3_joint1
- fr3_joint2
- fr3_joint3
- fr3_joint4
- fr3_joint5
- fr3_joint6
- fr3_joint7
- fr3_finger_joint1
- fr3_finger_joint2
position:
- 0.35270933185160847
- -0.14450169349160807
- -0.04998900957251312
- -2.203099934484209
- 0.06496365371995051
- 2.1253649963608425
- 0.21506527436069367
- 0.0
- 0.0
velocity:
- 0.06347191564075438
- -0.02123469142846126
- 0.053597326008912594
- -0.004428973292964859
- 0.21747180295506918
- -0.09064555884075877
- -0.14627222726508513
- 0.0
- 0.0
effort:
- 0.602726936340332
- -26.294832229614258
- 0.5168038010597229
- 22.664960861206055
- 1.1865421533584595
- 2.2835237979888916
- -0.293998122215271
- 0.0
- 0.0
---
header:
  stamp:
    sec: 1756280833
    nanosec: 934084347
  frame_id: ''
name:
- fr3_joint1
- fr3_joint2
- fr3_joint3
- fr3_joint4
- fr3_joint5
- fr3_joint6
- fr3_joint7
- fr3_finger_joint1
- fr3_finger_joint2
position:
- 0.3546626662590371
- -0.14521432236101375
- -0.04809728515819953
- -2.2032617435236785
- 0.07193618197047029
- 2.122304740631283
- 0.21081628168395153
- 0.0
- 0.0
velocity:
- 0.05729384194245632
- -0.022516058647681695
- 0.060216882577976236
- -0.006817882790231629
- 0.20672892835683954
- -0.08893609649129774
- -0.12184848136018507
- 0.0
- 0.0
effort:
- 0.24567127227783203
- -26.167879104614258
- 0.2311592698097229
- 22.664960861206055
- 1.1334415674209595
- 2.2633821964263916
- -0.340690016746521
- 0.0
- 0.0
---
header:
  stamp:
    sec: 1756280833
    nanosec: 967029543
  frame_id: ''
name:
- fr3_joint1
- fr3_joint2
- fr3_joint3
- fr3_joint4
- fr3_joint5
- fr3_joint6
- fr3_joint7
- fr3_finger_joint1
- fr3_finger_joint2
position:
- 0.35662976434045546
- -0.14598227275870115
- -0.04620073446307282
- -2.2034459462179377
- 0.07878940694978266
- 2.1194120062137567
- 0.20687461149998734
- 0.0
- 0.0
velocity:
- 0.06308463908611406
- -0.0254952013932599
- 0.054309515096849226
- -0.006333706171567938
- 0.20501144270826852
- -0.09098023542986673
- -0.12594937661343744
- 0.0
- 0.0
effort:
- 0.24567127227783203
- -26.116304397583008
- 0.1795845627784729
- 22.506269454956055
- 1.1013981103897095
- 2.2496492862701416
- -0.293998122215271
- 0.0
- 0.0
---
header:
  stamp:
    sec: 1756280834
    nanosec: 350408
  frame_id: ''
name:
- fr3_joint1
- fr3_joint2
- fr3_joint3
- fr3_joint4
- fr3_joint5
- fr3_joint6
- fr3_joint7
- fr3_finger_joint1
- fr3_finger_joint2
position:
- 0.3587628082192052
- -0.14681616996144684
- -0.04428078843532643
- -2.203627362937703
- 0.0859562899513432
- 2.116307027205185
- 0.2022694632351336
- 0.0
- 0.0
velocity:
- 0.060264347693886944
- -0.024600021371879874
- 0.05589154603788869
- -0.006533000682967494
- 0.21202670333049126
- -0.08361672850794742
- -0.14363607904765188
- 0.0
- 0.0
effort:
- 0.42419910430908203
- -26.116304397583008
- 0.3620796799659729
- 22.534040451049805
- 1.1471744775772095
- 2.3036653995513916
- -0.300406813621521
- 0.0
- 0.0
---
header:
  stamp:
    sec: 1756280834
    nanosec: 33587469
  frame_id: ''
name:
- fr3_joint1
- fr3_joint2
- fr3_joint3
- fr3_joint4
- fr3_joint5
- fr3_joint6
- fr3_joint7
- fr3_finger_joint1
- fr3_finger_joint2
position:
- 0.36089666985390073
- -0.14758777478125176
- -0.04254821949262731
- -2.2038064715512635
- 0.09278554441033743
- 2.11361219490467
- 0.19716815650876288
- 0.0
- 0.0
velocity:
- 0.06840561002994384
- -0.024589434039608473
- 0.05104712197322804
- -0.007817388053072702
- 0.21306659475135759
- -0.08172279867107109
- -0.16528831637240768
- 0.0
- 0.0
effort:
- 0.527348518371582
- -26.088533401489258
- 0.4890328049659729
- 22.585615158081055
- 1.1728092432022095
- 2.2569735050201416
- -0.266532301902771
- 0.0
- 0.0
---
header:
  stamp:
    sec: 1756280834
    nanosec: 66984342
  frame_id: ''
name:
- fr3_joint1
- fr3_joint2
- fr3_joint3
- fr3_joint4
- fr3_joint5
- fr3_joint6
- fr3_joint7
- fr3_finger_joint1
- fr3_finger_joint2
position:
- 0.3631220848720548
- -0.1483970042758816
- -0.04082591080016223
- -2.2039943421127486
- 0.09970296207783029
- 2.110851196831583
- 0.1922388516975145
- 0.0
- 0.0
velocity:
- 0.0647044858447209
- -0.025116537237965208
- 0.05506705531486542
- -0.006806457218953072
- 0.21100032859891893
- -0.08239160008443956
- -0.13643795665568587
- 0.0
- 0.0
effort:
- 0.44800281524658203
- -26.088533401489258
- 0.4374580979347229
- 22.585615158081055
- 1.1142154932022095
- 2.2633821964263916
- -0.314139723777771
- 0.0
- 0.0
---
header:
  stamp:
    sec: 1756280834
    nanosec: 100231349
  frame_id: ''
name:
- fr3_joint1
- fr3_joint2
- fr3_joint3
- fr3_joint4
- fr3_joint5
- fr3_joint6
- fr3_joint7
- fr3_finger_joint1
- fr3_finger_joint2
position:
- 0.3653577352805278
- -0.14930170288171696
- -0.038865164172050624
- -2.20422057122469
- 0.10724623059385675
- 2.107949351658468
- 0.18800818908658187
- 0.0
- 0.0
velocity:
- 0.06570903908347217
- -0.025823618767800018
- 0.05691444292693282
- -0.005285452802234695
- 0.21923380760662614
- -0.08106811592211764
- -0.11886531461161907
- 0.0
- 0.0
effort:
- 0.26947498321533203
- -26.116304397583008
- 0.1795845627784729
- 22.557844161987305
- 1.0556217432022095
- 2.2304232120513916
- -0.314139723777771
- 0.0
- 0.0
---
header:
  stamp:
    sec: 1756280834
    nanosec: 133996793
  frame_id: ''
name:
- fr3_joint1
- fr3_joint2
- fr3_joint3
- fr3_joint4
- fr3_joint5
- fr3_joint6
- fr3_joint7
- fr3_finger_joint1
- fr3_finger_joint2
position:
- 0.36744864131984817
- -0.15020283358227965
- -0.03704353685671892
- -2.2043882034621918
- 0.1142758210654699
- 2.104989525600989
- 0.18401886127183775
- 0.0
- 0.0
velocity:
- 0.06196758576575708
- -0.027241936305958225
- 0.05772883231452329
- -0.004609171451038757
- 0.22002834469588695
- -0.09513369249143136
- -0.1291634134020742
- 0.0
- 0.0
effort:
- 0.06714344024658203
- -26.167879104614258
- -0.0782889723777771
- 22.534040451049805
- 1.0748478174209595
- 2.2899324893951416
- -0.280265212059021
- 0.0
- 0.0
---
header:
  stamp:
    sec: 1756280834
    nanosec: 167035734
  frame_id: ''
name:
- fr3_joint1
- fr3_joint2
- fr3_joint3
- fr3_joint4
- fr3_joint5
- fr3_joint6
- fr3_joint7
- fr3_finger_joint1
- fr3_finger_joint2
position:
- 0.36944949641011243
- -0.15113775542439606
- -0.035189443302424774
- -2.2045493022865315
- 0.12085767664598593
- 2.1019376366757485
- 0.17934658688624577
- 0.0
- 0.0
velocity:
- 0.0638551167483431
- -0.02968252786193575
- 0.05323100134725533
- -0.006041522803210015
- 0.1972498997730123
- -0.09356139451839221
- -0.14936801920219017
- 0.0
- 0.0
effort:
- 0.22186756134033203
- -25.961580276489258
- 0.0764351487159729
- 22.557844161987305
- 1.2185856103897095
- 2.2633821964263916
- -0.2390664666891098
- 0.0
- 0.0
---
header:
  stamp:
    sec: 1756280834
    nanosec: 200269661
  frame_id: ''
name:
- fr3_joint1
- fr3_joint2
- fr3_joint3
- fr3_joint4
- fr3_joint5
- fr3_joint6
- fr3_joint7
- fr3_finger_joint1
- fr3_finger_joint2
position:
- 0.37165922238345556
- -0.15209135558568873
- -0.03339022663942563
- -2.2047079461013537
- 0.12810655385985295
- 2.0989242360684646
- 0.17449357541756108
- 0.0
- 0.0
velocity:
- 0.06421484329998943
- -0.02684217723418039
- 0.05094759331134131
- -0.004437123347497852
- 0.20778727483577053
- -0.08788420760880383
- -0.1310609858561891
- 0.0
- 0.0
effort:
- 0.26947498321533203
- -25.810823440551758
- 0.1518135666847229
- 22.557844161987305
- 1.1471744775772095
- 2.2633821964263916
- -0.260123610496521
- 0.0
- 0.0
---
header:
  stamp:
    sec: 1756280834
    nanosec: 233609588
  frame_id: ''
name:
- fr3_joint1
- fr3_joint2
- fr3_joint3
- fr3_joint4
- fr3_joint5
- fr3_joint6
- fr3_joint7
- fr3_finger_joint1
- fr3_finger_joint2
position:
- 0.37368910392306504
- -0.15289974162596026
- -0.03169491057667886
- -2.2048555172659086
- 0.13510304633251768
- 2.096285018942572
- 0.17027377531454474
- 0.0
- 0.0
velocity:
- 0.06490102584430303
- -0.023731039835847317
- 0.05019883302170432
- -0.0042268391561364445
- 0.21439516837071743
- -0.07588018109057124
- -0.1254973452630033
- 0.0
- 0.0
effort:
- 0.626530647277832
- -25.783052444458008
- 0.4652290940284729
- 22.506269454956055
- 1.1535831689834595
- 2.1901400089263916
- -0.334281325340271
- 0.0
- 0.0
---
header:
  stamp:
    sec: 1756280834
    nanosec: 267042057
  frame_id: ''
name:
- fr3_joint1
- fr3_joint2
- fr3_joint3
- fr3_joint4
- fr3_joint5
- fr3_joint6
- fr3_joint7
- fr3_finger_joint1
- fr3_finger_joint2
position:
- 0.3759610882970543
- -0.15363405943986128
- -0.03014528010800271
- -2.2050076858681504
- 0.14187629918352213
- 2.0937689323643305
- 0.16629462293504338
- 0.0
- 0.0
velocity:
- 0.06739095908273017
- -0.020723822983938024
- 0.04847784243757714
- -0.0034417145349335473
- 0.2128895978094103
- -0.07554021026399639
- -0.11925770313992069
- 0.0
- 0.0
effort:
- 0.602726936340332
- -25.759248733520508
- 0.5406075119972229
- 22.534040451049805
- 1.1599918603897095
- 2.1965487003326416
- -0.300406813621521
- 0.0
- 0.0
---
header:
  stamp:
    sec: 1756280834
    nanosec: 300409381
  frame_id: ''
name:
- fr3_joint1
- fr3_joint2
- fr3_joint3
- fr3_joint4
- fr3_joint5
- fr3_joint6
- fr3_joint7
- fr3_finger_joint1
- fr3_finger_joint2
position:
- 0.3781973799873746
- -0.15433764853084964
- -0.02825364165686644
- -2.2051728269382904
- 0.1492792908663786
- 2.0910568036170485
- 0.16161816052407044
- 0.0
- 0.0
velocity:
- 0.0651525728532807
- -0.021159948852875157
- 0.055546995194552834
- -0.005063836008861491
- 0.20777668404064858
- -0.07954117629437778
- -0.14832716129875373
- 0.0
- 0.0
effort:
- 0.47577381134033203
- -25.783052444458008
- 0.3620796799659729
- 22.454694747924805
- 1.1801334619522095
- 2.2102816104888916
- -0.2463906854391098
- 0.0
- 0.0
---
header:
  stamp:
    sec: 1756280834
    nanosec: 333582720
  frame_id: ''
name:
- fr3_joint1
- fr3_joint2
- fr3_joint3
- fr3_joint4
- fr3_joint5
- fr3_joint6
- fr3_joint7
- fr3_finger_joint1
- fr3_finger_joint2
position:
- 0.38025273273127824
- -0.15496491260534295
- -0.026390437874219165
- -2.205328449227954
- 0.15606819822497564
- 2.0883375971738727
- 0.15643867570181533
- 0.0
- 0.0
velocity:
- 0.0585876641570337
- -0.01783643836482873
- 0.0600110911388895
- -0.004477608526233895
- 0.20632762173209493
- -0.08625902471495718
- -0.15868614134396972
- 0.0
- 0.0
effort:
- 0.24567127227783203
- -25.810823440551758
- 0.0248604416847229
- 22.482465744018555
- 1.1993595361709595
- 2.2368319034576416
- -0.2390664666891098
- 0.0
- 0.0
---
header:
  stamp:
    sec: 1756280834
    nanosec: 366983552
  frame_id: ''
name:
- fr3_joint1
- fr3_joint2
- fr3_joint3
- fr3_joint4
- fr3_joint5
- fr3_joint6
- fr3_joint7
- fr3_finger_joint1
- fr3_finger_joint2
position:
- 0.38226007169443793
- -0.15559128842261216
- -0.024490267335984146
- -2.205487910176566
- 0.1627504240201538
- 2.0854502234020202
- 0.15187323336274178
- 0.0
- 0.0
velocity:
- 0.06237519096930906
- -0.019180029719418863
- 0.0538908322404231
- -0.004794041904579622
- 0.20901012515917552
- -0.09548251812215111
- -0.13463228233562932
- 0.0
- 0.0
effort:
- 0.24567127227783203
- -25.834627151489258
- 0.0764351487159729
- 22.506269454956055
- 1.2259098291397095
- 2.2029573917388916
- -0.260123610496521
- 0.0
- 0.0
---
header:
  stamp:
    sec: 1756280834
    nanosec: 400244608
  frame_id: ''
name:
- fr3_joint1
- fr3_joint2
- fr3_joint3
- fr3_joint4
- fr3_joint5
- fr3_joint6
- fr3_joint7
- fr3_finger_joint1
- fr3_finger_joint2
position:
- 0.38447068051121197
- -0.15623451553511483
- -0.02260176941507264
- -2.2056592371193227
- 0.169928672223989
- 2.082199316702064
- 0.147312594345715
- 0.0
- 0.0
velocity:
- 0.06387201695464284
- -0.018246589641640124
- 0.053659477867711934
- -0.0057528445050077405
- 0.20669439297678263
- -0.09018533514311358
- -0.13178576274571066
- 0.0
- 0.0
effort:
- 0.26947498321533203
- -25.810823440551758
- 0.1280098557472229
- 22.482465744018555
- 1.2121769189834595
- 2.1901400089263916
- -0.314139723777771
- 0.0
- 0.0
---
header:
  stamp:
    sec: 1756280834
    nanosec: 433930328
  frame_id: ''
name:
- fr3_joint1
- fr3_joint2
- fr3_joint3
- fr3_joint4
- fr3_joint5
- fr3_joint6
- fr3_joint7
- fr3_finger_joint1
- fr3_finger_joint2
position:
- 0.3865456566429252
- -0.15686955598110572
- -0.020816829784536767
- -2.2058637965722117
- 0.17688096826248853
- 2.0791087039416567
- 0.14298844887880677
- 0.0
- 0.0
velocity:
- 0.06510277099930528
- -0.01960415728564113
- 0.052550558343538695
- -0.008894061534117158
- 0.21234867787653855
- -0.09294947460083773
- -0.1315113519914589
- 0.0
- 0.0
effort:
- 0.40039539337158203
- -25.810823440551758
- 0.1518135666847229
- 22.534040451049805
- 1.1929508447647095
- 2.2029573917388916
- -0.314139723777771
- 0.0
- 0.0
---
header:
  stamp:
    sec: 1756280834
    nanosec: 467071018
  frame_id: ''
name:
- fr3_joint1
- fr3_joint2
- fr3_joint3
- fr3_joint4
- fr3_joint5
- fr3_joint6
- fr3_joint7
- fr3_finger_joint1
- fr3_finger_joint2
position:
- 0.38872071117532714
- -0.1575434974800838
- -0.019153897141840848
- -2.206118532120509
- 0.18390245570865935
- 2.076273917642416
- 0.13827411195599631
- 0.0
- 0.0
velocity:
- 0.06618246788726168
- -0.021789695457558957
- 0.052059109982710454
- -0.006307029796360557
- 0.2133538556696227
- -0.08462938767750089
- -0.14985302162623568
- 0.0
- 0.0
effort:
- 0.527348518371582
- -25.834627151489258
- 0.3858833909034729
- 22.613386154174805
- 1.2780948877334595
- 2.2304232120513916
- -0.314139723777771
- 0.0
- 0.0
---
header:
  stamp:
    sec: 1756280834
    nanosec: 500295528
  frame_id: ''
name:
- fr3_joint1
- fr3_joint2
- fr3_joint3
- fr3_joint4
- fr3_joint5
- fr3_joint6
- fr3_joint7
- fr3_finger_joint1
- fr3_finger_joint2
position:
- 0.39081712431119114
- -0.15828484306952245
- -0.017193811819456978
- -2.2063160840989435
- 0.19126082983491044
- 2.07342557414935
- 0.13354592996429063
- 0.0
- 0.0
velocity:
- 0.06181550902671852
- -0.019871638529334247
- 0.05543061555409725
- -0.0038098070077506024
- 0.21477261843337075
- -0.08557722052910287
- -0.128462047873856
- 0.0
- 0.0
effort:
- 0.47577381134033203
- -25.834627151489258
- 0.2827339768409729
- 22.585615158081055
- 1.2451359033584595
- 2.2029573917388916
- -0.340690016746521
- 0.0
- 0.0
---
header:
  stamp:
    sec: 1756280834
    nanosec: 534080838
  frame_id: ''
name:
- fr3_joint1
- fr3_joint2
- fr3_joint3
- fr3_joint4
- fr3_joint5
- fr3_joint6
- fr3_joint7
- fr3_finger_joint1
- fr3_finger_joint2
position:
- 0.39278466087353164
- -0.15904040450690743
- -0.015383010380435875
- -2.2064303767309705
- 0.19797553767723444
- 2.07056788660998
- 0.12958338088379026
- 0.0
- 0.0
velocity:
- 0.056872713093092365
- -0.023920690716262266
- 0.05848353626210547
- -0.003649881345803519
- 0.19312444024226488
- -0.08651462739003406
- -0.12203072314241849
- 0.0
- 0.0
effort:
- 0.37262439727783203
- -25.783052444458008
- 0.1795845627784729
- 22.557844161987305
- 1.2121769189834595
- 2.1562654972076416
- -0.260123610496521
- 0.0
- 0.0
---
header:
  stamp:
    sec: 1756280834
    nanosec: 566938716
  frame_id: ''
name:
- fr3_joint1
- fr3_joint2
- fr3_joint3
- fr3_joint4
- fr3_joint5
- fr3_joint6
- fr3_joint7
- fr3_finger_joint1
- fr3_finger_joint2
position:
- 0.3945825379866186
- -0.1598854687667441
- -0.013417642259412287
- -2.206579717805356
- 0.2046854486975231
- 2.0677616614826
- 0.12544065631503512
- 0.0
- 0.0
velocity:
- 0.056897176483104786
- -0.024738048838519905
- 0.05844526736667561
- -0.004587095123485491
- 0.20693937774318838
- -0.08697826213445
- -0.1320855542995291
- 0.0
- 0.0
effort:
- 0.26947498321533203
- -25.735445022583008
- -0.0544852614402771
- 22.534040451049805
- 1.2323185205459595
- 2.1901400089263916
- -0.293998122215271
- 0.0
- 0.0
---
header:
  stamp:
    sec: 1756280834
    nanosec: 600259673
  frame_id: ''
name:
- fr3_joint1
- fr3_joint2
- fr3_joint3
- fr3_joint4
- fr3_joint5
- fr3_joint6
- fr3_joint7
- fr3_finger_joint1
- fr3_finger_joint2
position:
- 0.3967053855172649
- -0.16078823403898151
- -0.01162559276113379
- -2.2066997307006333
- 0.2118507822474491
- 2.06468752342038
- 0.12037788798423338
- 0.0
- 0.0
velocity:
- 0.06403523401724623
- -0.02641996005282947
- 0.048595596567252396
- -0.0050923860616466175
- 0.2206833442387058
- -0.08766871564211416
- -0.15051380952948018
- 0.0
- 0.0
effort:
- 0.42419910430908203
- -25.735445022583008
- 0.0764351487159729
- 22.585615158081055
- 1.2387272119522095
- 2.1901400089263916
- -0.340690016746521
- 0.0
- 0.0
---
header:
  stamp:
    sec: 1756280834
    nanosec: 634036757
  frame_id: ''
name:
- fr3_joint1
- fr3_joint2
- fr3_joint3
- fr3_joint4
- fr3_joint5
- fr3_joint6
- fr3_joint7
- fr3_finger_joint1
- fr3_finger_joint2
position:
- 0.39883292453267516
- -0.16168864317853993
- -0.009991456255261466
- -2.2068415056417208
- 0.21875044695305984
- 2.0618581143342456
- 0.1152203379262195
- 0.0
- 0.0
velocity:
- 0.067048417097082
- -0.027497096132843277
- 0.050392271321546445
- -0.005256256226047638
- 0.20573144384244993
- -0.08484227793138985
- -0.15376674115349045
- 0.0
- 0.0
effort:
- 0.44800281524658203
- -25.707674026489258
- 0.2033882737159729
- 22.557844161987305
- 1.2451359033584595
- 2.1699984073638916
- -0.2390664666891098
- 0.0
- 0.0
---
header:
  stamp:
    sec: 1756280834
    nanosec: 667064799
  frame_id: ''
name:
- fr3_joint1
- fr3_joint2
- fr3_joint3
- fr3_joint4
- fr3_joint5
- fr3_joint6
- fr3_joint7
- fr3_finger_joint1
- fr3_finger_joint2
position:
- 0.40115676322108335
- -0.16262606470327354
- -0.00846681089896373
- -2.2070186170820754
- 0.22582977337198792
- 2.059122735375124
- 0.1109286418424875
- 0.0
- 0.0
velocity:
- 0.07398019477495149
- -0.029541840908112876
- 0.0431800179170916
- -0.005119184532986198
- 0.21456929922270526
- -0.0830552340427569
- -0.12215012250779873
- 0.0
- 0.0
effort:
- 0.527348518371582
- -25.656099319458008
- 0.2827339768409729
- 22.506269454956055
- 1.2259098291397095
- 2.1434481143951416
- -0.266532301902771
- 0.0
- 0.0
---
header:
  stamp:
    sec: 1756280834
    nanosec: 700349439
  frame_id: ''
name:
- fr3_joint1
- fr3_joint2
- fr3_joint3
- fr3_joint4
- fr3_joint5
- fr3_joint6
- fr3_joint7
- fr3_finger_joint1
- fr3_finger_joint2
position:
- 0.4035548916544122
- -0.16366870755732793
- -0.006707484703359436
- -2.2072177033026854
- 0.23301094772248265
- 2.0562929189538486
- 0.10672224550630557
- 0.0
- 0.0
velocity:
- 0.0643743627486403
- -0.028791031820080214
- 0.055432820857230065
- -0.005421094912011981
- 0.20850686931578669
- -0.08116067600047686
- -0.12591098595143987
- 0.0
- 0.0
effort:
- 0.578923225402832
- -25.683870315551758
- 0.2549629807472229
- 22.506269454956055
- 1.2579532861709595
- 2.1498568058013916
- -0.293998122215271
- 0.0
- 0.0
---
header:
  stamp:
    sec: 1756280834
    nanosec: 734113495
  frame_id: ''
name:
- fr3_joint1
- fr3_joint2
- fr3_joint3
- fr3_joint4
- fr3_joint5
- fr3_joint6
- fr3_joint7
- fr3_finger_joint1
- fr3_finger_joint2
position:
- 0.40568689567286376
- -0.16464385852521157
- -0.004866714407340447
- -2.2074022062384864
- 0.2396054124499091
- 2.0536970173609395
- 0.10223163684897886
- 0.0
- 0.0
velocity:
- 0.06271852312811206
- -0.029508695766884075
- 0.05759977541536425
- -0.0046172579015016
- 0.20335593051353965
- -0.07998083519249725
- -0.14627300921936576
- 0.0
- 0.0
effort:
- 0.44800281524658203
- -25.378389358520508
- 0.1280098557472229
- 22.482465744018555
- 1.3110538721084595
- 2.1699984073638916
- -0.272940993309021
- 0.0
- 0.0
---
header:
  stamp:
    sec: 1756280834
    nanosec: 767217515
  frame_id: ''
name:
- fr3_joint1
- fr3_joint2
- fr3_joint3
- fr3_joint4
- fr3_joint5
- fr3_joint6
- fr3_joint7
- fr3_finger_joint1
- fr3_finger_joint2
position:
- 0.40758306238221903
- -0.16551987256747233
- -0.0028103619173765705
- -2.2075420257376215
- 0.2465396627711261
- 2.0510952085023524
- 0.09743810739461879
- 0.0
- 0.0
velocity:
- 0.05903742877536969
- -0.024829346280610332
- 0.060946388579070566
- -0.003420483628150582
- 0.2116338681610322
- -0.08285648605167362
- -0.1389298235269069
- 0.0
- 0.0
effort:
- 0.22186756134033203
- -25.429964065551758
- -0.1060599684715271
- 22.454694747924805
- 1.2652775049209595
- 2.1635897159576416
- -0.306815505027771
- 0.0
- 0.0
---
header:
  stamp:
    sec: 1756280834
    nanosec: 800447740
  frame_id: ''
name:
- fr3_joint1
- fr3_joint2
- fr3_joint3
- fr3_joint4
- fr3_joint5
- fr3_joint6
- fr3_joint7
- fr3_finger_joint1
- fr3_finger_joint2
position:
- 0.40963500538172276
- -0.1663829768378797
- -0.0008250209019027449
- -2.207698672454755
- 0.2538999951037494
- 2.0482108261518204
- 0.09290813399796082
- 0.0
- 0.0
velocity:
- 0.06110405044680225
- -0.024311787010528253
- 0.05569474536427532
- -0.004518369435079391
- 0.2070542981074106
- -0.0874192536354507
- -0.1308397815246541
- 0.0
- 0.0
effort:
- 0.40039539337158203
- -25.326814651489258
- 0.0248604416847229
- 22.323774337768555
- 1.3632389307022095
- 2.1370394229888916
- -0.280265212059021
- 0.0
- 0.0
---
header:
  stamp:
    sec: 1756280834
    nanosec: 834116719
  frame_id: ''
name:
- fr3_joint1
- fr3_joint2
- fr3_joint3
- fr3_joint4
- fr3_joint5
- fr3_joint6
- fr3_joint7
- fr3_finger_joint1
- fr3_finger_joint2
position:
- 0.4117526121560003
- -0.16709541509798967
- 0.0008388301732928284
- -2.2078660610873437
- 0.2607761345771595
- 2.045236270623844
- 0.0888079728326785
- 0.0
- 0.0
velocity:
- 0.06531011031942224
- -0.018550184870677222
- 0.05395873469514913
- -0.004795871467108826
- 0.22052821336650705
- -0.09196964015802095
- -0.1279915729886197
- 0.0
- 0.0
effort:
- 0.37262439727783203
- -25.429964065551758
- 0.0486641526222229
- 22.426923751831055
- 1.2579532861709595
- 2.0830233097076416
- -0.327872633934021
- 0.0
- 0.0
---
header:
  stamp:
    sec: 1756280834
    nanosec: 866958420
  frame_id: ''
name:
- fr3_joint1
- fr3_joint2
- fr3_joint3
- fr3_joint4
- fr3_joint5
- fr3_joint6
- fr3_joint7
- fr3_finger_joint1
- fr3_finger_joint2
position:
- 0.4139499836559956
- -0.1677830521948255
- 0.0024668773768656608
- -2.2081136996075696
- 0.2678561971527606
- 2.042348335875984
- 0.08458155010033136
- 0.0
- 0.0
velocity:
- 0.06784151600691583
- -0.021728907512061857
- 0.048405357866119436
- -0.009152370691052571
- 0.21650528771196012
- -0.08513508376148968
- -0.14130950832122496
- 0.0
- 0.0
effort:
- 0.578923225402832
- -25.429964065551758
- 0.1280098557472229
- 22.506269454956055
- 1.3037296533584595
- 2.1168978214263916
- -0.300406813621521
- 0.0
- 0.0
---
header:
  stamp:
    sec: 1756280834
    nanosec: 900322710
  frame_id: ''
name:
- fr3_joint1
- fr3_joint2
- fr3_joint3
- fr3_joint4
- fr3_joint5
- fr3_joint6
- fr3_joint7
- fr3_finger_joint1
- fr3_finger_joint2
position:
- 0.416232684778056
- -0.16849407664024102
- 0.004319283905014349
- -2.2083875267653448
- 0.27514444578135494
- 2.039216756712824
- 0.07914667786549319
- 0.0
- 0.0
velocity:
- 0.06409052881075158
- -0.01957714916381713
- 0.05757154018586843
- -0.007384682306443708
- 0.19809062562060664
- -0.09061406898187961
- -0.16423186783508376
- 0.0
- 0.0
effort:
- 0.37262439727783203
- -25.402193069458008
- -0.0029105544090270996
- 22.482465744018555
- 1.2652775049209595
- 2.1498568058013916
- -0.293998122215271
- 0.0
- 0.0
---
header:
  stamp:
    sec: 1756280834
    nanosec: 933584118
  frame_id: ''
name:
- fr3_joint1
- fr3_joint2
- fr3_joint3
- fr3_joint4
- fr3_joint5
- fr3_joint6
- fr3_joint7
- fr3_finger_joint1
- fr3_finger_joint2
position:
- 0.41831527820052344
- -0.169113290491481
- 0.006110821355241251
- -2.2086338442975513
- 0.281666818963941
- 2.0363728186006025
- 0.0743718149959515
- 0.0
- 0.0
velocity:
- 0.06510935597578382
- -0.01899858437633155
- 0.0538118112511702
- -0.00889693816667674
- 0.2098489934565166
- -0.0869805929240894
- -0.13244963885964542
- 0.0
- 0.0
effort:
- 0.37262439727783203
- -25.402193069458008
- -0.0267142653465271
- 22.613386154174805
- 1.3504215478897095
- 2.1434481143951416
- -0.306815505027771
- 0.0
- 0.0
---
header:
  stamp:
    sec: 1756280834
    nanosec: 967158491
  frame_id: ''
name:
- fr3_joint1
- fr3_joint2
- fr3_joint3
- fr3_joint4
- fr3_joint5
- fr3_joint6
- fr3_joint7
- fr3_finger_joint1
- fr3_finger_joint2
position:
- 0.42022883712619696
- -0.16971458986763527
- 0.008053859437478465
- -2.2088704026817543
- 0.28852660564690474
- 2.0336542694048934
- 0.0699920610949101
- 0.0
- 0.0
velocity:
- 0.05570310211644624
- -0.017562117311597545
- 0.060162540620745365
- -0.007778361149663287
- 0.21449203889934385
- -0.08398886296473433
- -0.130453078012778
- 0.0
- 0.0
effort:
- 0.32104969024658203
- -25.505342483520508
- -0.0782889723777771
- 22.613386154174805
- 1.3037296533584595
- 2.0235140323638916
- -0.260123610496521
- 0.0
- 0.0
---
header:
  stamp:
    sec: 1756280835
    nanosec: 292272
  frame_id: ''
name:
- fr3_joint1
- fr3_joint2
- fr3_joint3
- fr3_joint4
- fr3_joint5
- fr3_joint6
- fr3_joint7
- fr3_finger_joint1
- fr3_finger_joint2
position:
- 0.42228533211102165
- -0.17039070945794124
- 0.009974832320196202
- -2.2091333972811045
- 0.2959678428566058
- 2.0307181055344357
- 0.06548104527166652
- 0.0
- 0.0
velocity:
- 0.0617647613472501
- -0.020475996033294544
- 0.052524311455599444
- -0.006553977683724249
- 0.20204101868017907
- -0.08271730630503776
- -0.12849665165678592
- 0.0
- 0.0
effort:
- 0.37262439727783203
- -25.378389358520508
- 0.0486641526222229
- 22.585615158081055
- 1.3302799463272095
- 2.0702059268951416
- -0.280265212059021
- 0.0
- 0.0
---
header:
  stamp:
    sec: 1756280835
    nanosec: 34063396
  frame_id: ''
name:
- fr3_joint1
- fr3_joint2
- fr3_joint3
- fr3_joint4
- fr3_joint5
- fr3_joint6
- fr3_joint7
- fr3_finger_joint1
- fr3_finger_joint2
position:
- 0.4242852910364484
- -0.17104612416036383
- 0.01171635110700955
- -2.209374985290317
- 0.3028604190467327
- 2.0279927526765698
- 0.06092729958881607
- 0.0
- 0.0
velocity:
- 0.0612937530981654
- -0.021017637827056606
- 0.05550830255824586
- -0.0044126522153443495
- 0.21556591748584564
- -0.08745247199776073
- -0.1493629772208694
- 0.0
- 0.0
effort:
- 0.47577381134033203
- -25.429964065551758
- 0.1002388596534729
- 22.613386154174805
- 1.3430973291397095
- 2.0363314151763916
- -0.300406813621521
- 0.0
- 0.0
---
header:
  stamp:
    sec: 1756280835
    nanosec: 66982829
  frame_id: ''
name:
- fr3_joint1
- fr3_joint2
- fr3_joint3
- fr3_joint4
- fr3_joint5
- fr3_joint6
- fr3_joint7
- fr3_finger_joint1
- fr3_finger_joint2
position:
- 0.4264624854400819
- -0.17174888036451766
- 0.013327854528964558
- -2.20957023144133
- 0.3098274085503195
- 2.0248764485709696
- 0.05624366122104269
- 0.0
- 0.0
velocity:
- 0.07224738416910927
- -0.02290012503990444
- 0.046114574215838616
- -0.005042522926735265
- 0.21177079268487778
- -0.09443324287756386
- -0.13324673150453492
- 0.0
- 0.0
effort:
- 0.729680061340332
- -25.429964065551758
- 0.2827339768409729
- 22.613386154174805
- 1.3302799463272095
- 2.0830233097076416
- -0.340690016746521
- 0.0
- 0.0
---
header:
  stamp:
    sec: 1756280835
    nanosec: 100265214
  frame_id: ''
name:
- fr3_joint1
- fr3_joint2
- fr3_joint3
- fr3_joint4
- fr3_joint5
- fr3_joint6
- fr3_joint7
- fr3_finger_joint1
- fr3_finger_joint2
position:
- 0.4289593926845036
- -0.17257040881320088
- 0.01497356222248043
- -2.2097845145519055
- 0.31696205075178624
- 2.0216962514245376
- 0.05198664797470491
- 0.0
- 0.0
velocity:
- 0.0694053108741348
- -0.023591181353183135
- 0.0530933742230172
- -0.0053118592493832705
- 0.2007353742808991
- -0.08898510295587896
- -0.1156759223694368
- 0.0
- 0.0
effort:
- 0.37262439727783203
- -25.251436233520508
- -0.0544852614402771
- 22.534040451049805
- 1.3430973291397095
- 2.0702059268951416
- -0.361747145652771
- 0.0
- 0.0
---
header:
  stamp:
    sec: 1756280835
    nanosec: 133580656
  frame_id: ''
name:
- fr3_joint1
- fr3_joint2
- fr3_joint3
- fr3_joint4
- fr3_joint5
- fr3_joint6
- fr3_joint7
- fr3_finger_joint1
- fr3_finger_joint2
position:
- 0.4311258888723441
- -0.17335970106111093
- 0.016750639830539288
- -2.2099757775459454
- 0.32371509370490564
- 2.018952699626904
- 0.04784373821671897
- 0.0
- 0.0
velocity:
- 0.06656710686726
- -0.02372021900936935
- 0.055654910221321234
- -0.0031206929715830644
- 0.2082905308932281
- -0.08239903409227879
- -0.12599568552780924
- 0.0
- 0.0
effort:
- 0.40039539337158203
- -25.199861526489258
- -0.0267142653465271
- 22.506269454956055
- 1.3632389307022095
- 2.0564730167388916
- -0.327872633934021
- 0.0
- 0.0
---
header:
  stamp:
    sec: 1756280835
    nanosec: 167022189
  frame_id: ''
name:
- fr3_joint1
- fr3_joint2
- fr3_joint3
- fr3_joint4
- fr3_joint5
- fr3_joint6
- fr3_joint7
- fr3_finger_joint1
- fr3_finger_joint2
position:
- 0.4331993212891153
- -0.174141459726142
- 0.018657939947564255
- -2.210169952054374
- 0.3307591194892675
- 2.0163421158672987
- 0.04316986565987302
- 0.0
- 0.0
velocity:
- 0.060692651661154194
- -0.02410739606952888
- 0.06122294083146903
- -0.005564033859813097
- 0.21801972581226797
- -0.07755544908308926
- -0.15073239397782665
- 0.0
- 0.0
effort:
- 0.19409656524658203
- -25.303010940551758
- -0.2607840895652771
- 22.557844161987305
- 1.3037296533584595
- 2.0702059268951416
- -0.327872633934021
- 0.0
- 0.0
---
header:
  stamp:
    sec: 1756280835
    nanosec: 200196308
  frame_id: ''
name:
- fr3_joint1
- fr3_joint2
- fr3_joint3
- fr3_joint4
- fr3_joint5
- fr3_joint6
- fr3_joint7
- fr3_finger_joint1
- fr3_finger_joint2
position:
- 0.43528068460246233
- -0.17504584241965815
- 0.020685686403707323
- -2.21039087042619
- 0.33801473053909736
- 2.0136204188038853
- 0.03771357007323803
- 0.0
- 0.0
velocity:
- 0.060964689407111645
- -0.0273586271459105
- 0.05898212790171395
- -0.00689171160465277
- 0.21424064076193833
- -0.07892965029407438
- -0.15659659758595995
- 0.0
- 0.0
effort:
- 0.32104969024658203
- -25.402193069458008
- -0.1814383864402771
- 22.688764572143555
- 1.3174625635147095
- 2.0766146183013916
- -0.266532301902771
- 0.0
- 0.0
---
header:
  stamp:
    sec: 1756280835
    nanosec: 234076830
  frame_id: ''
name:
- fr3_joint1
- fr3_joint2
- fr3_joint3
- fr3_joint4
- fr3_joint5
- fr3_joint6
- fr3_joint7
- fr3_finger_joint1
- fr3_finger_joint2
position:
- 0.4372903822740193
- -0.17599384121552214
- 0.022512544384083937
- -2.210574750610465
- 0.34502425916197416
- 2.011021893706432
- 0.0332356514898899
- 0.0
- 0.0
velocity:
- 0.06349247487706228
- -0.030142600088919533
- 0.05681365982168267
- -0.00526695952666075
- 0.2126447971187945
- -0.08351468271615542
- -0.12360056787517802
- 0.0
- 0.0
effort:
- 0.22186756134033203
- -25.275239944458008
- -0.1576346755027771
- 22.613386154174805
- 1.3961979150772095
- 2.0637972354888916
- -0.300406813621521
- 0.0
- 0.0
---
header:
  stamp:
    sec: 1756280835
    nanosec: 266997376
  frame_id: ''
name:
- fr3_joint1
- fr3_joint2
- fr3_joint3
- fr3_joint4
- fr3_joint5
- fr3_joint6
- fr3_joint7
- fr3_finger_joint1
- fr3_finger_joint2
position:
- 0.43933564099593164
- -0.17698465241593833
- 0.02428185301637763
- -2.2107022725018197
- 0.3519660534942553
- 2.008257125018144
- 0.02940962041684332
- 0.0
- 0.0
velocity:
- 0.06450237709010254
- -0.03060701805564433
- 0.05306391154864264
- -0.004243768037677868
- 0.19836355960180999
- -0.08901204640442732
- -0.11845226312646905
- 0.0
- 0.0
effort:
- 0.527348518371582
- -25.124483108520508
- 0.0248604416847229
- 22.534040451049805
- 1.3696476221084595
- 1.9905551671981812
- -0.327872633934021
- 0.0
- 0.0
---
header:
  stamp:
    sec: 1756280835
    nanosec: 300271088
  frame_id: ''
name:
- fr3_joint1
- fr3_joint2
- fr3_joint3
- fr3_joint4
- fr3_joint5
- fr3_joint6
- fr3_joint7
- fr3_finger_joint1
- fr3_finger_joint2
position:
- 0.4416564985295122
- -0.17801987134722524
- 0.026043107409728927
- -2.2107604390227102
- 0.358782642126289
- 2.005072750827627
- 0.0250303875892035
- 0.0
- 0.0
velocity:
- 0.06601643204257739
- -0.02845607663871782
- 0.05309387026971936
- -0.002161728212779993
- 0.2056998776301703
- -0.0922142415294312
- -0.13523134291301006
- 0.0
- 0.0
effort:
- 0.34882068634033203
- -24.870576858520508
- -0.1576346755027771
- 22.506269454956055
- 1.3760563135147095
- 1.9832309484481812
- -0.272940993309021
- 0.0
- 0.0
---
header:
  stamp:
    sec: 1756280835
    nanosec: 333667319
  frame_id: ''
name:
- fr3_joint1
- fr3_joint2
- fr3_joint3
- fr3_joint4
- fr3_joint5
- fr3_joint6
- fr3_joint7
- fr3_finger_joint1
- fr3_finger_joint2
position:
- 0.44377145205569696
- -0.17892328625673828
- 0.02776577597714211
- -2.2108301421763863
- 0.36573301989302326
- 2.0020260480336995
- 0.02031611611721058
- 0.0
- 0.0
velocity:
- 0.0626017182060431
- -0.025922792160795065
- 0.05382134860143601
- -0.0031710630562278514
- 0.21024268190232853
- -0.09373690976514498
- -0.14395512218439563
- 0.0
- 0.0
effort:
- 0.40039539337158203
- -24.842805862426758
- -0.1576346755027771
- 22.426923751831055
- 1.3568302392959595
- 1.9969638586044312
- -0.327872633934021
- 0.0
- 0.0
---
header:
  stamp:
    sec: 1756280835
    nanosec: 367057246
  frame_id: ''
name:
- fr3_joint1
- fr3_joint2
- fr3_joint3
- fr3_joint4
- fr3_joint5
- fr3_joint6
- fr3_joint7
- fr3_finger_joint1
- fr3_finger_joint2
position:
- 0.445727189409538
- -0.17972655641424395
- 0.029660689978930035
- -2.2109381343829866
- 0.37287615830006987
- 1.9990729158208895
- 0.01597115906264152
- 0.0
- 0.0
velocity:
- 0.05741687697322139
- -0.023000991298864813
- 0.06001301804674687
- -0.003762577475573347
- 0.2121939111877749
- -0.0880600905238049
- -0.13076954801287372
- 0.0
- 0.0
effort:
- 0.19409656524658203
- -24.791231155395508
- -0.3401297926902771
- 22.482465744018555
- 1.3174625635147095
- 1.9832309484481812
- -0.293998122215271
- 0.0
- 0.0
---
header:
  stamp:
    sec: 1756280835
    nanosec: 400320135
  frame_id: ''
name:
- fr3_joint1
- fr3_joint2
- fr3_joint3
- fr3_joint4
- fr3_joint5
- fr3_joint6
- fr3_joint7
- fr3_finger_joint1
- fr3_finger_joint2
position:
- 0.447714533377791
- -0.18045566578855674
- 0.031648401706559234
- -2.211094655311157
- 0.3801674258802471
- 1.9962174540538957
- 0.011524831847718473
- 0.0
- 0.0
velocity:
- 0.06088812468888306
- -0.021446530798910995
- 0.054905260256368826
- -0.006071290742227627
- 0.2196457032201248
- -0.07849695578257461
- -0.12673688128941307
- 0.0
- 0.0
effort:
- 0.32104969024658203
- -24.842805862426758
- -0.2330130934715271
- 22.585615158081055
- 1.3504215478897095
- 1.9832309484481812
- -0.293998122215271
- 0.0
- 0.0
---
header:
  stamp:
    sec: 1756280835
    nanosec: 433588414
  frame_id: ''
name:
- fr3_joint1
- fr3_joint2
- fr3_joint3
- fr3_joint4
- fr3_joint5
- fr3_joint6
- fr3_joint7
- fr3_finger_joint1
- fr3_finger_joint2
position:
- 0.44972452635393717
- -0.18107527251329295
- 0.033320502249972024
- -2.2112712844206364
- 0.38718920323147077
- 1.9934769967064778
- 0.007339761255463873
- 0.0
- 0.0
velocity:
- 0.05990708197696942
- -0.018937400605461292
- 0.05534083652352572
- -0.007172652008379784
- 0.2114346637556608
- -0.08697563635649248
- -0.13406728899210474
- 0.0
- 0.0
effort:
- 0.578923225402832
- -24.842805862426758
- -0.0029105544090270996
- 22.534040451049805
- 1.3632389307022095
- 1.9301303625106812
- -0.286673903465271
- 0.0
- 0.0
---
header:
  stamp:
    sec: 1756280835
    nanosec: 467031086
  frame_id: ''
name:
- fr3_joint1
- fr3_joint2
- fr3_joint3
- fr3_joint4
- fr3_joint5
- fr3_joint6
- fr3_joint7
- fr3_finger_joint1
- fr3_finger_joint2
position:
- 0.45173572083414293
- -0.18165039193838076
- 0.035027621450020044
- -2.2114479099895825
- 0.3939893327079772
- 1.990626955950792
- 0.0025222167303709576
- 0.0
- 0.0
velocity:
- 0.06751103238906922
- -0.018500512960042712
- 0.04802000253657801
- -0.005293268383025924
- 0.2000334772843318
- -0.08413243832550224
- -0.15658889677391355
- 0.0
- 0.0
effort:
- 0.602726936340332
- -24.894380569458008
- 0.1002388596534729
- 22.506269454956055
- 1.3568302392959595
- 1.9301303625106812
- -0.306815505027771
- 0.0
- 0.0
---
header:
  stamp:
    sec: 1756280835
    nanosec: 500218131
  frame_id: ''
name:
- fr3_joint1
- fr3_joint2
- fr3_joint3
- fr3_joint4
- fr3_joint5
- fr3_joint6
- fr3_joint7
- fr3_finger_joint1
- fr3_finger_joint2
position:
- 0.4541363057839995
- -0.1822443651213478
- 0.03667632095763191
- -2.2116491678657595
- 0.4009473636928909
- 1.9876806858917713
- -0.0028023449969806916
- 0.0
- 0.0
velocity:
- 0.07100547476316892
- -0.016350531054745446
- 0.04858746233795315
- -0.004783493644274928
- 0.209482790361168
- -0.0887331594767018
- -0.14123361601271914
- 0.0
- 0.0
effort:
- 0.832829475402832
- -24.945955276489258
- 0.3343086838722229
- 22.534040451049805
- 1.4026066064834595
- 1.8770297765731812
- -0.2463906854391098
- 0.0
- 0.0
---
header:
  stamp:
    sec: 1756280835
    nanosec: 533648764
  frame_id: ''
name:
- fr3_joint1
- fr3_joint2
- fr3_joint3
- fr3_joint4
- fr3_joint5
- fr3_joint6
- fr3_joint7
- fr3_finger_joint1
- fr3_finger_joint2
position:
- 0.4563224917889469
- -0.1828486212141008
- 0.0384437980758753
- -2.2118655426768163
- 0.4079294554913318
- 1.9847564040094425
- -0.007083656258653167
- 0.0
- 0.0
velocity:
- 0.06644734350070303
- -0.017669759990776364
- 0.054877696559470654
- -0.008096790349780001
- 0.22036002043389583
- -0.08825526859325944
- -0.12989321978440999
- 0.0
- 0.0
effort:
- 0.654301643371582
- -24.945955276489258
- 0.0486641526222229
- 22.585615158081055
- 1.3888736963272095
- 1.9099887609481812
- -0.293998122215271
- 0.0
- 0.0
---
header:
  stamp:
    sec: 1756280835
    nanosec: 566998348
  frame_id: ''
name:
- fr3_joint1
- fr3_joint2
- fr3_joint3
- fr3_joint4
- fr3_joint5
- fr3_joint6
- fr3_joint7
- fr3_finger_joint1
- fr3_finger_joint2
position:
- 0.45850697267096235
- -0.18351046572568858
- 0.04030657668230895
- -2.2121336579887227
- 0.41483077484956604
- 1.981963924033313
- -0.011400744493161039
- 0.0
- 0.0
velocity:
- 0.06207800605572624
- -0.021063528349446997
- 0.06010939404673486
- -0.008141198883473767
- 0.20692514445541113
- -0.08506483329302607
- -0.13036350697027535
- 0.0
- 0.0
effort:
- 0.32104969024658203
- -24.969758987426758
- -0.2607840895652771
- 22.664960861206055
- 1.4026066064834595
- 1.9365390539169312
- -0.334281325340271
- 0.0
- 0.0
---
header:
  stamp:
    sec: 1756280835
    nanosec: 600425617
  frame_id: ''
name:
- fr3_joint1
- fr3_joint2
- fr3_joint3
- fr3_joint4
- fr3_joint5
- fr3_joint6
- fr3_joint7
- fr3_finger_joint1
- fr3_finger_joint2
position:
- 0.4605975672000707
- -0.18429073148970965
- 0.042404264255575475
- -2.2123952470899093
- 0.42213876894362334
- 1.9790258284801272
- -0.015958357832133382
- 0.0
- 0.0
velocity:
- 0.06087719569926858
- -0.02277731181087968
- 0.05950302185501026
- -0.005802339625108659
- 0.21261093610017934
- -0.08167100984491814
- -0.13831154229100254
- 0.0
- 0.0
effort:
- 0.24567127227783203
- -24.894380569458008
- -0.3639335036277771
- 22.688764572143555
- 1.4154239892959595
- 1.8971713781356812
- -0.361747145652771
- 0.0
- 0.0
---
header:
  stamp:
    sec: 1756280835
    nanosec: 634101164
  frame_id: ''
name:
- fr3_joint1
- fr3_joint2
- fr3_joint3
- fr3_joint4
- fr3_joint5
- fr3_joint6
- fr3_joint7
- fr3_finger_joint1
- fr3_finger_joint2
position:
- 0.4627205518715607
- -0.18506172066495347
- 0.04417738353632294
- -2.2126199787754364
- 0.4291152149030338
- 1.9763768809531113
- -0.020766137213641192
- 0.0
- 0.0
velocity:
- 0.06716690023957061
- -0.02344863098514219
- 0.052775238702434855
- -0.006428580622242931
- 0.2100976201732665
- -0.07935587112459157
- -0.1460144723285063
- 0.0
- 0.0
effort:
- 0.19409656524658203
- -24.842805862426758
- -0.4432792067527771
- 22.637189865112305
- 1.4026066064834595
- 1.9237216711044312
- -0.293998122215271
- 0.0
- 0.0
---
header:
  stamp:
    sec: 1756280835
    nanosec: 667049788
  frame_id: ''
name:
- fr3_joint1
- fr3_joint2
- fr3_joint3
- fr3_joint4
- fr3_joint5
- fr3_joint6
- fr3_joint7
- fr3_finger_joint1
- fr3_finger_joint2
position:
- 0.464871890014891
- -0.18586932658977093
- 0.045890466322182064
- -2.2128117554503413
- 0.43556577031372723
- 1.9738048970798583
- -0.024988753072133798
- 0.0
- 0.0
velocity:
- 0.06697954984610338
- -0.025482539786110293
- 0.05008202228799187
- -0.00516681620154364
- 0.19614737487173345
- -0.07830625589464632
- -0.12298379441904302
- 0.0
- 0.0
effort:
- 0.40039539337158203
- -24.692049026489258
- -0.1298636794090271
- 22.585615158081055
- 1.4740177392959595
- 1.8898471593856812
- -0.327872633934021
- 0.0
- 0.0
---
header:
  stamp:
    sec: 1756280835
    nanosec: 700297962
  frame_id: ''
name:
- fr3_joint1
- fr3_joint2
- fr3_joint3
- fr3_joint4
- fr3_joint5
- fr3_joint6
- fr3_joint7
- fr3_finger_joint1
- fr3_finger_joint2
position:
- 0.46719886942542393
- -0.18672789916228869
- 0.047643415236250784
- -2.2129981924788593
- 0.44287740155318117
- 1.9709915437776298
- -0.029275670492650643
- 0.0
- 0.0
velocity:
- 0.0662110576084495
- -0.024997336237794616
- 0.05123499575078691
- -0.005917538326727753
- 0.20881595209687068
- -0.0834640517801162
- -0.12839042643236495
- 0.0
- 0.0
effort:
- 0.551152229309082
- -24.640474319458008
- -0.0029105544090270996
- 22.534040451049805
- 1.4877506494522095
- 1.9099887609481812
- -0.293998122215271
- 0.0
- 0.0
---
header:
  stamp:
    sec: 1756280835
    nanosec: 733580920
  frame_id: ''
name:
- fr3_joint1
- fr3_joint2
- fr3_joint3
- fr3_joint4
- fr3_joint5
- fr3_joint6
- fr3_joint7
- fr3_finger_joint1
- fr3_finger_joint2
position:
- 0.4691831709125642
- -0.18755438787476547
- 0.04947857922192412
- -2.213168288517514
- 0.4499356740932213
- 1.9681712402126514
- -0.03366337681293023
- 0.0
- 0.0
velocity:
- 0.06006265535512338
- -0.02572025806199248
- 0.05453202807391351
- -0.00519321936473166
- 0.2171608440700135
- -0.09371876757908447
- -0.1466711791674575
- 0.0
- 0.0
effort:
- 0.47577381134033203
- -24.819002151489258
- -0.2092093825340271
- 22.613386154174805
- 1.4740177392959595
- 1.8706210851669312
- -0.306815505027771
- 0.0
- 0.0
---
header:
  stamp:
    sec: 1756280835
    nanosec: 766916129
  frame_id: ''
name:
- fr3_joint1
- fr3_joint2
- fr3_joint3
- fr3_joint4
- fr3_joint5
- fr3_joint6
- fr3_joint7
- fr3_finger_joint1
- fr3_finger_joint2
position:
- 0.4711690046827359
- -0.18847511911505907
- 0.051306759095954786
- -2.2133752812482714
- 0.45671362848115493
- 1.9651646796614277
- -0.03867929191223475
- 0.0
- 0.0
velocity:
- 0.06060959456918691
- -0.029567962487349286
- 0.057358785045051756
- -0.006128037714665578
- 0.21485390520674807
- -0.08569210042906669
- -0.15944856663517554
- 0.0
- 0.0
effort:
- 0.32104969024658203
- -24.791231155395508
- -0.3401297926902771
- 22.688764572143555
- 1.4218326807022095
- 1.8367465734481812
- -0.306815505027771
- 0.0
- 0.0
---
header:
  stamp:
    sec: 1756280835
    nanosec: 800250908
  frame_id: ''
name:
- fr3_joint1
- fr3_joint2
- fr3_joint3
- fr3_joint4
- fr3_joint5
- fr3_joint6
- fr3_joint7
- fr3_finger_joint1
- fr3_finger_joint2
position:
- 0.4732099186024802
- -0.18951749182579736
- 0.05324814716491081
- -2.213623019899513
- 0.4642194198574647
- 1.9620847387871767
- -0.0438244896691035
- 0.0
- 0.0
velocity:
- 0.05854242553455817
- -0.03150238079950895
- 0.05466786219548811
- -0.007088764040528298
- 0.2128886726373112
- -0.08852301477422628
- -0.1343511352699606
- 0.0
- 0.0
effort:
- 0.29724597930908203
- -24.743623733520508
- -0.4432792067527771
- 22.613386154174805
- 1.4282413721084595
- 1.8431552648544312
- -0.286673903465271
- 0.0
- 0.0
---
header:
  stamp:
    sec: 1756280835
    nanosec: 834072036
  frame_id: ''
name:
- fr3_joint1
- fr3_joint2
- fr3_joint3
- fr3_joint4
- fr3_joint5
- fr3_joint6
- fr3_joint7
- fr3_finger_joint1
- fr3_finger_joint2
position:
- 0.47524217790154144
- -0.19052845604088786
- 0.054930657261570384
- -2.213829457097042
- 0.4709799629429314
- 1.9591512850055526
- -0.047842437439747705
- 0.0
- 0.0
velocity:
- 0.06328604738049509
- -0.030408003442660838
- 0.05127903031592855
- -0.005545229356175032
- 0.20749360875284809
- -0.08742501231315986
- -0.12148574818229965
- 0.0
- 0.0
effort:
- 0.40039539337158203
- -24.616670608520508
- -0.2607840895652771
- 22.613386154174805
- 1.4218326807022095
- 1.8770297765731812
- -0.293998122215271
- 0.0
- 0.0
---
header:
  stamp:
    sec: 1756280835
    nanosec: 867100276
  frame_id: ''
name:
- fr3_joint1
- fr3_joint2
- fr3_joint3
- fr3_joint4
- fr3_joint5
- fr3_joint6
- fr3_joint7
- fr3_finger_joint1
- fr3_finger_joint2
position:
- 0.4772611631248063
- -0.19148476573093912
- 0.05666077143860267
- -2.2139958499254564
- 0.4775991846971083
- 1.9564248584954307
- -0.0520030633260284
- 0.0
- 0.0
velocity:
- 0.06127273832530963
- -0.02851127230576762
- 0.052241793472855846
- -0.004318678428194842
- 0.20913424368194913
- -0.08187461016294374
- -0.13206405535711982
- 0.0
- 0.0
effort:
- 0.47577381134033203
- -24.537324905395508
- -0.2607840895652771
- 22.557844161987305
- 1.4813419580459595
- 1.8367465734481812
- -0.334281325340271
- 0.0
- 0.0
---
header:
  stamp:
    sec: 1756280835
    nanosec: 900347674
  frame_id: ''
name:
- fr3_joint1
- fr3_joint2
- fr3_joint3
- fr3_joint4
- fr3_joint5
- fr3_joint6
- fr3_joint7
- fr3_finger_joint1
- fr3_finger_joint2
position:
- 0.47965285322928763
- -0.19240456078300078
- 0.058275088703649024
- -2.2141584344000678
- 0.48489087284737814
- 1.9535392392200102
- -0.0569710744501033
- 0.0
- 0.0
velocity:
- 0.0735405041198932
- -0.026009360650443732
- 0.04332320499886934
- -0.00533562064783859
- 0.21131750170363628
- -0.08482216490624146
- -0.14894227314077818
- 0.0
- 0.0
effort:
- 0.602726936340332
- -24.283418655395508
- -0.0029105544090270996
- 22.506269454956055
- 1.5133854150772095
- 1.8303378820419312
- -0.320548415184021
- 0.0
- 0.0
---
header:
  stamp:
    sec: 1756280835
    nanosec: 934029287
  frame_id: ''
name:
- fr3_joint1
- fr3_joint2
- fr3_joint3
- fr3_joint4
- fr3_joint5
- fr3_joint6
- fr3_joint7
- fr3_finger_joint1
- fr3_finger_joint2
position:
- 0.4818524570759305
- -0.1931612302914816
- 0.0599576873138071
- -2.214307510616655
- 0.4918958336667485
- 1.9508733254037116
- -0.06140954595631695
- 0.0
- 0.0
velocity:
- 0.061770481519110965
- -0.021129240927464127
- 0.056250826764985606
- -0.00451923675191499
- 0.20897727785296114
- -0.07683298189689906
- -0.1227850207243481
- 0.0
- 0.0
effort:
- 0.578923225402832
- -24.311189651489258
- -0.0782889723777771
- 22.482465744018555
- 1.4355655908584595
- 1.7836459875106812
- -0.402030348777771
- 0.0
- 0.0
---
header:
  stamp:
    sec: 1756280835
    nanosec: 967112119
  frame_id: ''
name:
- fr3_joint1
- fr3_joint2
- fr3_joint3
- fr3_joint4
- fr3_joint5
- fr3_joint6
- fr3_joint7
- fr3_finger_joint1
- fr3_finger_joint2
position:
- 0.4839319351007497
- -0.1938233668406602
- 0.0617966058526387
- -2.2144612856247967
- 0.4988578854220857
- 1.9480451386603364
- -0.06563583707490343
- 0.0
- 0.0
velocity:
- 0.0616970682394034
- -0.018776187458426997
- 0.05593944766622184
- -0.00432232954766343
- 0.21606603075554237
- -0.09802227442343367
- -0.12547093691614478
- 0.0
- 0.0
effort:
- 0.49957752227783203
- -24.438142776489258
- -0.2330130934715271
- 22.506269454956055
- 1.5197941064834595
- 1.8239291906356812
- -0.314139723777771
- 0.0
- 0.0
---
header:
  stamp:
    sec: 1756280836
    nanosec: 213902
  frame_id: ''
name:
- fr3_joint1
- fr3_joint2
- fr3_joint3
- fr3_joint4
- fr3_joint5
- fr3_joint6
- fr3_joint7
- fr3_finger_joint1
- fr3_finger_joint2
position:
- 0.4859798935381193
- -0.1945233695631464
- 0.06389002549836835
- -2.214697235656624
- 0.506330943229852
- 1.9447710586854168
- -0.06995569608311233
- 0.0
- 0.0
velocity:
- 0.05726082807392164
- -0.02077291624215964
- 0.06261763678006164
- -0.006893863622481249
- 0.21597785908813885
- -0.09580846964630133
- -0.12356713613628457
- 0.0
- 0.0
effort:
- 0.44800281524658203
- -24.410371780395508
- -0.2607840895652771
- 22.585615158081055
- 1.5005680322647095
- 1.8101962804794312
- -0.286673903465271
- 0.0
- 0.0
---
header:
  stamp:
    sec: 1756280836
    nanosec: 33579308
  frame_id: ''
name:
- fr3_joint1
- fr3_joint2
- fr3_joint3
- fr3_joint4
- fr3_joint5
- fr3_joint6
- fr3_joint7
- fr3_finger_joint1
- fr3_finger_joint2
position:
- 0.48803794338924794
- -0.19514830032149974
- 0.06573276709666946
- -2.2149384326610004
- 0.5128132044129085
- 1.9419047260578597
- -0.07454614596472418
- 0.0
- 0.0
velocity:
- 0.06585775880891481
- -0.017422921714592258
- 0.05397976683863364
- -0.0072564596352503305
- 0.19170033708235656
- -0.087067513217881
- -0.15402418150848615
- 0.0
- 0.0
effort:
- 0.47577381134033203
- -24.386568069458008
- -0.2607840895652771
- 22.637189865112305
- 1.5664860010147095
- 1.7635043859481812
- -0.300406813621521
- 0.0
- 0.0
---
header:
  stamp:
    sec: 1756280836
    nanosec: 67032919
  frame_id: ''
name:
- fr3_joint1
- fr3_joint2
- fr3_joint3
- fr3_joint4
- fr3_joint5
- fr3_joint6
- fr3_joint7
- fr3_finger_joint1
- fr3_finger_joint2
position:
- 0.490196192056962
- -0.19576200332942797
- 0.06750867175131274
- -2.215156663632486
- 0.5196064791086413
- 1.9392143810672626
- -0.0797730128154554
- 0.0
- 0.0
velocity:
- 0.06656920249686316
- -0.019525436279950726
- 0.05512515025631534
- -0.007497450439644868
- 0.21130287395309907
- -0.07897974110909116
- -0.15265611507550858
- 0.0
- 0.0
effort:
- 0.22186756134033203
- -24.461946487426758
- -0.5464286208152771
- 22.744306564331055
- 1.5133854150772095
- 1.7635043859481812
- -0.340690016746521
- 0.0
- 0.0
---
header:
  stamp:
    sec: 1756280836
    nanosec: 100990587
  frame_id: ''
name:
- fr3_joint1
- fr3_joint2
- fr3_joint3
- fr3_joint4
- fr3_joint5
- fr3_joint6
- fr3_joint7
- fr3_finger_joint1
- fr3_finger_joint2
position:
- 0.4925172780255925
- -0.19642798624019325
- 0.06932479173383259
- -2.215385908002698
- 0.5271295503630624
- 1.936520448009057
- -0.08449980254617101
- 0.0
- 0.0
velocity:
- 0.07093928103211367
- -0.018346438734081122
- 0.051006240466818946
- -0.005555059026270661
- 0.2282357068423014
- -0.07681392011548191
- -0.1296164931400555
- 0.0
- 0.0
effort:
- 0.37262439727783203
- -24.461946487426758
- -0.4155082106590271
- 22.716535568237305
- 1.4941593408584595
- 1.7772372961044312
- -0.260123610496521
- 0.0
- 0.0
---
header:
  stamp:
    sec: 1756280836
    nanosec: 133577089
  frame_id: ''
name:
- fr3_joint1
- fr3_joint2
- fr3_joint3
- fr3_joint4
- fr3_joint5
- fr3_joint6
- fr3_joint7
- fr3_finger_joint1
- fr3_finger_joint2
position:
- 0.49472388939732803
- -0.1971042297929908
- 0.07100698101620735
- -2.215573449232849
- 0.5340149339344462
- 1.9338762202089672
- -0.08875075259655442
- 0.0
- 0.0
velocity:
- 0.063496961968141
- -0.01932218715505373
- 0.05432997566550489
- -0.0033342471638681892
- 0.20794610663790744
- -0.08065658786105932
- -0.13171743229285626
- 0.0
- 0.0
effort:
- 0.34882068634033203
- -24.537324905395508
- -0.4948539137840271
- 22.637189865112305
- 1.5335270166397095
- 1.7369540929794312
- -0.314139723777771
- 0.0
- 0.0
---
header:
  stamp:
    sec: 1756280836
    nanosec: 167154887
  frame_id: ''
name:
- fr3_joint1
- fr3_joint2
- fr3_joint3
- fr3_joint4
- fr3_joint5
- fr3_joint6
- fr3_joint7
- fr3_finger_joint1
- fr3_finger_joint2
position:
- 0.49672676780469843
- -0.19786119377298353
- 0.07284567206136132
- -2.215810068381357
- 0.5410166932781484
- 1.9312163740679682
- -0.09295480132517242
- 0.0
- 0.0
velocity:
- 0.06051563984416446
- -0.023701845385833177
- 0.05742649826341668
- -0.0073606097077738835
- 0.21109593221658002
- -0.08361239532604449
- -0.13317094197384613
- 0.0
- 0.0
effort:
- 0.34882068634033203
- -24.410371780395508
- -0.4670829176902771
- 22.768110275268555
- 1.5399357080459595
- 1.7506870031356812
- -0.374564528465271
- 0.0
- 0.0
---
header:
  stamp:
    sec: 1756280836
    nanosec: 200345900
  frame_id: ''
name:
- fr3_joint1
- fr3_joint2
- fr3_joint3
- fr3_joint4
- fr3_joint5
- fr3_joint6
- fr3_joint7
- fr3_finger_joint1
- fr3_finger_joint2
position:
- 0.49862626447505043
- -0.19871587566675716
- 0.07490228274023178
- -2.2160013959423823
- 0.5481328586673121
- 1.92811220440906
- -0.09796584083141083
- 0.0
- 0.0
velocity:
- 0.04934860546578678
- -0.025964967692674267
- 0.05869801855359235
- -0.0036983423804904745
- 0.20135649009436685
- -0.09514647204781501
- -0.15133210551710724
- 0.0
- 0.0
effort:
- 0.24567127227783203
- -24.259614944458008
- -0.6218070387840271
- 22.613386154174805
- 1.5921207666397095
- 1.7232211828231812
- -0.300406813621521
- 0.0
- 0.0
---
header:
  stamp:
    sec: 1756280836
    nanosec: 234132972
  frame_id: ''
name:
- fr3_joint1
- fr3_joint2
- fr3_joint3
- fr3_joint4
- fr3_joint5
- fr3_joint6
- fr3_joint7
- fr3_finger_joint1
- fr3_finger_joint2
position:
- 0.5005007295279978
- -0.19956488676616954
- 0.07666436106184167
- -2.2161803769815305
- 0.5547033418365757
- 1.9250455317228867
- -0.1023529833051035
- 0.0
- 0.0
velocity:
- 0.05667989559673626
- -0.024991763573590335
- 0.052206153832056595
- -0.007499489105942805
- 0.2030023835744638
- -0.09257324108065773
- -0.1241456913468083
- 0.0
- 0.0
effort:
- 0.49957752227783203
- -24.132661819458008
- -0.3639335036277771
- 22.716535568237305
- 1.5664860010147095
- 1.7039951086044312
- -0.374564528465271
- 0.0
- 0.0
---
header:
  stamp:
    sec: 1756280836
    nanosec: 267127170
  frame_id: ''
name:
- fr3_joint1
- fr3_joint2
- fr3_joint3
- fr3_joint4
- fr3_joint5
- fr3_joint6
- fr3_joint7
- fr3_finger_joint1
- fr3_finger_joint2
position:
- 0.502509825342671
- -0.20038240517416983
- 0.07832599552306531
- -2.2163308754300757
- 0.5616117220443356
- 1.9220235792771323
- -0.10648821728265076
- 0.0
- 0.0
velocity:
- 0.06259593307440262
- -0.02524038662912825
- 0.04910843118198577
- -0.0030014984055610284
- 0.21456074375767056
- -0.09450002267159084
- -0.1288108508543977
- 0.0
- 0.0
effort:
- 0.527348518371582
- -24.231843948364258
- -0.3917044997215271
- 22.585615158081055
- 1.5664860010147095
- 1.6765292882919312
- -0.340690016746521
- 0.0
- 0.0
---
header:
  stamp:
    sec: 1756280836
    nanosec: 300411647
  frame_id: ''
name:
- fr3_joint1
- fr3_joint2
- fr3_joint3
- fr3_joint4
- fr3_joint5
- fr3_joint6
- fr3_joint7
- fr3_finger_joint1
- fr3_finger_joint2
position:
- 0.5048198398676014
- -0.20129632418013177
- 0.07997439123657692
- -2.2166094723468546
- 0.5690328652824775
- 1.9190704029254457
- -0.11100344472304319
- 0.0
- 0.0
velocity:
- 0.07045897983796992
- -0.02666596237018659
- 0.043796367165361956
- -0.009802673594161648
- 0.21295181695090834
- -0.0805043602285386
- -0.1376897648390659
- 0.0
- 0.0
effort:
- 0.729680061340332
- -24.231843948364258
- -0.1060599684715271
- 22.744306564331055
- 1.5527530908584595
- 1.6701205968856812
- -0.340690016746521
- 0.0
- 0.0
---
header:
  stamp:
    sec: 1756280836
    nanosec: 333583635
  frame_id: ''
name:
- fr3_joint1
- fr3_joint2
- fr3_joint3
- fr3_joint4
- fr3_joint5
- fr3_joint6
- fr3_joint7
- fr3_finger_joint1
- fr3_finger_joint2
position:
- 0.5071700357596282
- -0.2021879279154268
- 0.08151149321917779
- -2.216869319529063
- 0.5759913557060224
- 1.916451824629126
- -0.11591124205169044
- 0.0
- 0.0
velocity:
- 0.06884470522386411
- -0.026421661753469727
- 0.0511790426457076
- -0.007870574044390934
- 0.21542096383318055
- -0.08337687413462172
- -0.15755110668846092
- 0.0
- 0.0
effort:
- 0.551152229309082
- -24.156465530395508
- -0.2607840895652771
- 22.716535568237305
- 1.6378971338272095
- 1.6637119054794312
- -0.327872633934021
- 0.0
- 0.0
---
header:
  stamp:
    sec: 1756280836
    nanosec: 367090056
  frame_id: ''
name:
- fr3_joint1
- fr3_joint2
- fr3_joint3
- fr3_joint4
- fr3_joint5
- fr3_joint6
- fr3_joint7
- fr3_finger_joint1
- fr3_finger_joint2
position:
- 0.5093443887064605
- -0.20311545934240618
- 0.08332080536344477
- -2.2171129289688234
- 0.5829376670918713
- 1.9135805351480453
- -0.12105330730620842
- 0.0
- 0.0
velocity:
- 0.06709882846023332
- -0.027977340711733883
- 0.055419307730336105
- -0.007478066103955446
- 0.2160691282724374
- -0.08626777674886023
- -0.14535743218653988
- 0.0
- 0.0
effort:
- 0.44800281524658203
- -24.081087112426758
- -0.3639335036277771
- 22.795881271362305
- 1.6186710596084595
- 1.6307529211044312
- -0.340690016746521
- 0.0
- 0.0
---
header:
  stamp:
    sec: 1756280836
    nanosec: 400446000
  frame_id: ''
name:
- fr3_joint1
- fr3_joint2
- fr3_joint3
- fr3_joint4
- fr3_joint5
- fr3_joint6
- fr3_joint7
- fr3_finger_joint1
- fr3_finger_joint2
position:
- 0.511545608585162
- -0.2041017753632452
- 0.08537232652465143
- -2.217321671669571
- 0.5900186316076974
- 1.9106606697632955
- -0.12533075944116778
- 0.0
- 0.0
velocity:
- 0.05788032733442692
- -0.027996773991093172
- 0.06501273708671475
- -0.004995743763487796
- 0.19202180547631245
- -0.08538293827728255
- -0.11802904140630478
- 0.0
- 0.0
effort:
- 0.26947498321533203
- -23.799409866333008
- -0.5702323317527771
- 22.613386154174805
- 1.6314884424209595
- 1.6106113195419312
