header:
  stamp:
    sec: 1756280113
    nanosec: 317090547
  frame_id: ''
name:
- fr3_joint1
- fr3_joint2
- fr3_joint3
- fr3_joint4
- fr3_joint5
- fr3_joint6
- fr3_joint7
- fr3_finger_joint1
- fr3_finger_joint2
position:
- -0.05652592721081505
- -0.14932719687716264
- 0.24084946110497327
- -2.0535128268156635
- 0.06392779265315081
- 1.921172923507604
- 0.16975362106629852
- 0.0
- 0.0
velocity:
- -0.09974573186894138
- 0.035335496362038
- 0.09750937208729539
- 0.03361864393551425
- 0.11096866517655699
- 0.0618401454138848
- -0.0004998057381367688
- 0.0
- 0.0
effort:
- -0.722346305847168
- -24.208040237426758
- -0.8796805739402771
- 23.319562911987305
- 1.2387272119522095
- 2.3961336612701416
- 0.1262289434671402
- 0.0
- 0.0
---
header:
  stamp:
    sec: 1756280113
    nanosec: 350335184
  frame_id: ''
name:
- fr3_joint1
- fr3_joint2
- fr3_joint3
- fr3_joint4
- fr3_joint5
- fr3_joint6
- fr3_joint7
- fr3_finger_joint1
- fr3_finger_joint2
position:
- -0.06011243579063809
- -0.1481610994082294
- 0.24439624309546157
- -2.052533883102284
- 0.06753192593990405
- 1.9233546450561554
- 0.16976796249470527
- 0.0
- 0.0
velocity:
- -0.11862894445895773
- 0.03736030880960607
- 0.11464979555504232
- 0.02781936906705308
- 0.10722966957020998
- 0.06403635945630354
- 0.002032727212289377
- 0.0
- 0.0
effort:
- -0.849299430847168
- -24.184236526489258
- -0.9590262770652771
- 23.474287033081055
- 1.2259098291397095
- 2.4364168643951416
- 0.0859457403421402
- 0.0
- 0.0
---
header:
  stamp:
    sec: 1756280113
    nanosec: 383747183
  frame_id: ''
name:
- fr3_joint1
- fr3_joint2
- fr3_joint3
- fr3_joint4
- fr3_joint5
- fr3_joint6
- fr3_joint7
- fr3_finger_joint1
- fr3_finger_joint2
position:
- -0.06382896595250613
- -0.14692601980169925
- 0.24790686492186245
- -2.0515480482226356
- 0.07097985947326559
- 1.9255795237238313
- 0.16977018042923578
- 0.0
- 0.0
velocity:
- -0.11548568934549151
- 0.04150983418257033
- 0.10782124123161374
- 0.03036415603441824
- 0.10661044568919321
- 0.06936837979406374
- 0.0005158576686329376
- 0.0
- 0.0
effort:
- -0.773921012878418
- -24.358797073364258
- -0.9590262770652771
- 23.553632736206055
- 1.1993595361709595
- 2.4565584659576416
- 0.1198202520608902
- 0.0
- 0.0
---
header:
  stamp:
    sec: 1756280113
    nanosec: 416958253
  frame_id: ''
name:
- fr3_joint1
- fr3_joint2
- fr3_joint3
- fr3_joint4
- fr3_joint5
- fr3_joint6
- fr3_joint7
- fr3_finger_joint1
- fr3_finger_joint2
position:
- -0.06719693140040216
- -0.14553981370086252
- 0.25112437540770455
- -2.0504797928237637
- 0.07456181254755384
- 1.9279561399127336
- 0.16978225466673352
- 0.0
- 0.0
velocity:
- -0.09821406883510914
- 0.042957651237157474
- 0.09608532102449766
- 0.03405414651472758
- 0.10626511883955746
- 0.07248725059173969
- 0.00025411736411336066
- 0.0
- 0.0
effort:
- -0.698542594909668
- -24.461946487426758
- -0.9074515700340271
- 23.605207443237305
- 1.1664005517959595
- 2.4565584659576416
- 0.1262289434671402
- 0.0
- 0.0
---
header:
  stamp:
    sec: 1756280113
    nanosec: 450864427
  frame_id: ''
name:
- fr3_joint1
- fr3_joint2
- fr3_joint3
- fr3_joint4
- fr3_joint5
- fr3_joint6
- fr3_joint7
- fr3_finger_joint1
- fr3_finger_joint2
position:
- -0.07049212530730653
- -0.14406640692151212
- 0.2544102157367572
- -2.0493064112641517
- 0.07800322604064644
- 1.930476299937355
- 0.16980340457166332
- 0.0
- 0.0
velocity:
- -0.0943742244519529
- 0.04236179060732178
- 0.09694741117028521
- 0.03388410196845907
- 0.09992267173844813
- 0.08019061126724746
- 0.002073929030005938
- 0.0
- 0.0
effort:
- -0.797724723815918
- -24.513521194458008
- -0.9590262770652771
- 23.474287033081055
- 1.1865421533584595
- 2.4364168643951416
- 0.1060873419046402
- 0.0
- 0.0
---
header:
  stamp:
    sec: 1756280113
    nanosec: 483767373
  frame_id: ''
name:
- fr3_joint1
- fr3_joint2
- fr3_joint3
- fr3_joint4
- fr3_joint5
- fr3_joint6
- fr3_joint7
- fr3_finger_joint1
- fr3_finger_joint2
position:
- -0.07399838926965378
- -0.14268648657376565
- 0.2578418680036197
- -2.0482985474982702
- 0.08122125136326973
- 1.9330977103700722
- 0.1698222109632931
- 0.0
- 0.0
velocity:
- -0.11259226102005387
- 0.04168121993100332
- 0.10857211140579909
- 0.031219135683687248
- 0.1014017966336774
- 0.07857186266300482
- 0.0008270530089326599
- 0.0
- 0.0
effort:
- -0.773921012878418
- -24.489717483520508
- -1.0621757507324219
- 23.605207443237305
- 1.2259098291397095
- 2.4501497745513916
- 0.1536947637796402
- 0.0
- 0.0
---
header:
  stamp:
    sec: 1756280113
    nanosec: 517002002
  frame_id: ''
name:
- fr3_joint1
- fr3_joint2
- fr3_joint3
- fr3_joint4
- fr3_joint5
- fr3_joint6
- fr3_joint7
- fr3_finger_joint1
- fr3_finger_joint2
position:
- -0.07776930948456592
- -0.14127452560974862
- 0.2614228850780228
- -2.047239827580915
- 0.08463939792890023
- 1.9356204092801923
- 0.17040705340139234
- 0.0
- 0.0
velocity:
- -0.1090566310087814
- 0.04239302130296888
- 0.10583566438021678
- 0.03070165546493557
- 0.09924829591284914
- 0.07287154343120761
- 0.011717620256136329
- 0.0
- 0.0
effort:
- -0.773921012878418
- -24.616670608520508
- -1.0106010437011719
- 23.581403732299805
- 1.2780948877334595
- 2.4702913761138916
- 0.1335531622171402
- 0.0
- 0.0
---
header:
  stamp:
    sec: 1756280113
    nanosec: 550423758
  frame_id: ''
name:
- fr3_joint1
- fr3_joint2
- fr3_joint3
- fr3_joint4
- fr3_joint5
- fr3_joint6
- fr3_joint7
- fr3_finger_joint1
- fr3_finger_joint2
position:
- -0.08106490713609811
- -0.13994550926827098
- 0.2646640729719632
- -2.0461918097959297
- 0.08806538162350828
- 1.9379429177213745
- 0.17073313354090794
- 0.0
- 0.0
velocity:
- -0.10146178489967975
- 0.0388355557676723
- 0.10301484466716129
- 0.032928228900095904
- 0.10322828958162916
- 0.06539233144960328
- 0.007801651888253399
- 0.0
- 0.0
effort:
- -0.849299430847168
- -24.767427444458008
- -0.9590262770652771
- 23.684553146362305
- 1.2451359033584595
- 2.4767000675201416
- 0.1738363653421402
- 0.0
- 0.0
---
header:
  stamp:
    sec: 1756280113
    nanosec: 583723983
  frame_id: ''
name:
- fr3_joint1
- fr3_joint2
- fr3_joint3
- fr3_joint4
- fr3_joint5
- fr3_joint6
- fr3_joint7
- fr3_finger_joint1
- fr3_finger_joint2
position:
- -0.08432370470833356
- -0.1386862328804733
- 0.2679435449191497
- -2.045082814266374
- 0.09153040232477283
- 1.9400417878634015
- 0.17098428714026145
- 0.0
- 0.0
velocity:
- -0.10122554115799769
- 0.039820090461729615
- 0.10251312192894468
- 0.03542511094730163
- 0.10845897946365109
- 0.0628423944647681
- 0.0039507505690091075
- 0.0
- 0.0
effort:
- -1.079401969909668
- -24.537324905395508
- -1.1930961608886719
- 23.605207443237305
- 1.2259098291397095
- 2.4895174503326416
- 0.1472860723733902
- 0.0
- 0.0
---
header:
  stamp:
    sec: 1756280113
    nanosec: 617137767
  frame_id: ''
name:
- fr3_joint1
- fr3_joint2
- fr3_joint3
- fr3_joint4
- fr3_joint5
- fr3_joint6
- fr3_joint7
- fr3_finger_joint1
- fr3_finger_joint2
position:
- -0.08814615568767517
- -0.1374076061470583
- 0.27159477282757527
- -2.0438954842622548
- 0.09533745331024726
- 1.9423486403156656
- 0.1711716805694783
- 0.0
- 0.0
velocity:
- -0.11008976688333488
- 0.036675213839904755
- 0.10115757275464772
- 0.03506949068640758
- 0.10492487859766803
- 0.06872915306659932
- 0.00439750183121339
- 0.0
- 0.0
effort:
- -0.849299430847168
- -24.565095901489258
- -1.0383720397949219
- 23.502058029174805
- 1.2387272119522095
- 2.4565584659576416
- 0.1262289434671402
- 0.0
- 0.0
---
header:
  stamp:
    sec: 1756280113
    nanosec: 650318169
  frame_id: ''
name:
- fr3_joint1
- fr3_joint2
- fr3_joint3
- fr3_joint4
- fr3_joint5
- fr3_joint6
- fr3_joint7
- fr3_finger_joint1
- fr3_finger_joint2
position:
- -0.09180869882456742
- -0.13612422306169147
- 0.2750657620239604
- -2.0427161979826063
- 0.09875022936338458
- 1.9445483515693356
- 0.17133718198522113
- 0.0
- 0.0
velocity:
- -0.10082655466149576
- 0.03976101018997773
- 0.09359465605072134
- 0.037334185178390523
- 0.10133907739574305
- 0.0657762925223883
- 0.004625409779289775
- 0.0
- 0.0
effort:
- -0.722346305847168
- -24.283418655395508
- -0.9074515700340271
- 23.422712326049805
- 1.2323185205459595
- 2.4702913761138916
- 0.1060873419046402
- 0.0
- 0.0
---
header:
  stamp:
    sec: 1756280113
    nanosec: 683713112
  frame_id: ''
name:
- fr3_joint1
- fr3_joint2
- fr3_joint3
- fr3_joint4
- fr3_joint5
- fr3_joint6
- fr3_joint7
- fr3_finger_joint1
- fr3_finger_joint2
position:
- -0.09496357699809811
- -0.1347489842457544
- 0.2781688895381695
- -2.0415517895418245
- 0.10226461766045697
- 1.9467262481237206
- 0.17147811415352696
- 0.0
- 0.0
velocity:
- -0.09831771867439291
- 0.043599761288006154
- 0.09627992768671828
- 0.03541253118520983
- 0.11203744667009538
- 0.06738973114194038
- 0.004094875905113143
- 0.0
- 0.0
effort:
- -0.773921012878418
- -24.259614944458008
- -0.9074515700340271
- 23.371137619018555
- 1.2121769189834595
- 2.4831087589263916
- 0.1198202520608902
- 0.0
- 0.0
---
header:
  stamp:
    sec: 1756280113
    nanosec: 717243405
  frame_id: ''
name:
- fr3_joint1
- fr3_joint2
- fr3_joint3
- fr3_joint4
- fr3_joint5
- fr3_joint6
- fr3_joint7
- fr3_finger_joint1
- fr3_finger_joint2
position:
- -0.09831877985307429
- -0.1332133623849118
- 0.2815331743480276
- -2.0404356464813502
- 0.10604919924661901
- 1.949264191471274
- 0.17161010638736413
- 0.0
- 0.0
velocity:
- -0.1087082421799187
- 0.046302476291463626
- 0.10886989997231597
- 0.029559059756571616
- 0.10715060520093202
- 0.07582845094508232
- 0.00428702252667109
- 0.0
- 0.0
effort:
- -0.900874137878418
- -24.565095901489258
- -1.0621757507324219
- 23.160871505737305
- 1.1664005517959595
- 2.4162752628326416
- 0.1472860723733902
- 0.0
- 0.0
---
header:
  stamp:
    sec: 1756280113
    nanosec: 750975444
  frame_id: ''
name:
- fr3_joint1
- fr3_joint2
- fr3_joint3
- fr3_joint4
- fr3_joint5
- fr3_joint6
- fr3_joint7
- fr3_finger_joint1
- fr3_finger_joint2
position:
- -0.10204219253448928
- -0.1316993905075546
- 0.2850834369994695
- -2.039573109178523
- 0.1096093673924019
- 1.9518830523404276
- 0.171779791816495
- 0.0
- 0.0
velocity:
- -0.11123185637016517
- 0.04469229702033282
- 0.10498256362198029
- 0.025780744147409433
- 0.10563409644218975
- 0.07467420171151495
- 0.0035433062052013455
- 0.0
- 0.0
effort:
- -0.797724723815918
- -24.588899612426758
- -0.9312552809715271
- 23.343366622924805
- 1.1929508447647095
- 2.4364168643951416
- 0.1060873419046402
- 0.0
- 0.0
---
header:
  stamp:
    sec: 1756280113
    nanosec: 783773819
  frame_id: ''
name:
- fr3_joint1
- fr3_joint2
- fr3_joint3
- fr3_joint4
- fr3_joint5
- fr3_joint6
- fr3_joint7
- fr3_finger_joint1
- fr3_finger_joint2
position:
- -0.10549693089908531
- -0.1301995352863107
- 0.2883614136940721
- -2.0387558395923047
- 0.11316168399429652
- 1.9540869732423296
- 0.17194300737947657
- 0.0
- 0.0
velocity:
- -0.09917469521895671
- 0.04694656971848072
- 0.09521916693280312
- 0.024214973616716425
- 0.10747360867324103
- 0.06804696322170338
- 0.006808200680708913
- 0.0
- 0.0
effort:
- -0.773921012878418
- -24.791231155395508
- -0.9312552809715271
- 23.553632736206055
- 1.1929508447647095
- 2.4629671573638916
- 0.0795370489358902
- 0.0
- 0.0
---
header:
  stamp:
    sec: 1756280113
    nanosec: 817177918
  frame_id: ''
name:
- fr3_joint1
- fr3_joint2
- fr3_joint3
- fr3_joint4
- fr3_joint5
- fr3_joint6
- fr3_joint7
- fr3_finger_joint1
- fr3_finger_joint2
position:
- -0.10889646572858437
- -0.12866245923425537
- 0.2917811677353385
- -2.0378956592667157
- 0.11656092620167265
- 1.956323078919906
- 0.17211587075896811
- 0.0
- 0.0
velocity:
- -0.10101455715021482
- 0.045649412758749695
- 0.09994870602934872
- 0.025579504892385613
- 0.09810327975007282
- 0.06688070586260682
- 0.007280456367774767
- 0.0
- 0.0
effort:
- -0.750117301940918
- -24.969758987426758
- -0.9312552809715271
- 23.684553146362305
- 1.1929508447647095
- 2.4895174503326416
- 0.1262289434671402
- 0.0
- 0.0
---
header:
  stamp:
    sec: 1756280113
    nanosec: 850318189
  frame_id: ''
name:
- fr3_joint1
- fr3_joint2
- fr3_joint3
- fr3_joint4
- fr3_joint5
- fr3_joint6
- fr3_joint7
- fr3_finger_joint1
- fr3_finger_joint2
position:
- -0.11236330739825257
- -0.12722220238396897
- 0.2952822111269779
- -2.0369752658493656
- 0.11977961583148491
- 1.9583944965461206
- 0.17227037040141702
- 0.0
- 0.0
velocity:
- -0.11395360978620428
- 0.042585735379949655
- 0.11229406204915293
- 0.029034217608442006
- 0.09460380221462891
- 0.060901919633189
- 0.005903715082798005
- 0.0
- 0.0
effort:
- -1.055598258972168
- -24.945955276489258
- -1.1930961608886719
- 23.660749435424805
- 1.2387272119522095
- 2.5160677433013916
- 0.0923544317483902
- 0.0
- 0.0
---
header:
  stamp:
    sec: 1756280113
    nanosec: 883748898
  frame_id: ''
name:
- fr3_joint1
- fr3_joint2
- fr3_joint3
- fr3_joint4
- fr3_joint5
- fr3_joint6
- fr3_joint7
- fr3_finger_joint1
- fr3_finger_joint2
position:
- -0.11610293129383734
- -0.12590261550110393
- 0.29881949091791793
- -2.036023872131471
- 0.12318642235758327
- 1.9604872942557774
- 0.1724122114961352
- 0.0
- 0.0
velocity:
- -0.11291703672578514
- 0.037841120891020236
- 0.10531031339357272
- 0.028132153241395213
- 0.1054321430066405
- 0.06567000100336454
- 0.004582246518812627
- 0.0
- 0.0
effort:
- -0.952448844909668
- -24.894380569458008
- -1.0899467468261719
- 23.529829025268555
- 1.2121769189834595
- 2.4702913761138916
- 0.0859457403421402
- 0.0
- 0.0
---
header:
  stamp:
    sec: 1756280113
    nanosec: 916954353
  frame_id: ''
name:
- fr3_joint1
- fr3_joint2
- fr3_joint3
- fr3_joint4
- fr3_joint5
- fr3_joint6
- fr3_joint7
- fr3_finger_joint1
- fr3_finger_joint2
position:
- -0.11958763571664448
- -0.12462677525648201
- 0.30205823121052167
- -2.0350813911575836
- 0.1266528340506102
- 1.9627060005138164
- 0.17255667970319238
- 0.0
- 0.0
velocity:
- -0.0992477975060073
- 0.03679465016601988
- 0.09442335795750402
- 0.029425950824777655
- 0.10179372967869885
- 0.06335924149794638
- 0.003869458903897063
- 0.0
- 0.0
effort:
- -0.646967887878418
- -24.997529983520508
- -0.8043021559715271
- 23.712324142456055
- 1.1929508447647095
- 2.5096590518951416
- 0.1601034551858902
- 0.0
- 0.0
---
header:
  stamp:
    sec: 1756280113
    nanosec: 950326760
  frame_id: ''
name:
- fr3_joint1
- fr3_joint2
- fr3_joint3
- fr3_joint4
- fr3_joint5
- fr3_joint6
- fr3_joint7
- fr3_finger_joint1
- fr3_finger_joint2
position:
- -0.1229744315882568
- -0.12338946996270073
- 0.3052969117216892
- -2.0340828871603813
- 0.13012976288199896
- 1.9650617455299393
- 0.17272042038324772
- 0.0
- 0.0
velocity:
- -0.09885467035397855
- 0.03561338654597098
- 0.09935993377484495
- 0.030310195252247516
- 0.10472728752127383
- 0.06877904520020181
- 0.0057822124057392765
- 0.0
- 0.0
effort:
- -0.646967887878418
- -24.791231155395508
- -0.7527274489402771
- 23.605207443237305
- 1.2121769189834595
- 2.4895174503326416
- 0.1060873419046402
- 0.0
- 0.0
---
header:
  stamp:
    sec: 1756280113
    nanosec: 983719380
  frame_id: ''
name:
- fr3_joint1
- fr3_joint2
- fr3_joint3
- fr3_joint4
- fr3_joint5
- fr3_joint6
- fr3_joint7
- fr3_finger_joint1
- fr3_finger_joint2
position:
- -0.12645395797584646
- -0.12215152649490742
- 0.308635380673678
- -2.0329872470272505
- 0.13367287632035194
- 1.9672919981563157
- 0.17288348880402526
- 0.0
- 0.0
velocity:
- -0.10919328427578483
- 0.03866197066655554
- 0.10546278064014869
- 0.03534620833495654
- 0.10436120780485682
- 0.06778962980732213
- 0.004458426307865193
- 0.0
- 0.0
effort:
- -0.877070426940918
- -24.664278030395508
- -1.0106010437011719
- 23.581403732299805
- 1.2057682275772095
- 2.4895174503326416
- 0.1134115606546402
- 0.0
- 0.0
---
header:
  stamp:
    sec: 1756280114
    nanosec: 17068154
  frame_id: ''
name:
- fr3_joint1
- fr3_joint2
- fr3_joint3
- fr3_joint4
- fr3_joint5
- fr3_joint6
- fr3_joint7
- fr3_finger_joint1
- fr3_finger_joint2
position:
- -0.13023236352514417
- -0.12079109058864307
- 0.31220447128949325
- -2.03171154722116
- 0.1371532924090071
- 1.9697242132128976
- 0.17308217247390212
- 0.0
- 0.0
velocity:
- -0.10675351973105053
- 0.04025174345007295
- 0.101854504179803
- 0.037517616319583405
- 0.10133143585065847
- 0.07717795459107434
- 0.006422139708855064
- 0.0
- 0.0
effort:
- -0.849299430847168
- -24.767427444458008
- -1.0106010437011719
- 23.398908615112305
- 1.1929508447647095
- 2.4895174503326416
- 0.0996786504983902
- 0.0
- 0.0
---
header:
  stamp:
    sec: 1756280114
    nanosec: 50340276
  frame_id: ''
name:
- fr3_joint1
- fr3_joint2
- fr3_joint3
- fr3_joint4
- fr3_joint5
- fr3_joint6
- fr3_joint7
- fr3_finger_joint1
- fr3_finger_joint2
position:
- -0.13349667682100783
- -0.11944981800031779
- 0.31544958633775017
- -2.0305605667603124
- 0.14048461515010602
- 1.9724405765430515
- 0.1732772044837688
- 0.0
- 0.0
velocity:
- -0.09507396367613527
- 0.039488005464606096
- 0.09681135243902178
- 0.034074671855586554
- 0.10407374131861348
- 0.07720235432902592
- 0.005290688108241004
- 0.0
- 0.0
effort:
- -0.849299430847168
- -24.767427444458008
- -0.9074515700340271
- 23.502058029174805
- 1.2323185205459595
- 2.4831087589263916
- 0.1674276739358902
- 0.0
- 0.0
---
header:
  stamp:
    sec: 1756280114
    nanosec: 83837492
  frame_id: ''
name:
- fr3_joint1
- fr3_joint2
- fr3_joint3
- fr3_joint4
- fr3_joint5
- fr3_joint6
- fr3_joint7
- fr3_finger_joint1
- fr3_finger_joint2
position:
- -0.1367894108264645
- -0.11814113423807454
- 0.3188081218515545
- -2.0294176573253493
- 0.14403078066181038
- 1.9749350344870977
- 0.1735040571999114
- 0.0
- 0.0
velocity:
- -0.10370086995165319
- 0.03829254915034132
- 0.10612027530145449
- 0.034192444482316314
- 0.10692163357637795
- 0.07426121899103533
- 0.0073608810912206375
- 0.0
- 0.0
effort:
- -1.027827262878418
- -24.894380569458008
- -1.0621757507324219
- 23.502058029174805
- 1.2387272119522095
- 2.4702913761138916
- 0.2013021856546402
- 0.0
- 0.0
---
header:
  stamp:
    sec: 1756280114
    nanosec: 117048944
  frame_id: ''
name:
- fr3_joint1
- fr3_joint2
- fr3_joint3
- fr3_joint4
- fr3_joint5
- fr3_joint6
- fr3_joint7
- fr3_finger_joint1
- fr3_finger_joint2
position:
- -0.14050528822008065
- -0.1167991317058697
- 0.3225001590690356
- -2.0282570311854315
- 0.14762855338530603
- 1.9773182855304337
- 0.17373879985877305
- 0.0
- 0.0
velocity:
- -0.11072776072750881
- 0.03841019260735745
- 0.10909033555075143
- 0.03345954492027265
- 0.09972255516070334
- 0.06758939214020786
- 0.006704242999203769
- 0.0
- 0.0
effort:
- -0.773921012878418
- -24.819002151489258
- -0.9312552809715271
- 23.450483322143555
- 1.2323185205459595
- 2.4565584659576416
- 0.1811605840921402
- 0.0
- 0.0
---
header:
  stamp:
    sec: 1756280114
    nanosec: 150892377
  frame_id: ''
name:
- fr3_joint1
- fr3_joint2
- fr3_joint3
- fr3_joint4
- fr3_joint5
- fr3_joint6
- fr3_joint7
- fr3_finger_joint1
- fr3_finger_joint2
position:
- -0.14415489115530783
- -0.11554793171514116
- 0.32596485399890995
- -2.0272592943881667
- 0.15105770618940567
- 1.9795561536384734
- 0.1739719792875496
- 0.0
- 0.0
velocity:
- -0.10524305162918605
- 0.036460782240580795
- 0.10085518398700642
- 0.025425378441811454
- 0.10156517901105609
- 0.06977719799061136
- 0.007014586119758612
- 0.0
- 0.0
effort:
- -0.543818473815918
- -24.743623733520508
- -0.6733817458152771
- 23.474287033081055
- 1.2387272119522095
- 2.4629671573638916
- 0.2077108770608902
- 0.0
- 0.0
---
header:
  stamp:
    sec: 1756280114
    nanosec: 183766585
  frame_id: ''
name:
- fr3_joint1
- fr3_joint2
- fr3_joint3
- fr3_joint4
- fr3_joint5
- fr3_joint6
- fr3_joint7
- fr3_finger_joint1
- fr3_finger_joint2
position:
- -0.14741016713901653
- -0.11435155574487264
- 0.3290863207755294
- -2.026419698972455
- 0.15448063511023313
- 1.9817442892582458
- 0.1742149751107543
- 0.0
- 0.0
velocity:
- -0.09996768694273675
- 0.03837335132526276
- 0.09622001915451517
- 0.0248181333624678
- 0.10195053416023772
- 0.06511238586195141
- 0.007170028102039456
- 0.0
- 0.0
effort:
- -0.722346305847168
- -24.767427444458008
- -0.9312552809715271
- 23.660749435424805
- 1.2579532861709595
- 2.4968416690826416
- 0.2013021856546402
- 0.0
- 0.0
---
header:
  stamp:
    sec: 1756280114
    nanosec: 217110435
  frame_id: ''
name:
- fr3_joint1
- fr3_joint2
- fr3_joint3
- fr3_joint4
- fr3_joint5
- fr3_joint6
- fr3_joint7
- fr3_finger_joint1
- fr3_finger_joint2
position:
- -0.15078613004132674
- -0.11304590795467787
- 0.33238620879166814
- -2.025455351504307
- 0.1579365185111791
- 1.9839923264741148
- 0.17446654146112658
- 0.0
- 0.0
velocity:
- -0.10887860949601874
- 0.0386341710333526
- 0.10507403732346217
- 0.030030191991462136
- 0.1009376217743099
- 0.06525903939192661
- 0.008638230401732469
- 0.0
- 0.0
effort:
- -0.952448844909668
- -24.918184280395508
- -1.0621757507324219
- 23.684553146362305
- 1.2121769189834595
- 2.5362093448638916
- 0.1875692754983902
- 0.0
- 0.0
---
header:
  stamp:
    sec: 1756280114
    nanosec: 250758204
  frame_id: ''
name:
- fr3_joint1
- fr3_joint2
- fr3_joint3
- fr3_joint4
- fr3_joint5
- fr3_joint6
- fr3_joint7
- fr3_finger_joint1
- fr3_finger_joint2
position:
- -0.1544479394024196
- -0.11171690648390827
- 0.3359069769898602
- -2.0243693685792024
- 0.16124678355262687
- 1.9861601546733747
- 0.17473540006013968
- 0.0
- 0.0
velocity:
- -0.11067116246974251
- 0.041288631780714756
- 0.10705705396552351
- 0.03662402084491278
- 0.10361753738226837
- 0.06556005478954925
- 0.008031125953924599
- 0.0
- 0.0
effort:
- -0.849299430847168
- -25.021333694458008
- -0.9312552809715271
- 23.740095138549805
- 1.2579532861709595
- 2.5362093448638916
- 0.1939779669046402
- 0.0
- 0.0
---
header:
  stamp:
    sec: 1756280114
    nanosec: 283777227
  frame_id: ''
name:
- fr3_joint1
- fr3_joint2
- fr3_joint3
- fr3_joint4
- fr3_joint5
- fr3_joint6
- fr3_joint7
- fr3_finger_joint1
- fr3_finger_joint2
position:
- -0.1578875052943055
- -0.11036944588685675
- 0.3392219859177239
- -2.023182042825993
- 0.16459176652833477
- 1.988350880602641
- 0.17506697598681306
- 0.0
- 0.0
velocity:
- -0.10027829590586367
- 0.04167225002985627
- 0.10217745317325044
- 0.03684795665038105
- 0.10451199703926896
- 0.06495191248491972
- 0.010251070938148175
- 0.0
- 0.0
effort:
- -0.670771598815918
- -24.894380569458008
- -0.7765311598777771
- 23.605207443237305
- 1.2909122705459595
- 2.5298006534576416
- 0.1738363653421402
- 0.0
- 0.0
---
header:
  stamp:
    sec: 1756280114
    nanosec: 317089976
  frame_id: ''
name:
- fr3_joint1
- fr3_joint2
- fr3_joint3
- fr3_joint4
- fr3_joint5
- fr3_joint6
- fr3_joint7
- fr3_finger_joint1
- fr3_finger_joint2
position:
- -0.16126903269223725
- -0.10890939248261497
- 0.34265613002157763
- -2.0219900948843734
- 0.16823691103410815
- 1.9908524419128664
- 0.17538319030742086
- 0.0
- 0.0
velocity:
- -0.10235248901876337
- 0.04306279438216275
- 0.10312633618969119
- 0.03420798613513466
- 0.10696561949776792
- 0.07136564007763418
- 0.009773400774372285
- 0.0
- 0.0
effort:
- -0.646967887878418
- -24.819002151489258
- -0.8281058669090271
- 23.371137619018555
- 1.2515445947647095
- 2.4767000675201416
- 0.1738363653421402
- 0.0
- 0.0
---
header:
  stamp:
    sec: 1756280114
    nanosec: 350328172
  frame_id: ''
name:
- fr3_joint1
- fr3_joint2
- fr3_joint3
- fr3_joint4
- fr3_joint5
- fr3_joint6
- fr3_joint7
- fr3_finger_joint1
- fr3_finger_joint2
position:
- -0.16474750906254831
- -0.10744640214635148
- 0.34620380259336864
- -2.020832348615243
- 0.17183682937665562
- 1.993188507459442
- 0.1756943824617574
- 0.0
- 0.0
velocity:
- -0.1111742817926096
- 0.0442279229817811
- 0.11116259985023824
- 0.03414436348664396
- 0.11069698188933506
- 0.0691253830989147
- 0.007983675964932484
- 0.0
- 0.0
effort:
- -1.234126091003418
- -24.819002151489258
- -1.3200492858886719
- 23.398908615112305
- 1.2387272119522095
- 2.5160677433013916
- 0.1875692754983902
- 0.0
- 0.0
---
header:
  stamp:
    sec: 1756280114
    nanosec: 383748652
  frame_id: ''
name:
- fr3_joint1
- fr3_joint2
- fr3_joint3
- fr3_joint4
- fr3_joint5
- fr3_joint6
- fr3_joint7
- fr3_finger_joint1
- fr3_finger_joint2
position:
- -0.1684244033083301
- -0.10598079985940832
- 0.3498163862287497
- -2.0197572284960583
- 0.1752515796934407
- 1.9953913197597175
- 0.17597900224959628
- 0.0
- 0.0
velocity:
- -0.11226218554433717
- 0.046759754009048186
- 0.10797418093041021
- 0.03421708753751794
- 0.1071471923455126
- 0.06510750991688653
- 0.008146160897737929
- 0.0
- 0.0
effort:
- -1.154780387878418
- -24.819002151489258
- -1.1415214538574219
- 23.422712326049805
- 1.2057682275772095
- 2.5435335636138916
- 0.2150350958108902
- 0.0
- 0.0
---
header:
  stamp:
    sec: 1756280114
    nanosec: 417062908
  frame_id: ''
name:
- fr3_joint1
- fr3_joint2
- fr3_joint3
- fr3_joint4
- fr3_joint5
- fr3_joint6
- fr3_joint7
- fr3_finger_joint1
- fr3_finger_joint2
position:
- -0.17192424190217853
- -0.10439604876070187
- 0.3531310947821764
- -2.01863745588968
- 0.1788435530625265
- 1.9977027239974374
- 0.17631954657735732
- 0.0
- 0.0
velocity:
- -0.09700941154515869
- 0.04675312957315554
- 0.09416333552280931
- 0.031746043461738885
- 0.10844296580189451
- 0.06575128762051746
- 0.009924215752416228
- 0.0
- 0.0
effort:
- -0.877070426940918
- -25.021333694458008
- -0.8796805739402771
- 23.450483322143555
- 1.2259098291397095
- 2.4895174503326416
- 0.2013021856546402
- 0.0
- 0.0
---
header:
  stamp:
    sec: 1756280114
    nanosec: 450891432
  frame_id: ''
name:
- fr3_joint1
- fr3_joint2
- fr3_joint3
- fr3_joint4
- fr3_joint5
- fr3_joint6
- fr3_joint7
- fr3_finger_joint1
- fr3_finger_joint2
position:
- -0.17523736362318276
- -0.10288628863593681
- 0.356278961023776
- -2.0175645104790374
- 0.18253126512765572
- 1.9997595735682323
- 0.17661270137865603
- 0.0
- 0.0
velocity:
- -0.0994886596375928
- 0.04409734784771416
- 0.09634365406825747
- 0.030525682847617336
- 0.10997830346122797
- 0.06118243999937452
- 0.010729439694890019
- 0.0
- 0.0
effort:
- -0.698542594909668
- -25.326814651489258
- -0.7527274489402771
- 23.529829025268555
- 1.2579532861709595
- 2.5096590518951416
- 0.0923544317483902
- 0.0
- 0.0
---
header:
  stamp:
    sec: 1756280114
    nanosec: 483838633
  frame_id: ''
name:
- fr3_joint1
- fr3_joint2
- fr3_joint3
- fr3_joint4
- fr3_joint5
- fr3_joint6
- fr3_joint7
- fr3_finger_joint1
- fr3_finger_joint2
position:
- -0.17875875480916453
- -0.10152140656638765
- 0.359587613529007
- -2.0165911531148617
- 0.18591215021837268
- 2.001732758266068
- 0.17687625413012834
- 0.0
- 0.0
velocity:
- -0.1077926545317849
- 0.03863799766280538
- 0.10007262707310778
- 0.029364748846166407
- 0.10514121586441635
- 0.062095355669327314
- 0.009096809814621465
- 0.0
- 0.0
effort:
- -0.849299430847168
- -25.096712112426758
- -0.9590262770652771
- 23.553632736206055
- 1.1993595361709595
- 2.5096590518951416
- 0.1134115606546402
- 0.0
- 0.0
---
header:
  stamp:
    sec: 1756280114
    nanosec: 517115777
  frame_id: ''
name:
- fr3_joint1
- fr3_joint2
- fr3_joint3
- fr3_joint4
- fr3_joint5
- fr3_joint6
- fr3_joint7
- fr3_finger_joint1
- fr3_finger_joint2
position:
- -0.18253649055448096
- -0.10014712817988104
- 0.3631178698645673
- -2.01556678477461
- 0.18954152321986886
- 2.0040910333719353
- 0.1771519601219564
- 0.0
- 0.0
velocity:
- -0.11103267914983098
- 0.03910842800245093
- 0.10272525755478686
- 0.0320357742367937
- 0.10565375934287088
- 0.0732908630136608
- 0.008820216645385195
- 0.0
- 0.0
effort:
- -0.646967887878418
- -25.199861526489258
- -0.7765311598777771
- 23.553632736206055
- 1.2909122705459595
- 2.4895174503326416
- 0.1399618536233902
- 0.0
- 0.0
---
header:
  stamp:
    sec: 1756280114
    nanosec: 550485800
  frame_id: ''
name:
- fr3_joint1
- fr3_joint2
- fr3_joint3
- fr3_joint4
- fr3_joint5
- fr3_joint6
- fr3_joint7
- fr3_finger_joint1
- fr3_finger_joint2
position:
- -0.1859329912787397
- -0.09883942129713048
- 0.36641433284771796
- -2.014516918079134
- 0.19305112241342767
- 2.006498152152784
- 0.1774414292229844
- 0.0
- 0.0
velocity:
- -0.10037406633383887
- 0.037142475573791287
- 0.09958931701318952
- 0.03133137327600009
- 0.09818360614519592
- 0.07203242184596435
- 0.006215739813990102
- 0.0
- 0.0
effort:
- -0.750117301940918
- -25.251436233520508
- -0.7765311598777771
- 23.502058029174805
- 1.2451359033584595
- 2.5160677433013916
- 0.2278524786233902
- 0.0
- 0.0
---
header:
  stamp:
    sec: 1756280114
    nanosec: 583846510
  frame_id: ''
name:
- fr3_joint1
- fr3_joint2
- fr3_joint3
- fr3_joint4
- fr3_joint5
- fr3_joint6
- fr3_joint7
- fr3_finger_joint1
- fr3_finger_joint2
position:
- -0.18922753724891495
- -0.09768603996621969
- 0.3696838718236181
- -2.013619892413092
- 0.1962461397380502
- 2.0089978917684164
- 0.1777480455815081
- 0.0
- 0.0
velocity:
- -0.10468752139900428
- 0.03457107117595759
- 0.10492257402067168
- 0.024927433878303505
- 0.09698356372218071
- 0.08210697479423891
- 0.007345980400786637
- 0.0
- 0.0
effort:
- -1.004023551940918
- -25.096712112426758
- -0.9867972731590271
- 23.581403732299805
- 1.2259098291397095
- 2.5298006534576416
- 0.2150350958108902
- 0.0
- 0.0
---
header:
  stamp:
    sec: 1756280114
    nanosec: 617087439
  frame_id: ''
name:
- fr3_joint1
- fr3_joint2
- fr3_joint3
- fr3_joint4
- fr3_joint5
- fr3_joint6
- fr3_joint7
- fr3_finger_joint1
- fr3_finger_joint2
position:
- -0.1929216203757118
- -0.09648120935756903
- 0.3733513206596735
- -2.0126744373345304
- 0.19953285045427044
- 2.0117006524003136
- 0.17806728714934333
- 0.0
- 0.0
velocity:
- -0.1045407789133765
- 0.034950081869440465
- 0.10542710456451995
- 0.028163509559987417
- 0.10367662032086107
- 0.07757978610465217
- 0.009355575729795182
- 0.0
- 0.0
effort:
- -1.027827262878418
- -25.021333694458008
- -1.1653251647949219
- 23.502058029174805
- 1.2845035791397095
- 2.5032503604888916
- 0.1399618536233902
- 0.0
- 0.0
---
header:
  stamp:
    sec: 1756280114
    nanosec: 650325971
  frame_id: ''
name:
- fr3_joint1
- fr3_joint2
- fr3_joint3
- fr3_joint4
- fr3_joint5
- fr3_joint6
- fr3_joint7
- fr3_finger_joint1
- fr3_finger_joint2
position:
- -0.19654153216536482
- -0.09518469290432334
- 0.3768586764648895
- -2.011687676227567
- 0.20308512561768927
- 2.0141845498604387
- 0.17834661972545196
- 0.0
- 0.0
velocity:
- -0.10161803360076338
- 0.040908232097030664
- 0.09570451933481242
- 0.030605730644125986
- 0.10596007060556888
- 0.07319280924874771
- 0.008330599383253458
- 0.0
- 0.0
effort:
- -0.670771598815918
- -24.918184280395508
- -0.7011527419090271
- 23.529829025268555
- 1.2780948877334595
- 2.4968416690826416
- 0.2077108770608902
- 0.0
- 0.0
---
header:
  stamp:
    sec: 1756280114
    nanosec: 683870829
  frame_id: ''
name:
- fr3_joint1
- fr3_joint2
- fr3_joint3
- fr3_joint4
- fr3_joint5
- fr3_joint6
- fr3_joint7
- fr3_finger_joint1
- fr3_finger_joint2
position:
- -0.1998396231766232
- -0.09382844968417163
- 0.38005406919021506
- -2.0106791060905844
- 0.2063187661845946
- 2.0165296098695635
- 0.17865611011608232
- 0.0
- 0.0
velocity:
- -0.09964724398103625
- 0.04225610909654026
- 0.09652212284198874
- 0.03218197768231418
- 0.0990244710112448
- 0.07038951483648957
- 0.005735961664266308
- 0.0
- 0.0
effort:
- -0.646967887878418
- -25.124483108520508
- -0.7765311598777771
- 23.553632736206055
- 1.3366886377334595
- 2.5160677433013916
- 0.1601034551858902
- 0.0
- 0.0
---
header:
  stamp:
    sec: 1756280114
    nanosec: 717017686
  frame_id: ''
name:
- fr3_joint1
- fr3_joint2
- fr3_joint3
- fr3_joint4
- fr3_joint5
- fr3_joint6
- fr3_joint7
- fr3_finger_joint1
- fr3_finger_joint2
position:
- -0.20316029519094148
- -0.09242559405146615
- 0.38327033746049133
- -2.009643129593739
- 0.209785091741982
- 2.018736378340216
- 0.17900495185172777
- 0.0
- 0.0
velocity:
- -0.11174883791572993
- 0.03951449856067135
- 0.10486250355477897
- 0.029121920597718915
- 0.10788233480695235
- 0.06600850361551948
- 0.009873296994044581
- 0.0
- 0.0
effort:
- -0.849299430847168
- -24.997529983520508
- -0.8558768630027771
- 23.474287033081055
- 1.2716861963272095
- 2.4968416690826416
- 0.1601034551858902
- 0.0
- 0.0
---
header:
  stamp:
    sec: 1756280114
    nanosec: 750327494
  frame_id: ''
name:
- fr3_joint1
- fr3_joint2
- fr3_joint3
- fr3_joint4
- fr3_joint5
- fr3_joint6
- fr3_joint7
- fr3_finger_joint1
- fr3_finger_joint2
position:
- -0.2067895135133103
- -0.0910342631853885
- 0.3867158979146999
- -2.0086719813612532
- 0.21342862188889572
- 2.0209141825188786
- 0.17930167548152287
- 0.0
- 0.0
velocity:
- -0.11015693992776922
- 0.03973847869859812
- 0.10396633382576691
- 0.029515353907265347
- 0.10247807293316914
- 0.06365004446670675
- 0.009698240465685147
- 0.0
- 0.0
effort:
- -0.849299430847168
- -25.124483108520508
- -0.8558768630027771
- 23.605207443237305
- 1.2652775049209595
- 2.5435335636138916
- 0.1399618536233902
- 0.0
- 0.0
---
header:
  stamp:
    sec: 1756280114
    nanosec: 783797398
  frame_id: ''
name:
- fr3_joint1
- fr3_joint2
- fr3_joint3
- fr3_joint4
- fr3_joint5
- fr3_joint6
- fr3_joint7
- fr3_finger_joint1
- fr3_finger_joint2
position:
- -0.21025281326922468
- -0.08968264492808163
- 0.390078150624964
- -2.0077348049937007
- 0.21679443408878893
- 2.0230597129312526
- 0.17963987586538221
- 0.0
- 0.0
velocity:
- -0.10027427992829038
- 0.04144711861163939
- 0.09763817466909389
- 0.0285648060246051
- 0.09958520062542778
- 0.06509851044163674
- 0.011106079097940874
- 0.0
- 0.0
effort:
- -0.773921012878418
- -25.251436233520508
- -0.7765311598777771
- 23.529829025268555
- 1.2716861963272095
- 2.5096590518951416
- 0.1472860723733902
- 0.0
- 0.0
---
header:
  stamp:
    sec: 1756280114
    nanosec: 817015157
  frame_id: ''
name:
- fr3_joint1
- fr3_joint2
- fr3_joint3
- fr3_joint4
- fr3_joint5
- fr3_joint6
- fr3_joint7
- fr3_finger_joint1
- fr3_finger_joint2
position:
- -0.21366551105179085
- -0.08828449872237693
- 0.393514819987901
- -2.0067458373275424
- 0.22036316687925558
- 2.0253198796869496
- 0.18008312838954552
- 0.0
- 0.0
velocity:
- -0.09456154335634155
- 0.04085942394054184
- 0.09705100487693753
- 0.030793225575952193
- 0.10670901054144055
- 0.06722559593377045
- 0.011442068061788418
- 0.0
- 0.0
effort:
- -0.877070426940918
- -25.199861526489258
- -0.9074515700340271
- 23.791669845581055
- 1.2973209619522095
- 2.5627596378326416
- 0.1536947637796402
- 0.0
- 0.0
---
header:
  stamp:
    sec: 1756280114
    nanosec: 850834822
  frame_id: ''
name:
- fr3_joint1
- fr3_joint2
- fr3_joint3
- fr3_joint4
- fr3_joint5
- fr3_joint6
- fr3_joint7
- fr3_finger_joint1
- fr3_finger_joint2
position:
- -0.2172019753101966
- -0.08695888219210626
- 0.397070777346881
- -2.005644894168337
- 0.2240103871497957
- 2.0276873540130222
- 0.1804639196268672
- 0.0
- 0.0
velocity:
- -0.10954086581472426
- 0.03689447936307891
- 0.11151055002083375
- 0.03278230333724849
- 0.10774566314299472
- 0.07091612094829859
- 0.01178647865198951
- 0.0
- 0.0
effort:
- -1.234126091003418
- -25.251436233520508
- -1.1653251647949219
- 23.632978439331055
- 1.2652775049209595
- 2.5499422550201416
- 0.1738363653421402
- 0.0
- 0.0
---
header:
  stamp:
    sec: 1756280114
    nanosec: 883765691
  frame_id: ''
name:
- fr3_joint1
- fr3_joint2
- fr3_joint3
- fr3_joint4
- fr3_joint5
- fr3_joint6
- fr3_joint7
- fr3_finger_joint1
- fr3_finger_joint2
position:
- -0.2208127516237253
- -0.08578933123271361
- 0.40063607808855906
- -2.0046084749528816
- 0.22744338037768463
- 2.030204006769765
- 0.18088581270234746
- 0.0
- 0.0
velocity:
- -0.11741059279081888
- 0.033966693639672134
- 0.11475110210734148
- 0.03250457240591931
- 0.10139261664945633
- 0.0751209336942338
- 0.013106632122853545
- 0.0
- 0.0
effort:
- -0.849299430847168
- -25.199861526489258
- -0.8558768630027771
- 23.712324142456055
- 1.3037296533584595
- 2.5160677433013916
- 0.1198202520608902
- 0.0
- 0.0
---
header:
  stamp:
    sec: 1756280114
    nanosec: 917227007
  frame_id: ''
name:
- fr3_joint1
- fr3_joint2
- fr3_joint3
- fr3_joint4
- fr3_joint5
- fr3_joint6
- fr3_joint7
- fr3_finger_joint1
- fr3_finger_joint2
position:
- -0.22438005684178758
- -0.08456089172235666
- 0.4040032842423843
- -2.0033857132692896
- 0.23094990460181297
- 2.0325895048626372
- 0.1813015155252153
- 0.0
- 0.0
velocity:
- -0.10460546592505958
- 0.036434446499067075
- 0.09846596007488698
- 0.03640225559074622
- 0.10218886139503913
- 0.06953865453007957
- 0.010663674554730246
- 0.0
- 0.0
effort:
- -0.595393180847168
- -25.021333694458008
- -0.5702323317527771
- 23.632978439331055
- 1.3302799463272095
- 2.4968416690826416
- 0.1472860723733902
- 0.0
- 0.0
---
header:
  stamp:
    sec: 1756280114
    nanosec: 950318414
  frame_id: ''
name:
- fr3_joint1
- fr3_joint2
- fr3_joint3
- fr3_joint4
- fr3_joint5
- fr3_joint6
- fr3_joint7
- fr3_finger_joint1
- fr3_finger_joint2
position:
- -0.2277244899215901
- -0.08324263728002222
- 0.40716718906241073
- -2.0020677100886854
- 0.23429842381570687
- 2.0349422513525086
- 0.18175805766492972
- 0.0
- 0.0
velocity:
- -0.0992673285899983
- 0.04101510558524101
- 0.09404771077243816
- 0.040500024630587834
- 0.09913583041916044
- 0.06974166004186104
- 0.011090148427842861
- 0.0
- 0.0
effort:
- -0.571589469909668
- -25.049104690551758
- -0.5702323317527771
- 23.422712326049805
- 1.3238712549209595
- 2.4767000675201416
- 0.1738363653421402
- 0.0
- 0.0
---
header:
  stamp:
    sec: 1756280114
    nanosec: 983732661
  frame_id: ''
name:
- fr3_joint1
- fr3_joint2
- fr3_joint3
- fr3_joint4
- fr3_joint5
- fr3_joint6
- fr3_joint7
- fr3_finger_joint1
- fr3_finger_joint2
position:
- -0.23125868436317468
- -0.08188218117274114
- 0.41051475968466183
- -2.0008619565706773
- 0.23754568645299076
- 2.037186231755435
- 0.18218556565698568
- 0.0
- 0.0
velocity:
- -0.10765732808045336
- 0.04131468313987888
- 0.10110363112444044
- 0.034282993291250854
- 0.09856499133256208
- 0.06655420800807592
- 0.01472149638513582
- 0.0
- 0.0
effort:
- -1.004023551940918
- -24.640474319458008
- -0.9590262770652771
- 23.029951095581055
- 1.3430973291397095
- 2.4565584659576416
- 0.1811605840921402
- 0.0
- 0.0
---
header:
  stamp:
    sec: 1756280115
    nanosec: 17007483
  frame_id: ''
name:
- fr3_joint1
- fr3_joint2
- fr3_joint3
- fr3_joint4
- fr3_joint5
- fr3_joint6
- fr3_joint7
- fr3_finger_joint1
- fr3_finger_joint2
position:
- -0.23490977329127907
- -0.08038195143018703
- 0.4139950464407908
- -1.9998403286215856
- 0.24108430765790628
- 2.039394228904191
- 0.1826006147696999
- 0.0
- 0.0
velocity:
- -0.10664671140415868
- 0.04595883606243
- 0.10388770353672867
- 0.030285571039046957
- 0.10716218110362366
- 0.06250613165816299
- 0.012555754419373124
- 0.0
- 0.0
effort:
- -0.825495719909668
- -24.767427444458008
- -0.7765311598777771
- 23.422712326049805
- 1.2780948877334595
- 2.5233919620513916
- 0.1472860723733902
- 0.0
- 0.0
---
header:
  stamp:
    sec: 1756280115
    nanosec: 50319649
  frame_id: ''
name:
- fr3_joint1
- fr3_joint2
- fr3_joint3
- fr3_joint4
- fr3_joint5
- fr3_joint6
- fr3_joint7
- fr3_finger_joint1
- fr3_finger_joint2
position:
- -0.23824186505033204
- -0.07879368550509289
- 0.417334647538901
- -1.9988930413250159
- 0.24463712807025756
- 2.0415704998840982
- 0.18303646217461178
- 0.0
- 0.0
velocity:
- -0.10116458602790308
- 0.04831329357922419
- 0.10279727580386508
- 0.027156165742503895
- 0.10601542731238481
- 0.06668989692245184
- 0.012373564161057256
- 0.0
- 0.0
effort:
- -0.722346305847168
- -25.251436233520508
- -0.5980033278465271
- 23.581403732299805
- 1.2845035791397095
- 2.5096590518951416
- 0.1472860723733902
- 0.0
- 0.0
---
header:
  stamp:
    sec: 1756280115
    nanosec: 83728835
  frame_id: ''
name:
- fr3_joint1
- fr3_joint2
- fr3_joint3
- fr3_joint4
- fr3_joint5
- fr3_joint6
- fr3_joint7
- fr3_finger_joint1
- fr3_finger_joint2
position:
- -0.24151004572708054
- -0.07721853803080797
- 0.42063779554938086
- -1.9979497655352403
- 0.24809055338725353
- 2.0437557020846775
- 0.18349784693247018
- 0.0
- 0.0
velocity:
- -0.10411568001162114
- 0.04673194948735536
- 0.10484501838052178
- 0.0317044655772079
- 0.10340225773879463
- 0.06510999362729883
- 0.011910969464645257
- 0.0
- 0.0
effort:
- -0.900874137878418
- -25.223665237426758
- -0.8043021559715271
- 23.660749435424805
- 1.2973209619522095
- 2.5096590518951416
- 0.1536947637796402
- 0.0
- 0.0
---
header:
  stamp:
    sec: 1756280115
    nanosec: 116998235
  frame_id: ''
name:
- fr3_joint1
- fr3_joint2
- fr3_joint3
- fr3_joint4
- fr3_joint5
- fr3_joint6
- fr3_joint7
- fr3_finger_joint1
- fr3_finger_joint2
position:
- -0.24522325576386814
- -0.07564751333420368
- 0.42433133498459225
- -1.9968995378601202
- 0.2517230544347088
- 2.0460113229775203
- 0.1839065512096351
- 0.0
- 0.0
velocity:
- -0.10670568742329943
- 0.04308063167973844
- 0.1055920823097372
- 0.029653018354704592
- 0.10230586357139358
- 0.06801575991542919
- 0.008361861142876664
- 0.0
- 0.0
effort:
- -1.027827262878418
- -25.350618362426758
- -1.0106010437011719
- 23.632978439331055
- 1.3174625635147095
- 2.5435335636138916
- 0.2077108770608902
- 0.0
- 0.0
---
header:
  stamp:
    sec: 1756280115
    nanosec: 150872152
  frame_id: ''
name:
- fr3_joint1
- fr3_joint2
- fr3_joint3
- fr3_joint4
- fr3_joint5
- fr3_joint6
- fr3_joint7
- fr3_finger_joint1
- fr3_finger_joint2
position:
- -0.24883748256392618
- -0.0742402313170786
- 0.42784559003909156
- -1.9959706440275429
- 0.25514315743861116
- 2.0483659097498226
- 0.18429330588117201
- 0.0
- 0.0
velocity:
- -0.10714160368662612
- 0.041614552300785645
- 0.10428289625929962
- 0.02743385442286531
- 0.101792232133084
- 0.0762588469542425
- 0.011022343615380388
- 0.0
- 0.0
effort:
- -0.646967887878418
- -25.453767776489258
- -0.5980033278465271
- 23.843244552612305
- 1.3174625635147095
- 2.5627596378326416
- 0.1939779669046402
- 0.0
- 0.0
---
header:
  stamp:
    sec: 1756280115
    nanosec: 183745209
  frame_id: ''
name:
- fr3_joint1
- fr3_joint2
- fr3_joint3
- fr3_joint4
- fr3_joint5
- fr3_joint6
- fr3_joint7
- fr3_finger_joint1
- fr3_finger_joint2
position:
- -0.2521854022562846
- -0.0728846629258232
- 0.4310021842460891
- -1.994986892848934
- 0.258601776680327
- 2.0509041036281968
- 0.184625228067422
- 0.0
- 0.0
velocity:
- -0.10650856659689414
- 0.04344573644345011
- 0.0990103804985586
- 0.03239712960534225
- 0.11218847612041478
- 0.0760825621106277
- 0.012149484288568773
- 0.0
- 0.0
effort:
- -0.520014762878418
- -25.429964065551758
- -0.3917044997215271
- 23.894819259643555
- 1.3174625635147095
- 2.5627596378326416
- 0.1472860723733902
- 0.0
- 0.0
---
header:
  stamp:
    sec: 1756280115
    nanosec: 217017155
  frame_id: ''
name:
- fr3_joint1
- fr3_joint2
- fr3_joint3
- fr3_joint4
- fr3_joint5
- fr3_joint6
- fr3_joint7
- fr3_finger_joint1
- fr3_finger_joint2
position:
- -0.25565824269821047
- -0.07156517348762029
- 0.43420740414731623
- -1.9938586466846204
- 0.2622876187043831
- 2.053461374934774
- 0.1850190645357013
- 0.0
- 0.0
velocity:
- -0.10820711168118324
- 0.03763034031389304
- 0.0987944583331186
- 0.03236119594390423
- 0.10385619628331444
- 0.07333828409026182
- 0.01192858464438451
- 0.0
- 0.0
effort:
- -0.877070426940918
- -25.402193069458008
- -0.7527274489402771
- 23.894819259643555
- 1.3110538721084595
- 2.5700838565826416
- 0.1674276739358902
- 0.0
- 0.0
---
header:
  stamp:
    sec: 1756280115
    nanosec: 250875204
  frame_id: ''
name:
- fr3_joint1
- fr3_joint2
- fr3_joint3
- fr3_joint4
- fr3_joint5
- fr3_joint6
- fr3_joint7
- fr3_finger_joint1
- fr3_finger_joint2
position:
- -0.25928545372528367
- -0.07030293264985887
- 0.4375612141370132
- -1.9926103096340049
- 0.2658117908940744
- 2.0557674624721463
- 0.1854430025051045
- 0.0
- 0.0
velocity:
- -0.10364248844938637
- 0.03809722679748375
- 0.09942960660349931
- 0.039561374333736916
- 0.10710292497214653
- 0.06887501240778363
- 0.014017956595057135
- 0.0
- 0.0
effort:
- -0.952448844909668
- -25.350618362426758
- -0.7527274489402771
- 23.553632736206055
- 1.3037296533584595
- 2.5435335636138916
- 0.1134115606546402
- 0.0
- 0.0
---
header:
  stamp:
    sec: 1756280115
    nanosec: 283717406
  frame_id: ''
name:
- fr3_joint1
- fr3_joint2
- fr3_joint3
- fr3_joint4
- fr3_joint5
- fr3_joint6
- fr3_joint7
- fr3_finger_joint1
- fr3_finger_joint2
position:
- -0.2627074738912334
- -0.06909666496000026
- 0.4409036336456035
- -1.991400285664385
- 0.2693038479903759
- 2.057970983825849
- 0.18586028858974937
- 0.0
- 0.0
velocity:
- -0.09895478430319132
- 0.03767263815941925
- 0.10063627129257813
- 0.03689490667041873
- 0.10849590472869892
- 0.06745121834360188
- 0.013590705623410701
- 0.0
- 0.0
effort:
- -0.698542594909668
- -25.096712112426758
- -0.5186576247215271
- 23.581403732299805
- 1.3110538721084595
- 2.5435335636138916
- 0.1198202520608902
- 0.0
- 0.0
---
header:
  stamp:
    sec: 1756280115
    nanosec: 317187793
  frame_id: ''
name:
- fr3_joint1
- fr3_joint2
- fr3_joint3
- fr3_joint4
- fr3_joint5
- fr3_joint6
- fr3_joint7
- fr3_finger_joint1
- fr3_finger_joint2
position:
- -0.2661621870532131
- -0.06776485979148028
- 0.4444258051638532
- -1.9901533360073516
- 0.2727933278814678
- 2.0602896003821325
- 0.18632690243729408
- 0.0
- 0.0
velocity:
- -0.10045711820633026
- 0.03979837181186366
- 0.1031050225047182
- 0.03531602165078522
- 0.09934503878138674
- 0.06885574567277092
- 0.016277012996482924
- 0.0
- 0.0
effort:
- -0.646967887878418
- -25.148286819458008
- -0.4432792067527771
- 23.398908615112305
- 1.3037296533584595
- 2.4767000675201416
- 0.0923544317483902
- 0.0
- 0.0
---
header:
  stamp:
    sec: 1756280115
    nanosec: 350973223
  frame_id: ''
name:
- fr3_joint1
- fr3_joint2
- fr3_joint3
- fr3_joint4
- fr3_joint5
- fr3_joint6
- fr3_joint7
- fr3_finger_joint1
- fr3_finger_joint2
position:
- -0.2696681478390413
- -0.06646932493847617
- 0.44796968704631995
- -1.989042616690895
- 0.2759965403321316
- 2.0626015497135888
- 0.1867406852574028
- 0.0
- 0.0
velocity:
- -0.11403287756435758
- 0.038293608598775356
- 0.11337615196745433
- 0.03032924139835888
- 0.09400370500460864
- 0.06938359807603246
- 0.013936662062938246
- 0.0
- 0.0
effort:
- -1.107172966003418
- -25.049104690551758
- -0.9867972731590271
- 23.529829025268555
- 1.2780948877334595
- 2.5096590518951416
- 0.0923544317483902
- 0.0
- 0.0
---
header:
  stamp:
    sec: 1756280115
    nanosec: 383773686
  frame_id: ''
name:
- fr3_joint1
- fr3_joint2
- fr3_joint3
- fr3_joint4
- fr3_joint5
- fr3_joint6
- fr3_joint7
- fr3_finger_joint1
- fr3_finger_joint2
position:
- -0.2731756034213979
- -0.06523847271988549
- 0.451497872320606
- -1.9880665574237095
- 0.2791611261911535
- 2.0647532947961844
- 0.18704948788853176
- 0.0
- 0.0
velocity:
- -0.10807134197508352
- 0.037000358156445014
- 0.10707879254154445
- 0.028035275280533824
- 0.10173550560667383
- 0.06825129037541747
- 0.008486752621205547
- 0.0
- 0.0
effort:
- -1.154780387878418
- -24.918184280395508
- -1.0106010437011719
- 23.371137619018555
- 1.3037296533584595
- 2.5362093448638916
- 0.1601034551858902
- 0.0
- 0.0
---
header:
  stamp:
    sec: 1756280115
    nanosec: 416988220
  frame_id: ''
name:
- fr3_joint1
- fr3_joint2
- fr3_joint3
- fr3_joint4
- fr3_joint5
- fr3_joint6
- fr3_joint7
- fr3_finger_joint1
- fr3_finger_joint2
position:
- -0.2766634768951576
- -0.06393727383462013
- 0.45493036256075736
- -1.9872239666961207
- 0.2826865300690144
- 2.06709476821392
- 0.18739686995464724
- 0.0
- 0.0
velocity:
- -0.0994614464695648
- 0.0392319863192338
- 0.09600084395002947
- 0.024952482327551758
- 0.10342739560075719
- 0.0679337119010613
- 0.007591306249121336
- 0.0
- 0.0
effort:
- -0.825495719909668
- -25.124483108520508
- -0.5464286208152771
- 23.529829025268555
- 1.3037296533584595
- 2.5362093448638916
- 0.1738363653421402
- 0.0
- 0.0
---
header:
  stamp:
    sec: 1756280115
    nanosec: 450369195
  frame_id: ''
name:
- fr3_joint1
- fr3_joint2
- fr3_joint3
- fr3_joint4
- fr3_joint5
- fr3_joint6
- fr3_joint7
- fr3_finger_joint1
- fr3_finger_joint2
position:
- -0.2800434017010028
- -0.06257145901858484
- 0.4581695383390199
- -1.9864033315290652
- 0.28608695311810306
- 2.0695475838605395
- 0.18774713585134467
- 0.0
- 0.0
velocity:
- -0.09822556543163653
- 0.04357377783916097
- 0.09276195484059996
- 0.02541921104089186
- 0.10117361698641478
- 0.07230368668307777
- 0.008805706201469816
- 0.0
- 0.0
effort:
- -0.698542594909668
- -25.326814651489258
- -0.4432792067527771
- 23.763898849487305
- 1.3568302392959595
- 2.5435335636138916
- 0.1875692754983902
- 0.0
- 0.0
---
header:
  stamp:
    sec: 1756280115
    nanosec: 483822177
  frame_id: ''
name:
- fr3_joint1
- fr3_joint2
- fr3_joint3
- fr3_joint4
- fr3_joint5
- fr3_joint6
- fr3_joint7
- fr3_finger_joint1
- fr3_finger_joint2
position:
- -0.28361106191155167
- -0.061237393596934135
- 0.46145096654664514
- -1.985503201835688
- 0.289570426165089
- 2.0717523723690303
- 0.18811511936642833
- 0.0
- 0.0
velocity:
- -0.10886116866005313
- 0.04163144134506279
- 0.10073539226685217
- 0.02999421153705868
- 0.11325226026103591
- 0.06765459695778554
- 0.011911640633209816
- 0.0
- 0.0
effort:
- -0.825495719909668
- -25.275239944458008
- -0.5980033278465271
- 23.763898849487305
- 1.3037296533584595
- 2.5499422550201416
- 0.1472860723733902
- 0.0
- 0.0
---
header:
  stamp:
    sec: 1756280115
    nanosec: 517169170
  frame_id: ''
name:
- fr3_joint1
- fr3_joint2
- fr3_joint3
- fr3_joint4
- fr3_joint5
- fr3_joint6
- fr3_joint7
- fr3_finger_joint1
- fr3_finger_joint2
position:
- -0.2872666484489594
- -0.05983954871840691
- 0.4648814625752922
- -1.9844926299295733
- 0.2932388142496081
- 2.0740319194532835
- 0.18843246724634244
- 0.0
- 0.0
velocity:
- -0.10519396043263277
- 0.039526818006048806
- 0.099465166259092
- 0.029289381700180923
- 0.10566183390601612
- 0.06917807983110105
- 0.00663023170698198
- 0.0
- 0.0
effort:
- -0.825495719909668
- -25.275239944458008
- -0.5980033278465271
- 23.740095138549805
- 1.3302799463272095
- 2.5298006534576416
- 0.1738363653421402
- 0.0
- 0.0
---
header:
  stamp:
    sec: 1756280115
    nanosec: 550785489
  frame_id: ''
name:
- fr3_joint1
- fr3_joint2
- fr3_joint3
- fr3_joint4
- fr3_joint5
- fr3_joint6
- fr3_joint7
- fr3_finger_joint1
- fr3_finger_joint2
position:
- -0.2906191519235761
- -0.05852396598125704
- 0.4682020228986103
- -1.9834667682693752
- 0.29661477149329185
- 2.0762967614687953
- 0.1886678661113959
- 0.0
- 0.0
velocity:
- -0.10152143061461388
- 0.036649756022783586
- 0.10096568007024745
- 0.029286078699408347
- 0.10466930736922742
- 0.06188832033332235
- 0.004368714600102675
- 0.0
- 0.0
effort:
- -0.722346305847168
- -25.148286819458008
- -0.3917044997215271
- 23.632978439331055
- 1.3238712549209595
- 2.5362093448638916
- 0.2013021856546402
- 0.0
- 0.0
---
header:
  stamp:
    sec: 1756280115
    nanosec: 583814453
  frame_id: ''
name:
- fr3_joint1
- fr3_joint2
- fr3_joint3
- fr3_joint4
- fr3_joint5
- fr3_joint6
- fr3_joint7
- fr3_finger_joint1
- fr3_finger_joint2
position:
- -0.29398461302693074
- -0.05727722854575392
- 0.47154227838713675
- -1.9824719246760338
- 0.3001304878701725
- 2.078299979733016
- 0.18892763570749405
- 0.0
- 0.0
velocity:
- -0.10510422979615534
- 0.03775996463956177
- 0.10419521402851246
- 0.030298467998712247
- 0.10813484612143266
- 0.06136250840131947
- 0.008226813876356862
- 0.0
- 0.0
effort:
- -1.079401969909668
- -24.969758987426758
- -0.7527274489402771
- 23.553632736206055
- 1.3110538721084595
- 2.5298006534576416
- 0.1674276739358902
- 0.0
- 0.0
---
header:
  stamp:
    sec: 1756280115
    nanosec: 616964051
  frame_id: ''
name:
- fr3_joint1
- fr3_joint2
- fr3_joint3
- fr3_joint4
- fr3_joint5
- fr3_joint6
- fr3_joint7
- fr3_finger_joint1
- fr3_finger_joint2
position:
- -0.29767181955936123
- -0.05588555434916239
- 0.4752053483737356
- -1.9814043151687566
- 0.30388515344298755
- 2.0804412241762775
- 0.18919097176233718
- 0.0
- 0.0
velocity:
- -0.10654427223805858
- 0.04381257948921847
- 0.10698094614381168
- 0.030910422766550046
- 0.10819646742774151
- 0.06529257760574717
- 0.006365683780548694
- 0.0
- 0.0
effort:
- -1.079401969909668
- -24.945955276489258
- -0.8043021559715271
- 23.553632736206055
- 1.2909122705459595
- 2.5298006534576416
- 0.1262289434671402
- 0.0
- 0.0
---
header:
  stamp:
    sec: 1756280115
    nanosec: 650884650
  frame_id: ''
name:
- fr3_joint1
- fr3_joint2
- fr3_joint3
- fr3_joint4
- fr3_joint5
- fr3_joint6
- fr3_joint7
- fr3_finger_joint1
- fr3_finger_joint2
position:
- -0.3011422333090592
- -0.054410268561892766
- 0.47871270667016186
- -1.9803165674830523
- 0.3073251928077997
- 2.0827856455198854
- 0.18941105641395597
- 0.0
- 0.0
velocity:
- -0.10177882082608604
- 0.047153206610661275
- 0.10119481847641841
- 0.03373546180252071
- 0.10226262453339224
- 0.07020490599076352
- 0.006642050806671035
- 0.0
- 0.0
effort:
- -0.722346305847168
- -25.124483108520508
- -0.4432792067527771
- 23.632978439331055
- 1.3366886377334595
- 2.5362093448638916
- 0.1399618536233902
- 0.0
- 0.0
---
header:
  stamp:
    sec: 1756280115
    nanosec: 683701669
  frame_id: ''
name:
- fr3_joint1
- fr3_joint2
- fr3_joint3
- fr3_joint4
- fr3_joint5
- fr3_joint6
- fr3_joint7
- fr3_finger_joint1
- fr3_finger_joint2
position:
- -0.30447377373911516
- -0.05288643401130814
- 0.481985868418591
- -1.9791913212474974
- 0.3106698500829132
- 2.085138781146086
- 0.18964130903777954
- 0.0
- 0.0
velocity:
- -0.10297172388670363
- 0.04672021631620773
- 0.10003367752211427
- 0.03423396665656319
- 0.10130590192331382
- 0.07500173685165469
- 0.006015530248145664
- 0.0
- 0.0
effort:
- -0.646967887878418
- -25.148286819458008
- -0.3401297926902771
- 23.581403732299805
- 1.3174625635147095
- 2.5096590518951416
- 0.1875692754983902
- 0.0
- 0.0
---
header:
  stamp:
    sec: 1756280115
    nanosec: 717063398
  frame_id: ''
name:
- fr3_joint1
- fr3_joint2
- fr3_joint3
- fr3_joint4
- fr3_joint5
- fr3_joint6
- fr3_joint7
- fr3_finger_joint1
- fr3_finger_joint2
position:
- -0.30800094132204053
- -0.05131451673708159
- 0.48529940447714465
- -1.9780932255206511
- 0.3141711808353226
- 2.087785947815945
- 0.18991066407869966
- 0.0
- 0.0
velocity:
- -0.1089510839676389
- 0.04713983658512633
- 0.099401019911726
- 0.03221864377243175
- 0.10059942856400553
- 0.08046672975182444
- 0.009981877591708793
- 0.0
- 0.0
effort:
- -0.849299430847168
- -25.275239944458008
- -0.3917044997215271
- 23.632978439331055
- 1.2716861963272095
- 2.5435335636138916
- 0.1939779669046402
- 0.0
- 0.0
---
header:
  stamp:
    sec: 1756280115
    nanosec: 750317323
  frame_id: ''
name:
- fr3_joint1
- fr3_joint2
- fr3_joint3
- fr3_joint4
- fr3_joint5
- fr3_joint6
- fr3_joint7
- fr3_finger_joint1
- fr3_finger_joint2
position:
- -0.31164529117746365
- -0.04986247701999847
- 0.4886147043807196
- -1.9770320942075963
- 0.3175360169031164
- 2.0903882947380166
- 0.19016869237559442
- 0.0
- 0.0
velocity:
- -0.10724764535849095
- 0.041645020918574575
- 0.09982872234192254
- 0.03145338363017304
- 0.10250456584333696
- 0.0747682455231389
- 0.00444927657029758
- 0.0
- 0.0
effort:
- -0.877070426940918
- -25.378389358520508
- -0.4948539137840271
- 23.791669845581055
- 1.3238712549209595
- 2.5362093448638916
- 0.1875692754983902
- 0.0
- 0.0
---
header:
  stamp:
    sec: 1756280115
    nanosec: 783767270
  frame_id: ''
name:
- fr3_joint1
- fr3_joint2
- fr3_joint3
- fr3_joint4
- fr3_joint5
- fr3_joint6
- fr3_joint7
- fr3_finger_joint1
- fr3_finger_joint2
position:
- -0.3150368659532917
- -0.04853494142205608
- 0.49183579776605724
- -1.9759898783218397
- 0.32093550192153625
- 2.0928041220379723
- 0.19040192371233408
- 0.0
- 0.0
velocity:
- -0.10154564797124527
- 0.03941481347804067
- 0.10156804081046676
- 0.03190132468043783
- 0.1016641033759557
- 0.07155333400050222
- 0.0053574684094082736
- 0.0
- 0.0
effort:
- -0.619196891784668
- -25.481538772583008
- -0.2607840895652771
- 23.712324142456055
- 1.3110538721084595
- 2.5096590518951416
- 0.1875692754983902
- 0.0
- 0.0
---
header:
  stamp:
    sec: 1756280115
    nanosec: 817112209
  frame_id: ''
name:
- fr3_joint1
- fr3_joint2
- fr3_joint3
- fr3_joint4
- fr3_joint5
- fr3_joint6
- fr3_joint7
- fr3_finger_joint1
- fr3_finger_joint2
position:
- -0.3185329212530067
- -0.04721462287157855
- 0.49532590090482986
- -1.9749445521512186
- 0.32448749723606074
- 2.095240490809287
- 0.19067420563337997
- 0.0
- 0.0
velocity:
- -0.10000555251069333
- 0.039728088202379656
- 0.09945687714839414
- 0.0287917108664992
- 0.1047814254653568
- 0.06932452928690337
- 0.006162722820971605
- 0.0
- 0.0
effort:
- -0.722346305847168
- -25.251436233520508
- -0.3123587965965271
- 23.502058029174805
- 1.3366886377334595
- 2.4831087589263916
- 0.1472860723733902
- 0.0
- 0.0
---
header:
  stamp:
    sec: 1756280115
    nanosec: 850851038
  frame_id: ''
name:
- fr3_joint1
- fr3_joint2
- fr3_joint3
- fr3_joint4
- fr3_joint5
- fr3_joint6
- fr3_joint7
- fr3_finger_joint1
- fr3_finger_joint2
position:
- -0.32212049840932006
- -0.04603657382572854
- 0.4988221768479197
- -1.974030391064349
- 0.32798937467006933
- 2.0974313791343864
- 0.19090282406320394
- 0.0
- 0.0
velocity:
- -0.11467338449511025
- 0.03280143439358354
- 0.1093207016497799
- 0.026375214545849315
- 0.10589122260507498
- 0.06026664849604909
- 0.004254345640771489
- 0.0
- 0.0
effort:
- -1.055598258972168
- -25.176057815551758
- -0.7011527419090271
- 23.791669845581055
- 1.3504215478897095
- 2.5563509464263916
- 0.1875692754983902
- 0.0
- 0.0
---
header:
  stamp:
    sec: 1756280115
    nanosec: 883754383
  frame_id: ''
name:
- fr3_joint1
- fr3_joint2
- fr3_joint3
- fr3_joint4
- fr3_joint5
- fr3_joint6
- fr3_joint7
- fr3_finger_joint1
- fr3_finger_joint2
position:
- -0.32568600474954734
- -0.04488502400413079
- 0.5023598913700996
- -1.9730789002478213
- 0.3314474025242592
- 2.099449858190283
- 0.1911403035634516
- 0.0
- 0.0
velocity:
- -0.10683826378155596
- 0.03724272627371363
- 0.10784243726322743
- 0.03097615442093568
- 0.10330543206715453
- 0.06262387655586525
- 0.005687158340517226
- 0.0
- 0.0
effort:
- -1.079401969909668
- -25.072908401489258
- -0.7249564528465271
- 23.871015548706055
- 1.3174625635147095
- 2.5829012393951416
- 0.1601034551858902
- 0.0
- 0.0
---
header:
  stamp:
    sec: 1756280115
    nanosec: 917233536
  frame_id: ''
name:
- fr3_joint1
- fr3_joint2
- fr3_joint3
- fr3_joint4
- fr3_joint5
- fr3_joint6
- fr3_joint7
- fr3_finger_joint1
- fr3_finger_joint2
position:
- -0.32910535519134926
- -0.0435605844096105
- 0.505786887103689
- -1.97193345212755
- 0.33492234426551254
- 2.1017124992645084
- 0.19137519425073685
- 0.0
- 0.0
velocity:
- -0.10355659253522928
- 0.039668998803835676
- 0.10241851096983418
- 0.03558570606328918
- 0.10067125366788476
- 0.0653896548448659
- 0.008436087695676976
- 0.0
- 0.0
effort:
- -0.646967887878418
- -25.049104690551758
- -0.2092093825340271
- 23.815473556518555
- 1.3174625635147095
- 2.5563509464263916
- 0.1335531622171402
- 0.0
- 0.0
---
header:
  stamp:
    sec: 1756280115
    nanosec: 950845980
  frame_id: ''
name:
- fr3_joint1
- fr3_joint2
- fr3_joint3
- fr3_joint4
- fr3_joint5
- fr3_joint6
- fr3_joint7
- fr3_finger_joint1
- fr3_finger_joint2
position:
- -0.3324892606447603
- -0.04213369228775218
- 0.5090768225751446
- -1.9706679906334954
- 0.33852778296265024
- 2.103950023660627
- 0.19158812983984133
- 0.0
- 0.0
velocity:
- -0.1013389649718202
- 0.0438090057862881
- 0.09545499940841755
- 0.03646123235081672
- 0.1055421669246557
- 0.07166414911273943
- 0.005214703643745702
- 0.0
- 0.0
effort:
- -0.520014762878418
- -25.199861526489258
- -0.0544852614402771
- 23.660749435424805
- 1.3504215478897095
- 2.5362093448638916
- 0.1472860723733902
- 0.0
- 0.0
---
header:
  stamp:
    sec: 1756280115
    nanosec: 983708931
  frame_id: ''
name:
- fr3_joint1
- fr3_joint2
- fr3_joint3
- fr3_joint4
- fr3_joint5
- fr3_joint6
- fr3_joint7
- fr3_finger_joint1
- fr3_finger_joint2
position:
- -0.33608597213171215
- -0.04080502782168961
- 0.5123787366325419
- -1.969569044736283
- 0.34201337640667384
- 2.10635828774948
- 0.19174676854478595
- 0.0
- 0.0
velocity:
- -0.11231558398100479
- 0.03845666743776865
- 0.10108998041676184
- 0.03374602719018528
- 0.10629095282606345
- 0.07247745430607722
- 0.0025595397347669717
- 0.0
- 0.0
effort:
- -0.750117301940918
- -25.176057815551758
- -0.3639335036277771
- 23.632978439331055
- 1.3238712549209595
- 2.5298006534576416
- 0.1399618536233902
- 0.0
- 0.0
---
header:
  stamp:
    sec: 1756280116
    nanosec: 17060433
  frame_id: ''
name:
- fr3_joint1
- fr3_joint2
- fr3_joint3
- fr3_joint4
- fr3_joint5
- fr3_joint6
- fr3_joint7
- fr3_finger_joint1
- fr3_finger_joint2
position:
- -0.339766118404778
