header:
  stamp:
    sec: 1756281511
    nanosec: 668058813
  frame_id: ''
name:
- fr3_joint1
- fr3_joint2
- fr3_joint3
- fr3_joint4
- fr3_joint5
- fr3_joint6
- fr3_joint7
- fr3_finger_joint1
- fr3_finger_joint2
position:
- 0.41431589222030174
- -0.10144473875282871
- -0.2800343643747181
- -2.258809013833906
- -0.033330297905437595
- 2.1602760351252748
- 0.15446813684303481
- 0.0
- 0.0
velocity:
- 0.0001260771716575598
- 0.001731797139225561
- 0.0009750989547490966
- 8.364088277252051e-05
- -0.0017933895187431286
- -0.000464905866864093
- -0.0008852293487083269
- 0.0
- 0.0
effort:
- 0.24567127227783203
- -25.937776565551758
- 0.8500557541847229
- 21.954816818237305
- 0.5117985606193542
- 2.3164827823638916
- 0.018196716904640198
- 0.0
- 0.0
---
header:
  stamp:
    sec: 1756281511
    nanosec: 701308832
  frame_id: ''
name:
- fr3_joint1
- fr3_joint2
- fr3_joint3
- fr3_joint4
- fr3_joint5
- fr3_joint6
- fr3_joint7
- fr3_finger_joint1
- fr3_finger_joint2
position:
- 0.4143154861269067
- -0.1014447299116433
- -0.28003717383243043
- -2.2588095265446393
- -0.03333309326492784
- 2.1602752731605013
- 0.15446092034399145
- 0.0
- 0.0
velocity:
- -0.00010749857162438827
- 0.0013097951554990948
- -0.0007721897872986172
- -0.00016233401183925948
- -0.0018517278675890742
- -0.0003690160401972071
- -0.0016205181125860811
- 0.0
- 0.0
effort:
- 0.22186756134033203
- -25.937776565551758
- 0.8500557541847229
- 21.982587814331055
- 0.5117985606193542
- 2.3228914737701416
- 0.0520712286233902
- 0.0
- 0.0
---
header:
  stamp:
    sec: 1756281511
    nanosec: 734613992
  frame_id: ''
name:
- fr3_joint1
- fr3_joint2
- fr3_joint3
- fr3_joint4
- fr3_joint5
- fr3_joint6
- fr3_joint7
- fr3_finger_joint1
- fr3_finger_joint2
position:
- 0.4143035729747675
- -0.10144786021932019
- -0.28002262262415906
- -2.258807472151539
- -0.03332515764152254
- 2.1602744073112494
- 0.15446253942941238
- 0.0
- 0.0
velocity:
- -0.002860371654677856
- 0.0011487141822609473
- 0.0015688373445053212
- -0.00023382953452072202
- -0.0005124936918340644
- -0.00026111308933738156
- -0.0007558312826666019
- 0.0
- 0.0
effort:
- 0.14252185821533203
- -25.886201858520508
- 0.9809761643409729
- 21.954816818237305
- 0.5117985606193542
- 2.3302156925201416
- 0.0383383184671402
- 0.0
- 0.0
---
header:
  stamp:
    sec: 1756281511
    nanosec: 767843354
  frame_id: ''
name:
- fr3_joint1
- fr3_joint2
- fr3_joint3
- fr3_joint4
- fr3_joint5
- fr3_joint6
- fr3_joint7
- fr3_finger_joint1
- fr3_finger_joint2
position:
- 0.4133700024663882
- -0.10140378155771079
- -0.27906253343707144
- -2.258794507447632
- -0.033305307600069785
- 2.160294215148645
- 0.15445961868313213
- 0.0
- 0.0
velocity:
- -0.049447820765890584
- 0.0019564634434575748
- 0.05236790958885163
- 0.0013888157818456365
- 0.0006528976187970664
- 0.0012745138164286817
- -0.002570753407827081
- 0.0
- 0.0
effort:
- 0.14252185821533203
- -25.580720901489258
- 1.2150459289550781
- 22.061933517456055
- 0.5841252207756042
- 2.3503572940826416
- 0.0722128301858902
- 0.0
- 0.0
---
header:
  stamp:
    sec: 1756281511
    nanosec: 801156763
  frame_id: ''
name:
- fr3_joint1
- fr3_joint2
- fr3_joint3
- fr3_joint4
- fr3_joint5
- fr3_joint6
- fr3_joint7
- fr3_finger_joint1
- fr3_finger_joint2
position:
- 0.41103524158692634
- -0.10112693953744006
- -0.2766960306493716
- -2.2586376565082893
- -0.03291350216699713
- 2.160516038817966
- 0.1544633204439662
- 0.0
- 0.0
velocity:
- -0.08476256472346085
- 0.01261665671552996
- 0.08869889944360367
- 0.004458749131331865
- 0.015515352896636844
- 0.02034976539702489
- 0.00016478488433809354
- 0.0
- 0.0
effort:
- -0.008234977722167969
- -25.632295608520508
- 1.1872749328613281
- 22.272199630737305
- 0.6628605723381042
- 2.3961336612701416
- 0.0319296270608902
- 0.0
- 0.0
---
header:
  stamp:
    sec: 1756281511
    nanosec: 834685979
  frame_id: ''
name:
- fr3_joint1
- fr3_joint2
- fr3_joint3
- fr3_joint4
- fr3_joint5
- fr3_joint6
- fr3_joint7
- fr3_finger_joint1
- fr3_finger_joint2
position:
- 0.4077429073797915
- -0.1005852556329265
- -0.27326917358396646
- -2.2583645415153066
- -0.032470906761847086
- 2.1615253334585716
- 0.15446333109224927
- 0.0
- 0.0
velocity:
- -0.09655710805406685
- 0.017112553615439532
- 0.10507838872065604
- 0.008321850452650312
- 0.01403606877594961
- 0.03714841447434679
- 0.00027686008939036173
- 0.0
- 0.0
effort:
- -0.13518810272216797
- -25.505342483520508
- 1.0841255187988281
- 22.244428634643555
- 0.7480046153068542
- 2.4235994815826416
- 0.0722128301858902
- 0.0
- 0.0
---
header:
  stamp:
    sec: 1756281511
    nanosec: 868428052
  frame_id: ''
name:
- fr3_joint1
- fr3_joint2
- fr3_joint3
- fr3_joint4
- fr3_joint5
- fr3_joint6
- fr3_joint7
- fr3_finger_joint1
- fr3_finger_joint2
position:
- 0.4050583151811356
- -0.09991123470499283
- -0.27008778430005886
- -2.2579779633198362
- -0.03203514219869243
- 2.163017187321579
- 0.15445931970762705
- 0.0
- 0.0
velocity:
- -0.07023535545286207
- 0.020896663895065715
- 0.08958275158102938
- 0.01214240560781958
- 0.00952071564537403
- 0.04822464499360708
- -0.0018149407774531389
- 0.0
- 0.0
effort:
- -0.23833751678466797
- -25.632295608520508
- 1.1634712219238281
- 22.272199630737305
- 0.8130070567131042
- 2.4034578800201416
- 0.1060873419046402
- 0.0
- 0.0
---
header:
  stamp:
    sec: 1756281511
    nanosec: 901131086
  frame_id: ''
name:
- fr3_joint1
- fr3_joint2
- fr3_joint3
- fr3_joint4
- fr3_joint5
- fr3_joint6
- fr3_joint7
- fr3_finger_joint1
- fr3_finger_joint2
position:
- 0.4026049760565546
- -0.09915803588510051
- -0.26680196922036664
- -2.257536752357302
- -0.031619295604419784
- 2.1646845795446588
- 0.1544729700046076
- 0.0
- 0.0
velocity:
- -0.07831898874948179
- 0.021748578816621643
- 0.1060900331209098
- 0.01480846215235078
- 0.012258254077610862
- 0.050846466928144124
- 0.0014078565716321861
- 0.0
- 0.0
effort:
- -0.16295909881591797
- -25.707674026489258
- 1.1872749328613281
- 22.272199630737305
- 0.8322331309318542
- 2.4034578800201416
- -0.009269103407859802
- 0.0
- 0.0
---
header:
  stamp:
    sec: 1756281511
    nanosec: 934639386
  frame_id: ''
name:
- fr3_joint1
- fr3_joint2
- fr3_joint3
- fr3_joint4
- fr3_joint5
- fr3_joint6
- fr3_joint7
- fr3_finger_joint1
- fr3_finger_joint2
position:
- 0.3998903744708142
- -0.09840970816145068
- -0.2630824479349929
- -2.2570784251266796
- -0.031140055234845428
- 2.166650928882183
- 0.15446635744383264
- 0.0
- 0.0
velocity:
- -0.08375166101414389
- 0.020920851898288795
- 0.1113712285127525
- 0.01269229652754849
- 0.01502267387810901
- 0.058275096621885764
- -0.00023188183883563783
- 0.0
- 0.0
effort:
- -0.23833751678466797
- -25.783052444458008
- 1.1357002258300781
- 22.403120040893555
- 0.8587834239006042
- 2.4300081729888916
- 0.0456625372171402
- 0.0
- 0.0
---
header:
  stamp:
    sec: 1756281511
    nanosec: 967791829
  frame_id: ''
name:
- fr3_joint1
- fr3_joint2
- fr3_joint3
- fr3_joint4
- fr3_joint5
- fr3_joint6
- fr3_joint7
- fr3_finger_joint1
- fr3_finger_joint2
position:
- 0.3970476230680505
- -0.097759897592492
- -0.2594108538108012
- -2.256610900922448
- -0.030666721333252277
- 2.1685336783513716
- 0.1544553171127469
- 0.0
- 0.0
velocity:
- -0.08761189190728823
- 0.020605678158015495
- 0.11238204735277572
- 0.016919412277919987
- 0.014134990377152105
- 0.05654302082200035
- -0.003619334283685155
- 0.0
- 0.0
effort:
- -0.46844005584716797
- -25.683870315551758
- 0.8500557541847229
- 22.375349044799805
- 0.9109684824943542
- 2.4162752628326416
- 0.1399618536233902
- 0.0
- 0.0
---
header:
  stamp:
    sec: 1756281512
    nanosec: 1452201
  frame_id: ''
name:
- fr3_joint1
- fr3_joint2
- fr3_joint3
- fr3_joint4
- fr3_joint5
- fr3_joint6
- fr3_joint7
- fr3_finger_joint1
- fr3_finger_joint2
position:
- 0.3941306393333252
- -0.09711174148986235
- -0.2557235215185722
- -2.2560739521987463
- -0.030155896533779956
- 2.1704222019144375
- 0.15447048068870983
- 0.0
- 0.0
velocity:
- -0.08930238985037732
- 0.01994152415138836
- 0.11155017896503101
- 0.017484946568283203
- 0.015722199944465783
- 0.05771688182609254
- 0.00037415702366863526
- 0.0
- 0.0
effort:
- -0.670771598815918
- -25.580720901489258
- 0.5921822190284729
- 22.403120040893555
- 0.9375187754631042
- 2.4428255558013916
- 0.011788025498390198
- 0.0
- 0.0
---
header:
  stamp:
    sec: 1756281512
    nanosec: 34510806
  frame_id: ''
name:
- fr3_joint1
- fr3_joint2
- fr3_joint3
- fr3_joint4
- fr3_joint5
- fr3_joint6
- fr3_joint7
- fr3_finger_joint1
- fr3_finger_joint2
position:
- 0.3912876078911967
- -0.09639945494012005
- -0.25216686565816393
- -2.255435809071418
- -0.029643217791267353
- 2.1722238518310313
- 0.15446334182057947
- 0.0
- 0.0
velocity:
- -0.08298541236549326
- 0.021468489837285457
- 0.10364615675055333
- 0.019488917662784447
- 0.015192617761472495
- 0.05530253272744421
- 0.0006133460261898399
- 0.0
- 0.0
effort:
- -0.543818473815918
- -25.735445022583008
- 0.7746773362159729
- 22.244428634643555
- 0.9640690684318542
- 2.3961336612701416
- 0.0722128301858902
- 0.0
- 0.0
---
header:
  stamp:
    sec: 1756281512
    nanosec: 68508068
  frame_id: ''
name:
- fr3_joint1
- fr3_joint2
- fr3_joint3
- fr3_joint4
- fr3_joint5
- fr3_joint6
- fr3_joint7
- fr3_finger_joint1
- fr3_finger_joint2
position:
- 0.3883422900784162
- -0.09565798169112487
- -0.24863052754294165
- -2.254777182054757
- -0.029048086620851517
- 2.1739763612174308
- 0.15446501360903536
- 0.0
- 0.0
velocity:
- -0.08444243798980774
- 0.023113559454717394
- 0.10180821530294679
- 0.020282928792720846
- 0.018991678704380805
- 0.0507514477646337
- 0.001184290522733269
- 0.0
- 0.0
effort:
- -0.46844005584716797
- -25.735445022583008
- 0.7984810471534729
- 22.244428634643555
- 0.9832951426506042
- 2.4235994815826416
- 0.0584799200296402
- 0.0
- 0.0
---
header:
  stamp:
    sec: 1756281512
    nanosec: 101181126
  frame_id: ''
name:
- fr3_joint1
- fr3_joint2
- fr3_joint3
- fr3_joint4
- fr3_joint5
- fr3_joint6
- fr3_joint7
- fr3_finger_joint1
- fr3_finger_joint2
position:
- 0.38538909082932843
- -0.09492743754141342
- -0.24520428761943133
- -2.2541641816247084
- -0.028535570170923605
- 2.175574263277432
- 0.15446437332861354
- 0.0
- 0.0
velocity:
- -0.09546519488459114
- 0.02335971898899096
- 0.10991748158779349
- 0.01919476177375724
- 0.015147603954929981
- 0.04785228744833663
- 0.0021304099627869034
- 0.0
- 0.0
effort:
- -0.646967887878418
- -25.656099319458008
- 0.5683785080909729
- 22.244428634643555
- 1.0162540674209595
- 2.4235994815826416
- 0.0996786504983902
- 0.0
- 0.0
---
header:
  stamp:
    sec: 1756281512
    nanosec: 134589618
  frame_id: ''
name:
- fr3_joint1
- fr3_joint2
- fr3_joint3
- fr3_joint4
- fr3_joint5
- fr3_joint6
- fr3_joint7
- fr3_finger_joint1
- fr3_finger_joint2
position:
- 0.38221182260645203
- -0.09414275378857889
- -0.24156259441521724
- -2.2535939259465194
- -0.027953369102848707
- 2.1773022199412244
- 0.1544637741525989
- 0.0
- 0.0
velocity:
- -0.09471199394320659
- 0.023227298321689717
- 0.10644429179846764
- 0.016051898150322475
- 0.015830253074449022
- 0.04954085348518796
- 0.0004977216121539756
- 0.0
- 0.0
effort:
- -0.571589469909668
- -25.810823440551758
- 0.6953316330909729
- 22.323774337768555
- 1.0684391260147095
- 2.4364168643951416
- 0.1060873419046402
- 0.0
- 0.0
---
header:
  stamp:
    sec: 1756281512
    nanosec: 168445857
  frame_id: ''
name:
- fr3_joint1
- fr3_joint2
- fr3_joint3
- fr3_joint4
- fr3_joint5
- fr3_joint6
- fr3_joint7
- fr3_finger_joint1
- fr3_finger_joint2
position:
- 0.37921613014244204
- -0.09341079224835623
- -0.23814584308334025
- -2.2530668402875813
- -0.027362088282947342
- 2.1789418191318113
- 0.15446647258538718
- 0.0
- 0.0
velocity:
- -0.0852199840450727
- 0.021825405645188894
- 0.09390706787109258
- 0.01672079796274449
- 0.018377588626436167
- 0.052574872536208815
- 0.001252576295490516
- 0.0
- 0.0
effort:
- -0.28991222381591797
- -25.783052444458008
- 0.9809761643409729
- 22.296003341674805
- 1.0620304346084595
- 2.4162752628326416
- 0.0859457403421402
- 0.0
- 0.0
---
header:
  stamp:
    sec: 1756281512
    nanosec: 201122962
  frame_id: ''
name:
- fr3_joint1
- fr3_joint2
- fr3_joint3
- fr3_joint4
- fr3_joint5
- fr3_joint6
- fr3_joint7
- fr3_finger_joint1
- fr3_finger_joint2
position:
- 0.3764140382327652
- -0.09265926014013168
- -0.23491422152908112
- -2.2525505941077784
- -0.026697175957924806
- 2.1805625394028807
- 0.1544665121369936
- 0.0
- 0.0
velocity:
- -0.08331371571717777
- 0.023662280459575705
- 0.09506206623959539
- 0.015879270587206066
- 0.01854025263917433
- 0.050077055757857036
- 0.0011642480837333652
- 0.0
- 0.0
effort:
- -0.36529064178466797
- -25.735445022583008
- 0.8778267502784729
- 22.426923751831055
- 1.1078068017959595
- 2.4364168643951416
- 0.0859457403421402
- 0.0
- 0.0
---
header:
  stamp:
    sec: 1756281512
    nanosec: 234914152
  frame_id: ''
name:
- fr3_joint1
- fr3_joint2
- fr3_joint3
- fr3_joint4
- fr3_joint5
- fr3_joint6
- fr3_joint7
- fr3_finger_joint1
- fr3_finger_joint2
position:
- 0.37363663863490365
- -0.09191587125603798
- -0.23159693134115808
- -2.252018454193391
- -0.026006135258091027
- 2.1822894103290045
- 0.154464888617522
- 0.0
- 0.0
velocity:
- -0.08673621224125287
- 0.021604989261027555
- 0.10441965876231074
- 0.015402908752818927
- 0.018878255044198444
- 0.054359448673613066
- 0.0005361559106101812
- 0.0
- 0.0
effort:
- -0.49224376678466797
- -25.910005569458008
- 0.8262520432472229
- 22.403120040893555
- 1.0876652002334595
- 2.4629671573638916
- 0.0996786504983902
- 0.0
- 0.0
---
header:
  stamp:
    sec: 1756281512
    nanosec: 267795926
  frame_id: ''
name:
- fr3_joint1
- fr3_joint2
- fr3_joint3
- fr3_joint4
- fr3_joint5
- fr3_joint6
- fr3_joint7
- fr3_finger_joint1
- fr3_finger_joint2
position:
- 0.3704146330453183
- -0.09115603987960916
- -0.22788235256619446
- -2.251490542085011
- -0.02530572446369191
- 2.184205564116215
- 0.15445712498051703
- 0.0
- 0.0
velocity:
- -0.09659265702641283
- 0.023883982255850495
- 0.11181681719361661
- 0.01794899607938536
- 0.020710637702519647
- 0.05388039760317681
- -0.0016465548384305064
- 0.0
- 0.0
effort:
- -0.23833751678466797
- -25.886201858520508
- 1.0603218078613281
- 22.375349044799805
- 1.1078068017959595
- 2.4629671573638916
- 0.1472860723733902
- 0.0
- 0.0
---
header:
  stamp:
    sec: 1756281512
    nanosec: 301357389
  frame_id: ''
name:
- fr3_joint1
- fr3_joint2
- fr3_joint3
- fr3_joint4
- fr3_joint5
- fr3_joint6
- fr3_joint7
- fr3_finger_joint1
- fr3_finger_joint2
position:
- 0.36728545594226725
- -0.09041882909675587
- -0.22438067939028303
- -2.2509716978848533
- -0.02461126509481546
- 2.1860955702133813
- 0.15446326710871527
- 0.0
- 0.0
velocity:
- -0.09268437114784553
- 0.021560503563286672
- 0.10649456650814779
- 0.014157638280281116
- 0.01961016243925562
- 0.0593322387743013
- 0.001284762226505927
- 0.0
- 0.0
effort:
- -0.31371593475341797
- -25.910005569458008
- 0.8778267502784729
- 22.426923751831055
- 1.1471744775772095
- 2.4501497745513916
- 0.1536947637796402
- 0.0
- 0.0
---
header:
  stamp:
    sec: 1756281512
    nanosec: 334419094
  frame_id: ''
name:
- fr3_joint1
- fr3_joint2
- fr3_joint3
- fr3_joint4
- fr3_joint5
- fr3_joint6
- fr3_joint7
- fr3_finger_joint1
- fr3_finger_joint2
position:
- 0.3644246441509835
- -0.08969175983386005
- -0.22096280098446383
- -2.2504465316505478
- -0.023902138959519332
- 2.1880434211903994
- 0.1544600866139293
- 0.0
- 0.0
velocity:
- -0.08336912719325364
- 0.02280954356029785
- 0.1027964664503892
- 0.013884733909475085
- 0.019282208131210135
- 0.054617558184100266
- -0.002296348883430468
- 0.0
- 0.0
effort:
- -0.46844005584716797
- -26.040925979614258
- 0.7746773362159729
- 22.351545333862305
- 1.1334415674209595
- 2.4501497745513916
- 0.1674276739358902
- 0.0
- 0.0
---
header:
  stamp:
    sec: 1756281512
    nanosec: 367788009
  frame_id: ''
name:
- fr3_joint1
- fr3_joint2
- fr3_joint3
- fr3_joint4
- fr3_joint5
- fr3_joint6
- fr3_joint7
- fr3_finger_joint1
- fr3_finger_joint2
position:
- 0.3616217302091666
- -0.08900845541907755
- -0.21740416454901007
- -2.2499415312097697
- -0.023230480258087726
- 2.189879625335175
- 0.15446724953817015
- 0.0
- 0.0
velocity:
- -0.0749458553344202
- 0.01938437930147184
- 0.10151165041395019
- 0.014235000035707272
- 0.020174995941778264
- 0.05335386554572131
- 0.0003114794745181868
- 0.0
- 0.0
effort:
- -0.646967887878418
- -26.013154983520508
- 0.5921822190284729
- 22.323774337768555
- 1.1334415674209595
- 2.4501497745513916
- 0.1198202520608902
- 0.0
- 0.0
---
header:
  stamp:
    sec: 1756281512
    nanosec: 401488539
  frame_id: ''
name:
- fr3_joint1
- fr3_joint2
- fr3_joint3
- fr3_joint4
- fr3_joint5
- fr3_joint6
- fr3_joint7
- fr3_finger_joint1
- fr3_finger_joint2
position:
- 0.35868870242827244
- -0.08835679030141709
- -0.21375433260946572
- -2.2495050279447906
- -0.022576333811095584
- 2.191573551926289
- 0.1544680091083325
- 0.0
- 0.0
velocity:
- -0.09664518746797206
- 0.019806869446514084
- 0.11439095427378225
- 0.013269056571348374
- 0.01943604617992528
- 0.04999501987200819
- 0.0008715947682770895
- 0.0
- 0.0
effort:
- -0.750117301940918
- -25.961580276489258
- 0.4652290940284729
- 22.351545333862305
- 1.1599918603897095
- 2.4767000675201416
- 0.1134115606546402
- 0.0
- 0.0
---
header:
  stamp:
    sec: 1756281512
    nanosec: 434488778
  frame_id: ''
name:
- fr3_joint1
- fr3_joint2
- fr3_joint3
- fr3_joint4
- fr3_joint5
- fr3_joint6
- fr3_joint7
- fr3_finger_joint1
- fr3_finger_joint2
position:
- 0.35552354018081445
- -0.08767390784812133
- -0.210035895622167
- -2.249094677373642
- -0.021932995655924863
- 2.1932651901247504
- 0.154465111647857
- 0.0
- 0.0
velocity:
- -0.09613185751627028
- 0.02012260553570572
- 0.10891853844857168
- 0.013821946244470655
- 0.018953921334153086
- 0.04792235016374616
- 0.0005621375229888408
- 0.0
- 0.0
effort:
- -0.619196891784668
- -26.088533401489258
- 0.5683785080909729
- 22.403120040893555
- 1.1334415674209595
- 2.4702913761138916
- 0.1472860723733902
- 0.0
- 0.0
---
header:
  stamp:
    sec: 1756281512
    nanosec: 468551844
  frame_id: ''
name:
- fr3_joint1
- fr3_joint2
- fr3_joint3
- fr3_joint4
- fr3_joint5
- fr3_joint6
- fr3_joint7
- fr3_finger_joint1
- fr3_finger_joint2
position:
- 0.35260848535030487
- -0.08696064679742553
- -0.20666321181547484
- -2.2486530611657565
- -0.02123557989635293
- 2.1949252251587357
- 0.15446440717239737
- 0.0
- 0.0
velocity:
- -0.08067835737500839
- 0.021627810893719828
- 0.09766060498698469
- 0.013946675547417213
- 0.02298589395615774
- 0.047565719987766326
- 0.0023595696565160327
- 0.0
- 0.0
effort:
- -0.44066905975341797
- -26.191682815551758
- 0.7746773362159729
- 22.323774337768555
- 1.1407657861709595
- 2.4565584659576416
- 0.1536947637796402
- 0.0
- 0.0
---
header:
  stamp:
    sec: 1756281512
    nanosec: 501481369
  frame_id: ''
name:
- fr3_joint1
- fr3_joint2
- fr3_joint3
- fr3_joint4
- fr3_joint5
- fr3_joint6
- fr3_joint7
- fr3_finger_joint1
- fr3_finger_joint2
position:
- 0.3498594827572597
- -0.08624190535456457
- -0.20337643696886443
- -2.24820179821105
- -0.02058407300156539
- 2.19654940348166
- 0.15446057184562811
- 0.0
- 0.0
velocity:
- -0.08465350738972066
- 0.022620957418253734
- 0.09998680316893258
- 0.014662670461245031
- 0.01760161432468001
- 0.0491766571500953
- 0.001027490013310045
- 0.0
- 0.0
effort:
- -0.39306163787841797
- -26.088533401489258
- 0.7469063401222229
- 22.351545333862305
- 1.1471744775772095
- 2.4767000675201416
- 0.1811605840921402
- 0.0
- 0.0
---
header:
  stamp:
    sec: 1756281512
    nanosec: 534467192
  frame_id: ''
name:
- fr3_joint1
- fr3_joint2
- fr3_joint3
- fr3_joint4
- fr3_joint5
- fr3_joint6
- fr3_joint7
- fr3_finger_joint1
- fr3_finger_joint2
position:
- 0.3469204971624742
- -0.08549440233911348
- -0.19993363000828887
- -2.24768632367765
- -0.019974590101164924
- 2.1982374451732842
- 0.15445762099216828
- 0.0
- 0.0
velocity:
- -0.0951230712590669
- 0.0228831365199219
- 0.10595787949814763
- 0.016726096505042948
- 0.01719453296555277
- 0.05272177785718379
- -0.0012554892468761318
- 0.0
- 0.0
effort:
- -0.46844005584716797
- -26.243257522583008
- 0.6715279221534729
- 22.351545333862305
- 1.1206241846084595
- 2.4702913761138916
- 0.2150350958108902
- 0.0
- 0.0
---
header:
  stamp:
    sec: 1756281512
    nanosec: 567790678
  frame_id: ''
name:
- fr3_joint1
- fr3_joint2
- fr3_joint3
- fr3_joint4
- fr3_joint5
- fr3_joint6
- fr3_joint7
- fr3_finger_joint1
- fr3_finger_joint2
position:
- 0.3436177504612164
- -0.0847603323466483
- -0.19634849713527142
- -2.247160936460564
- -0.019288864312868383
- 2.200042230449931
- 0.15446732686208287
- 0.0
- 0.0
velocity:
- -0.09469739500296374
- 0.02141820341195651
- 0.10249985299876657
- 0.01865132312826501
- 0.020027898819499113
- 0.05389677444224719
- 0.0014267861103215316
- 0.0
- 0.0
effort:
- -0.49224376678466797
- -26.140108108520508
- 0.6199532151222229
- 22.426923751831055
- 1.1142154932022095
- 2.5032503604888916
- 0.1601034551858902
- 0.0
- 0.0
---
header:
  stamp:
    sec: 1756281512
    nanosec: 601153554
  frame_id: ''
name:
- fr3_joint1
- fr3_joint2
- fr3_joint3
- fr3_joint4
- fr3_joint5
- fr3_joint6
- fr3_joint7
- fr3_finger_joint1
- fr3_finger_joint2
position:
- 0.3405569876983597
- -0.08396258855582027
- -0.19298534438921264
- -2.2465298778537544
- -0.018632974984484272
- 2.2017594032788854
- 0.1544620937534332
- 0.0
- 0.0
velocity:
- -0.08739626849250233
- 0.023920181481061464
- 0.10047112090998742
- 0.020172113758591147
- 0.02065369322820029
- 0.05510369905256692
- -0.0008523876207754941
- 0.0
- 0.0
effort:
- -0.39306163787841797
- -26.064729690551758
- 0.7231026291847229
- 22.296003341674805
- 1.1407657861709595
- 2.4702913761138916
- 0.2077108770608902
- 0.0
- 0.0
---
header:
  stamp:
    sec: 1756281512
    nanosec: 634493080
  frame_id: ''
name:
- fr3_joint1
- fr3_joint2
- fr3_joint3
- fr3_joint4
- fr3_joint5
- fr3_joint6
- fr3_joint7
- fr3_finger_joint1
- fr3_finger_joint2
position:
- 0.337794025380882
- -0.08305367963358581
- -0.18959525572075306
- -2.2458698362269
- -0.017850301842099875
- 2.2036033711962943
- 0.15446961670504686
- 0.0
- 0.0
velocity:
- -0.08457020378839446
- 0.027737068363040546
- 0.10681415613132707
- 0.01997581393609847
- 0.02357395602956622
- 0.05611577460688164
- 0.002006747432903963
- 0.0
- 0.0
effort:
- -0.41686534881591797
- -26.243257522583008
- 0.6715279221534729
- 22.351545333862305
- 1.1206241846084595
- 2.4629671573638916
- 0.1811605840921402
- 0.0
- 0.0
---
header:
  stamp:
    sec: 1756281512
    nanosec: 668536390
  frame_id: ''
name:
- fr3_joint1
- fr3_joint2
- fr3_joint3
- fr3_joint4
- fr3_joint5
- fr3_joint6
- fr3_joint7
- fr3_finger_joint1
- fr3_finger_joint2
position:
- 0.3348763437139901
- -0.08210932369858574
- -0.18594352756092777
- -2.2452865855024475
- -0.017090180100867502
- 2.205565222659162
- 0.15446325008124204
- 0.0
- 0.0
velocity:
- -0.08701558940382975
- 0.030375314135418514
- 0.10603606517983662
- 0.014438349357780206
- 0.021192734522963396
- 0.061880373155490075
- -0.0005599435476071515
- 0.0
- 0.0
effort:
- -0.595393180847168
- -26.215486526489258
- 0.5406075119972229
- 22.216657638549805
- 1.1142154932022095
- 2.4702913761138916
- 0.2351766973733902
- 0.0
- 0.0
---
header:
  stamp:
    sec: 1756281512
    nanosec: 701126586
  frame_id: ''
name:
- fr3_joint1
- fr3_joint2
- fr3_joint3
- fr3_joint4
- fr3_joint5
- fr3_joint6
- fr3_joint7
- fr3_finger_joint1
- fr3_finger_joint2
position:
- 0.3318342201946035
- -0.0811460508694136
- -0.18230282445005883
- -2.244836865078892
- -0.016397003247394553
- 2.207622551249605
- 0.15446599651740472
- 0.0
- 0.0
velocity:
- -0.08923872526037435
- 0.02947012901480645
- 0.1075589936781046
- 0.01555095119301728
- 0.020827847296864845
- 0.05946392214807971
- 0.0003375005835292563
- 0.0
- 0.0
effort:
- -0.722346305847168
- -26.445589065551758
- 0.2549629807472229
- 22.272199630737305
- 1.1270328760147095
- 2.4629671573638916
- 0.2489096075296402
- 0.0
- 0.0
---
header:
  stamp:
    sec: 1756281512
    nanosec: 734440390
  frame_id: ''
name:
- fr3_joint1
- fr3_joint2
- fr3_joint3
- fr3_joint4
- fr3_joint5
- fr3_joint6
- fr3_joint7
- fr3_finger_joint1
- fr3_finger_joint2
position:
- 0.32881867388535146
- -0.08011088581988597
- -0.17870664468076647
- -2.2443745353416453
- -0.015648965306327464
- 2.2095692400349023
- 0.15446793394516273
- 0.0
- 0.0
velocity:
- -0.08944469170817507
- 0.031157394861049865
- 0.1065432637250737
- 0.013664826486827812
- 0.022194015152169178
- 0.05366229360641589
- -0.0005168567797955631
- 0.0
- 0.0
effort:
- -0.670771598815918
- -26.548738479614258
- 0.3858833909034729
- 22.403120040893555
- 1.1013981103897095
- 2.5032503604888916
- 0.2077108770608902
- 0.0
- 0.0
---
header:
  stamp:
    sec: 1756281512
    nanosec: 767804493
  frame_id: ''
name:
- fr3_joint1
- fr3_joint2
- fr3_joint3
- fr3_joint4
- fr3_joint5
- fr3_joint6
- fr3_joint7
- fr3_finger_joint1
- fr3_finger_joint2
position:
- 0.3258820432519683
- -0.07910291366885587
- -0.17525367762328892
- -2.243927050328842
- -0.01488159984596801
- 2.211418525704832
- 0.15446213477500764
- 0.0
- 0.0
velocity:
- -0.08996604807666336
- 0.027456498026805894
- 0.10397398825676418
- 0.012648178025000774
- 0.02367587802727734
- 0.05159962857213746
- -0.0012687292944163985
- 0.0
- 0.0
effort:
- -0.16295909881591797
- -26.751070022583008
- 0.8778267502784729
- 22.454694747924805
- 1.1078068017959595
- 2.4968416690826416
- 0.289192795753479
- 0.0
- 0.0
---
header:
  stamp:
    sec: 1756281512
    nanosec: 801598686
  frame_id: ''
name:
- fr3_joint1
- fr3_joint2
- fr3_joint3
- fr3_joint4
- fr3_joint5
- fr3_joint6
- fr3_joint7
- fr3_finger_joint1
- fr3_finger_joint2
position:
- 0.32304014608963677
- -0.07819585665381872
- -0.1719903373909599
- -2.2435039829139907
- -0.014105227572882378
- 2.213127720603608
- 0.15446568827137758
- 0.0
- 0.0
velocity:
- -0.08263915120649977
- 0.027225425746260398
- 0.0991007481557707
- 0.014215484232565379
- 0.02560332752533049
- 0.050710992752835096
- -0.0012346451991522242
- 0.0
- 0.0
effort:
- -0.08361339569091797
- -26.751070022583008
- 0.9571724534034729
- 22.403120040893555
- 1.1142154932022095
- 2.5032503604888916
- 0.295601487159729
- 0.0
- 0.0
---
header:
  stamp:
    sec: 1756281512
    nanosec: 834461385
  frame_id: ''
name:
- fr3_joint1
- fr3_joint2
- fr3_joint3
- fr3_joint4
- fr3_joint5
- fr3_joint6
- fr3_joint7
- fr3_finger_joint1
- fr3_finger_joint2
position:
- 0.32003626441134525
- -0.07733456112181764
- -0.16857399788329983
- -2.243042137281762
- -0.013361457715381157
- 2.214747295816104
- 0.15447263180988188
- 0.0
- 0.0
velocity:
- -0.09529158554378059
- 0.026803211686616715
- 0.10734602410650801
- 0.014230640682435198
- 0.02100805254987036
- 0.0498971977384661
- -0.001970551910326348
- 0.0
- 0.0
effort:
- -0.41686534881591797
- -26.854219436645508
- 0.5921822190284729
- 22.557844161987305
- 1.1206241846084595
- 2.5096590518951416
- 0.2489096075296402
- 0.0
- 0.0
---
header:
  stamp:
    sec: 1756281512
    nanosec: 868427306
  frame_id: ''
name:
- fr3_joint1
- fr3_joint2
- fr3_joint3
- fr3_joint4
- fr3_joint5
- fr3_joint6
- fr3_joint7
- fr3_finger_joint1
- fr3_finger_joint2
position:
- 0.31692414412751196
- -0.07653058874044788
- -0.16497956196793084
- -2.2424938048989334
- -0.012595913823930922
- 2.2164055587763944
- 0.1544808235361278
- 0.0
- 0.0
velocity:
- -0.0876596737319571
- 0.023839541696089987
- 0.10389914198523854
- 0.016990982909796174
- 0.023817748288695116
- 0.049134275597077386
- 0.0010756311984414881
- 0.0
- 0.0
effort:
- -0.595393180847168
- -26.953401565551758
- 0.3620796799659729
- 22.557844161987305
- 1.1013981103897095
- 2.5160677433013916
- 0.2351766973733902
- 0.0
- 0.0
---
header:
  stamp:
    sec: 1756281512
    nanosec: 901474205
  frame_id: ''
name:
- fr3_joint1
- fr3_joint2
- fr3_joint3
- fr3_joint4
- fr3_joint5
- fr3_joint6
- fr3_joint7
- fr3_finger_joint1
- fr3_finger_joint2
position:
- 0.31403560669193986
- -0.07583025978731114
- -0.16148945983420537
- -2.241881635033578
- -0.011856147798545328
- 2.2180350016176456
- 0.15448155141622347
- 0.0
- 0.0
velocity:
- -0.08810348067044166
- 0.020952217554669562
- 0.10619785910843961
- 0.019448128540893714
- 0.022550856056057434
- 0.04973337482088943
- -0.00029697755490390237
- 0.0
- 0.0
effort:
- -0.31371593475341797
- -26.929597854614258
- 0.6437569260597229
- 22.482465744018555
- 1.1078068017959595
- 2.5160677433013916
- 0.2415853887796402
- 0.0
- 0.0
---
header:
  stamp:
    sec: 1756281512
    nanosec: 934511194
  frame_id: ''
name:
- fr3_joint1
- fr3_joint2
- fr3_joint3
- fr3_joint4
- fr3_joint5
- fr3_joint6
- fr3_joint7
- fr3_finger_joint1
- fr3_finger_joint2
position:
- 0.31115871042109916
- -0.07515595881314016
- -0.15789846061685886
- -2.2412019137676515
- -0.011115095370514042
- 2.219828600960143
- 0.1544904522444871
- 0.0
- 0.0
velocity:
- -0.08754467505210131
- 0.019963757608105457
- 0.10930825253599022
- 0.021031780716407437
- 0.0193915937861783
- 0.0537651655899999
- 0.0001797565027084286
- 0.0
- 0.0
effort:
- -0.39306163787841797
- -26.774873733520508
- 0.5406075119972229
- 22.323774337768555
- 1.1142154932022095
- 2.4968416690826416
- 0.2077108770608902
- 0.0
- 0.0
---
header:
  stamp:
    sec: 1756281512
    nanosec: 968488042
  frame_id: ''
name:
- fr3_joint1
- fr3_joint2
- fr3_joint3
- fr3_joint4
- fr3_joint5
- fr3_joint6
- fr3_joint7
- fr3_finger_joint1
- fr3_finger_joint2
position:
- 0.30832924682923835
- -0.07451402674878842
- -0.154377537203868
- -2.240527564803498
- -0.01041825736055296
- 2.221626364604374
- 0.1544912517042545
- 0.0
- 0.0
velocity:
- -0.0888269808725013
- 0.017766324846203246
- 0.11118801287314653
- 0.018716678653624856
- 0.021212702001738498
- 0.05476929586425587
- 0.0003930620597971607
- 0.0
- 0.0
effort:
- -0.595393180847168
- -26.878023147583008
- 0.3343086838722229
- 22.454694747924805
- 1.0684391260147095
- 2.5298006534576416
- 0.2415853887796402
- 0.0
- 0.0
---
header:
  stamp:
    sec: 1756281513
    nanosec: 1477206
  frame_id: ''
name:
- fr3_joint1
- fr3_joint2
- fr3_joint3
- fr3_joint4
- fr3_joint5
- fr3_joint6
- fr3_joint7
- fr3_finger_joint1
- fr3_finger_joint2
position:
- 0.3052977121445578
- -0.07390521253572728
- -0.15073858334834478
- -2.2398938161468798
- -0.009773598798515935
- 2.2233599946595506
- 0.15449680700773039
- 0.0
- 0.0
velocity:
- -0.09131217396715909
- 0.018754207331042928
- 0.10933285047986602
- 0.019700349263801927
- 0.021300753812148264
- 0.053796632269354085
- -0.00023083429131146873
- 0.0
- 0.0
effort:
- -0.825495719909668
- -26.802644729614258
- 0.1795845627784729
- 22.272199630737305
- 1.0949894189834595
- 2.4767000675201416
- 0.2351766973733902
- 0.0
- 0.0
---
header:
  stamp:
    sec: 1756281513
    nanosec: 34647396
  frame_id: ''
name:
- fr3_joint1
- fr3_joint2
- fr3_joint3
- fr3_joint4
- fr3_joint5
- fr3_joint6
- fr3_joint7
- fr3_finger_joint1
- fr3_finger_joint2
position:
- 0.3019926429102829
- -0.07322012919304592
- -0.1470233511451666
- -2.2392454515837463
- -0.009062108977382419
- 2.2252131845769147
- 0.1545039718543354
- 0.0
- 0.0
velocity:
- -0.09541287223573688
- 0.020858108688505655
- 0.10099785963357587
- 0.01704069126375965
- 0.021208024599505625
- 0.05732358026945279
- 0.0011393113105074917
- 0.0
- 0.0
effort:
- -0.543818473815918
- -26.774873733520508
- 0.4374580979347229
- 22.426923751831055
- 1.0876652002334595
- 2.4968416690826416
- 0.2150350958108902
- 0.0
- 0.0
---
header:
  stamp:
    sec: 1756281513
    nanosec: 68316549
  frame_id: ''
name:
- fr3_joint1
- fr3_joint2
- fr3_joint3
- fr3_joint4
- fr3_joint5
- fr3_joint6
- fr3_joint7
- fr3_finger_joint1
- fr3_finger_joint2
position:
- 0.299124279619205
- -0.07256097574709398
- -0.14386534346885854
- -2.2386513460821815
- -0.008401629076169329
- 2.2271209879469853
- 0.15450478657919614
- 0.0
- 0.0
velocity:
- -0.08580566389691477
- 0.019289524447523257
- 0.09521822093064915
- 0.01847974453404296
- 0.02166063032651679
- 0.05562792379833912
- -0.0017970080217587692
- 0.0
- 0.0
effort:
- -0.46844005584716797
- -26.953401565551758
- 0.5406075119972229
- 22.351545333862305
- 1.1078068017959595
- 2.4831087589263916
- 0.289192795753479
- 0.0
- 0.0
---
header:
  stamp:
    sec: 1756281513
    nanosec: 101181465
  frame_id: ''
name:
- fr3_joint1
- fr3_joint2
- fr3_joint3
- fr3_joint4
- fr3_joint5
- fr3_joint6
- fr3_joint7
- fr3_finger_joint1
- fr3_finger_joint2
position:
- 0.2963730948889183
- -0.07191762364360636
- -0.14073791898399943
- -2.2380924462934906
- -0.007712825929700059
- 2.228862963299835
- 0.15451753787931205
- 0.0
- 0.0
velocity:
- -0.08323020113038235
- 0.020205489775325478
- 0.0962550345759996
- 0.01660177606425183
- 0.02090923460109301
- 0.05401307407251668
- -0.00041864859372929406
- 0.0
- 0.0
effort:
- -0.18676280975341797
- -26.854219436645508
- 0.7469063401222229
- 22.375349044799805
- 1.0949894189834595
- 2.5160677433013916
- 0.302925705909729
- 0.0
- 0.0
---
header:
  stamp:
    sec: 1756281513
    nanosec: 134439193
  frame_id: ''
name:
- fr3_joint1
- fr3_joint2
- fr3_joint3
- fr3_joint4
- fr3_joint5
- fr3_joint6
- fr3_joint7
- fr3_finger_joint1
- fr3_finger_joint2
position:
- 0.29337444141155633
- -0.07122748727165777
- -0.13724909042142416
- -2.237515131618857
- -0.007015652122765031
- 2.230600346448382
- 0.15453512848159534
- 0.0
- 0.0
velocity:
- -0.09554204247856848
- 0.02047767041302941
- 0.11134654045276215
- 0.017382720796816405
- 0.020869016131449737
- 0.052578027380394896
- 0.002279125412452282
- 0.0
- 0.0
effort:
- -0.520014762878418
- -26.826448440551758
- 0.4136543869972229
- 22.296003341674805
- 1.0949894189834595
- 2.5096590518951416
- 0.2351766973733902
- 0.0
- 0.0
---
header:
  stamp:
    sec: 1756281513
    nanosec: 167787570
  frame_id: ''
name:
- fr3_joint1
- fr3_joint2
- fr3_joint3
- fr3_joint4
- fr3_joint5
- fr3_joint6
- fr3_joint7
- fr3_finger_joint1
- fr3_finger_joint2
position:
- 0.2901035546329503
- -0.07045337340921513
- -0.133489449416264
- -2.2369672659532505
- -0.006291458083251947
- 2.232400566716616
- 0.15454789425991025
- 0.0
- 0.0
velocity:
- -0.09667718532285674
- 0.024319658283204877
- 0.10968163578246579
- 0.015954589600238243
- 0.024382371169285953
- 0.052738403553519934
- -8.885488318870389e-05
- 0.0
- 0.0
effort:
- -0.543818473815918
- -26.901826858520508
- 0.3858833909034729
- 22.244428634643555
- 1.0949894189834595
- 2.4831087589263916
- 0.289192795753479
- 0.0
- 0.0
---
header:
  stamp:
    sec: 1756281513
    nanosec: 201151257
  frame_id: ''
name:
- fr3_joint1
- fr3_joint2
- fr3_joint3
- fr3_joint4
- fr3_joint5
- fr3_joint6
- fr3_joint7
- fr3_finger_joint1
- fr3_finger_joint2
position:
- 0.2872415777009816
- -0.06967916724040965
- -0.13005548762638983
- -2.2365323611487526
- -0.005532338504227347
- 2.234038559157087
- 0.15479542404885505
- 0.0
- 0.0
velocity:
- -0.07992300465919125
- 0.025129401428815548
- 0.09875323122801198
- 0.012653477182258045
- 0.021179581891751207
- 0.046698936526272
- 0.015691603231216475
- 0.0
- 0.0
effort:
- -0.543818473815918
- -26.878023147583008
- 0.4136543869972229
- 22.296003341674805
- 1.1013981103897095
- 2.5032503604888916
- 0.356941819190979
- 0.0
- 0.0
---
header:
  stamp:
    sec: 1756281513
    nanosec: 234439941
  frame_id: ''
name:
- fr3_joint1
- fr3_joint2
- fr3_joint3
- fr3_joint4
- fr3_joint5
- fr3_joint6
- fr3_joint7
- fr3_finger_joint1
- fr3_finger_joint2
position:
- 0.28448642975046246
- -0.06882254635665777
- -0.12655610116854088
- -2.236107705137042
- -0.004820374677828889
- 2.2355998547820146
- 0.1549651913159829
- 0.0
- 0.0
velocity:
- -0.08447927957005735
- 0.02835280638089781
- 0.10831521037076988
- 0.016520780418340555
- 0.020878164489769657
- 0.04476100967162255
- 0.004332847359434968
- 0.0
- 0.0
effort:
- -0.46844005584716797
- -26.929597854614258
- 0.4374580979347229
- 22.323774337768555
- 1.0684391260147095
- 2.5160677433013916
- 0.282784104347229
- 0.0
- 0.0
---
header:
  stamp:
    sec: 1756281513
    nanosec: 267789261
  frame_id: ''
name:
- fr3_joint1
- fr3_joint2
- fr3_joint3
- fr3_joint4
- fr3_joint5
- fr3_joint6
- fr3_joint7
- fr3_finger_joint1
- fr3_finger_joint2
position:
- 0.28155420280307236
- -0.06783420838340334
- -0.12288698428622846
- -2.235650317297994
- -0.004120863935611956
- 2.2372070528541648
- 0.15506873193105006
- 0.0
- 0.0
velocity:
- -0.09500079632951165
- 0.029287465096943965
- 0.11544192805480984
- 0.012556974929493064
- 0.019583972847906576
- 0.04920186691635685
- 0.005775676635498924
- 0.0
- 0.0
effort:
- -0.520014762878418
- -27.235078811645508
- 0.4890328049659729
- 22.375349044799805
- 1.0812565088272095
- 2.5160677433013916
- 0.275459885597229
- 0.0
- 0.0
---
header:
  stamp:
    sec: 1756281513
    nanosec: 301405727
  frame_id: ''
name:
- fr3_joint1
- fr3_joint2
- fr3_joint3
- fr3_joint4
- fr3_joint5
- fr3_joint6
- fr3_joint7
- fr3_finger_joint1
- fr3_finger_joint2
position:
- 0.27842475086282437
- -0.06687556052366675
- -0.11928781580044549
- -2.235211281250395
- -0.003476717691441459
- 2.2389201639143295
- 0.15520299759494935
- 0.0
- 0.0
velocity:
- -0.0931070046484882
- 0.029626505830133702
- 0.10700666680212495
- 0.013084181708118132
- 0.02077322242847685
- 0.05376348888304545
- 0.0028744384254270443
- 0.0
- 0.0
effort:
- -0.41686534881591797
- -27.437410354614258
- 0.4652290940284729
- 22.534040451049805
- 1.1078068017959595
- 2.5233919620513916
- 0.336800217628479
- 0.0
- 0.0
---
header:
  stamp:
    sec: 1756281513
    nanosec: 334434083
  frame_id: ''
name:
- fr3_joint1
- fr3_joint2
- fr3_joint3
- fr3_joint4
- fr3_joint5
- fr3_joint6
- fr3_joint7
- fr3_finger_joint1
- fr3_finger_joint2
position:
- 0.27533402715628463
- -0.06595959502238934
- -0.11579424820060684
- -2.2347353048293424
- -0.0027623924339719498
- 2.2406970080706157
- 0.155341321374933
- 0.0
- 0.0
velocity:
- -0.08840748975049353
- 0.02694113089453929
- 0.10461606831265265
- 0.015554921881024319
- 0.02019081369691584
- 0.050895773562100656
- 0.005465466494818082
- 0.0
- 0.0
effort:
- -0.520014762878418
- -27.564363479614258
- 0.3343086838722229
- 22.557844161987305
- 1.0949894189834595
- 2.5362093448638916
- 0.2489096075296402
- 0.0
- 0.0
---
header:
  stamp:
    sec: 1756281513
    nanosec: 368344873
  frame_id: ''
name:
- fr3_joint1
- fr3_joint2
- fr3_joint3
- fr3_joint4
- fr3_joint5
- fr3_joint6
- fr3_joint7
- fr3_finger_joint1
- fr3_finger_joint2
position:
- 0.2725299928301563
- -0.06511220737457223
- -0.11245449351470371
- -2.2342033586618584
- -0.0020652108492514743
- 2.2425475040561977
- 0.15546930566554734
- 0.0
- 0.0
velocity:
- -0.08270218776016411
- 0.026000494081480818
- 0.0979456807557522
- 0.017703599392819982
- 0.01905522995853671
- 0.05325565214808557
- 0.003392263986483176
- 0.0
- 0.0
effort:
- -0.543818473815918
- -27.488985061645508
- 0.3620796799659729
- 22.506269454956055
- 1.1013981103897095
- 2.5627596378326416
- 0.343208909034729
- 0.0
- 0.0
---
header:
  stamp:
    sec: 1756281513
    nanosec: 401361089
  frame_id: ''
name:
- fr3_joint1
- fr3_joint2
- fr3_joint3
- fr3_joint4
- fr3_joint5
- fr3_joint6
- fr3_joint7
- fr3_finger_joint1
- fr3_finger_joint2
position:
- 0.26986450504140896
- -0.06434598717897286
- -0.1091850742710862
- -2.233582565018118
- -0.0013578704217361223
- 2.2444132258370346
- 0.15560039693559416
- 0.0
- 0.0
velocity:
- -0.08165492422527212
- 0.02263121120235124
- 0.09967870248378666
- 0.021367996349689
- 0.020654553121145152
- 0.06127680065810798
- 0.004627243511443637
- 0.0
- 0.0
effort:
- -0.28991222381591797
- -27.488985061645508
- 0.6437569260597229
- 22.534040451049805
- 1.0684391260147095
- 2.5435335636138916
- 0.336800217628479
- 0.0
- 0.0
---
header:
  stamp:
    sec: 1756281513
    nanosec: 434599952
  frame_id: ''
name:
- fr3_joint1
- fr3_joint2
- fr3_joint3
- fr3_joint4
- fr3_joint5
- fr3_joint6
- fr3_joint7
- fr3_finger_joint1
- fr3_finger_joint2
position:
- 0.2665986036149255
- -0.06358637802204513
- -0.10541105008747306
- -2.2328523619272236
- -0.0006747294152018305
- 2.2465685308210843
- 0.15574865879534833
- 0.0
- 0.0
velocity:
- -0.0959930195179104
- 0.019223586001055167
- 0.10725405012670942
- 0.022404835577863026
- 0.019331920115626094
- 0.061706510786642896
- 0.0033049001852477524
- 0.0
- 0.0
effort:
- -0.520014762878418
- -27.592134475708008
- 0.3620796799659729
- 22.482465744018555
- 1.0684391260147095
- 2.5563509464263916
- 0.289192795753479
- 0.0
- 0.0
---
header:
  stamp:
    sec: 1756281513
    nanosec: 467797106
  frame_id: ''
name:
- fr3_joint1
- fr3_joint2
- fr3_joint3
- fr3_joint4
- fr3_joint5
- fr3_joint6
- fr3_joint7
- fr3_finger_joint1
- fr3_finger_joint2
position:
- 0.2635985802770359
- -0.06296910444201777
- -0.10199023428765172
- -2.2321944226999717
- -2.2402585405729256e-05
- 2.2485372025300223
- 0.1559141969896453
- 0.0
- 0.0
velocity:
- -0.09072668822181446
- 0.017528979274648585
- 0.10716951527170797
- 0.019408777293888416
- 0.02168625723239094
- 0.057129715589845684
- 0.0012169802488070816
- 0.0
- 0.0
effort:
- -0.670771598815918
- -27.488985061645508
- 0.3105049729347229
- 22.351545333862305
- 1.0949894189834595
- 2.5362093448638916
- 0.350533127784729
- 0.0
- 0.0
---
header:
  stamp:
    sec: 1756281513
    nanosec: 501105887
  frame_id: ''
name:
- fr3_joint1
- fr3_joint2
- fr3_joint3
- fr3_joint4
- fr3_joint5
- fr3_joint6
- fr3_joint7
- fr3_finger_joint1
- fr3_finger_joint2
position:
- 0.26078233430163217
- -0.062407486733158594
- -0.09858383476003041
- -2.231626887954223
- 0.0006512199418286697
- 2.2504104018036197
- 0.1560904760776767
- 0.0
- 0.0
velocity:
- -0.0835311617831988
- 0.018175980727780646
- 0.10346759678260962
- 0.017415317519172465
- 0.019894634999983164
- 0.057571432336914204
- 0.006417479055518262
- 0.0
- 0.0
effort:
- -0.646967887878418
- -27.413606643676758
- 0.2033882737159729
- 22.454694747924805
- 1.0684391260147095
- 2.5499422550201416
- 0.289192795753479
- 0.0
- 0.0
---
header:
  stamp:
    sec: 1756281513
    nanosec: 534730434
  frame_id: ''
name:
- fr3_joint1
- fr3_joint2
- fr3_joint3
- fr3_joint4
- fr3_joint5
- fr3_joint6
- fr3_joint7
- fr3_finger_joint1
- fr3_finger_joint2
position:
- 0.25774502056446263
- -0.06178167556969568
- -0.09491212866170089
- -2.2309778960579023
- 0.0013691431886954004
- 2.252278061655981
- 0.15631499813589544
- 0.0
- 0.0
velocity:
- -0.08623369157305431
- 0.018432835590802606
- 0.10277377441729146
- 0.019045453355624686
- 0.021767098930932285
- 0.05087285592433753
- 0.007716570546308274
- 0.0
- 0.0
effort:
- -0.49224376678466797
- -27.465181350708008
- 0.3620796799659729
- 22.403120040893555
- 1.0620304346084595
- 2.5362093448638916
- 0.309334397315979
- 0.0
- 0.0
---
header:
  stamp:
    sec: 1756281513
    nanosec: 568421805
  frame_id: ''
name:
- fr3_joint1
- fr3_joint2
- fr3_joint3
- fr3_joint4
- fr3_joint5
- fr3_joint6
- fr3_joint7
- fr3_finger_joint1
- fr3_finger_joint2
position:
- 0.2547271371915543
- -0.06117406377412381
- -0.0914549602713253
- -2.230386620354399
- 0.0020198279212401402
- 2.2538732846375003
- 0.1564918915299547
- 0.0
- 0.0
velocity:
- -0.09633108217661426
- 0.0179160418812757
- 0.1090087469763614
- 0.017173500457991202
- 0.02014140547400563
- 0.049133457239829745
- 0.004685652227117811
- 0.0
- 0.0
effort:
- -0.750117301940918
- -27.362031936645508
- 0.0764351487159729
- 22.351545333862305
- 1.0949894189834595
- 2.5362093448638916
- 0.343208909034729
- 0.0
- 0.0
---
header:
  stamp:
    sec: 1756281513
    nanosec: 601440923
  frame_id: ''
name:
- fr3_joint1
- fr3_joint2
- fr3_joint3
- fr3_joint4
- fr3_joint5
- fr3_joint6
- fr3_joint7
- fr3_finger_joint1
- fr3_finger_joint2
position:
- 0.25166992324000315
- -0.06051825687476222
- -0.08797153018488361
- -2.2298278478688762
- 0.002678375155768746
- 2.255449196086408
- 0.15672842173496412
- 0.0
- 0.0
velocity:
- -0.09335436321795608
- 0.02095255475517255
- 0.10771229581291653
- 0.017039025887095226
- 0.019358566704592108
- 0.04966934026648182
- 0.006553266839328174
- 0.0
- 0.0
effort:
- -0.773921012878418
- -27.385835647583008
- 0.0248604416847229
- 22.296003341674805
- 1.1142154932022095
- 2.5563509464263916
- 0.282784104347229
- 0.0
- 0.0
---
header:
  stamp:
    sec: 1756281513
    nanosec: 634468012
  frame_id: ''
name:
- fr3_joint1
- fr3_joint2
- fr3_joint3
- fr3_joint4
- fr3_joint5
- fr3_joint6
- fr3_joint7
- fr3_finger_joint1
- fr3_finger_joint2
position:
- 0.24868105931734466
- -0.0597766292866358
- -0.08450350179605956
- -2.229271576376065
- 0.0033953548937047063
- 2.2571210820530925
- 0.15697673064618922
- 0.0
- 0.0
velocity:
- -0.08671935376944706
- 0.022485380808131814
- 0.1012422036966429
- 0.01711438632914698
- 0.02258354140800179
- 0.04981788294580055
- 0.00945182227107252
- 0.0
- 0.0
effort:
- -0.28991222381591797
- -27.488985061645508
- 0.4890328049659729
- 22.375349044799805
- 1.0949894189834595
- 2.5563509464263916
- 0.261726975440979
- 0.0
- 0.0
---
header:
  stamp:
    sec: 1756281513
    nanosec: 668498415
  frame_id: ''
name:
- fr3_joint1
- fr3_joint2
- fr3_joint3
- fr3_joint4
- fr3_joint5
- fr3_joint6
- fr3_joint7
- fr3_finger_joint1
- fr3_finger_joint2
position:
- 0.24577571603084086
- -0.05900059714941309
- -0.08105652973777148
- -2.2287034609258627
- 0.0041189745897322536
- 2.2588351906947124
- 0.15726591626486314
- 0.0
- 0.0
velocity:
- -0.08493758335925593
- 0.02190322021025886
- 0.10265561103248774
- 0.01726015926411056
- 0.021957156008199325
- 0.05201265432078919
- 0.008706750514976042
- 0.0
- 0.0
effort:
- -0.39306163787841797
- -27.540559768676758
- 0.4136543869972229
- 22.403120040893555
- 1.1078068017959595
- 2.5764925479888916
- 0.261726975440979
- 0.0
- 0.0
---
header:
  stamp:
    sec: 1756281513
    nanosec: 701440120
  frame_id: ''
name:
- fr3_joint1
- fr3_joint2
- fr3_joint3
- fr3_joint4
- fr3_joint5
- fr3_joint6
- fr3_joint7
- fr3_finger_joint1
- fr3_finger_joint2
position:
- 0.24303322666837293
- -0.05821855531154887
- -0.07778356334330502
- -2.228122023496485
- 0.004791196402438975
- 2.260484772134965
- 0.15754146213501152
- 0.0
- 0.0
velocity:
- -0.08658612775305224
- 0.023844285225814263
- 0.1002524388866469
- 0.017951741218270662
- 0.02275084770014001
- 0.052992843750847625
- 0.0093484822037925
- 0.0
- 0.0
effort:
- -0.595393180847168
- -27.512788772583008
- 0.3105049729347229
- 22.296003341674805
- 1.0812565088272095
- 2.5764925479888916
- 0.336800217628479
- 0.0
- 0.0
---
header:
  stamp:
    sec: 1756281513
    nanosec: 734452567
  frame_id: ''
name:
- fr3_joint1
- fr3_joint2
- fr3_joint3
- fr3_joint4
- fr3_joint5
- fr3_joint6
- fr3_joint7
- fr3_finger_joint1
- fr3_finger_joint2
position:
- 0.23994937721647758
- -0.05736057153070709
- -0.07419437761596234
- -2.2275262817338763
- 0.005530971929848638
- 2.2623959811182432
- 0.1578411422184631
- 0.0
- 0.0
velocity:
- -0.09459673714450532
- 0.02605456455149566
- 0.1080973700893404
- 0.01776778440747083
- 0.02390145337509231
- 0.05743985000606006
- 0.00941914088335146
- 0.0
- 0.0
effort:
- -0.595393180847168
- -27.437410354614258
- 0.2311592698097229
- 22.272199630737305
- 1.1013981103897095
- 2.5627596378326416
- 0.2489096075296402
- 0.0
- 0.0
---
header:
  stamp:
    sec: 1756281513
    nanosec: 768476836
  frame_id: ''
name:
- fr3_joint1
- fr3_joint2
- fr3_joint3
- fr3_joint4
- fr3_joint5
- fr3_joint6
- fr3_joint7
- fr3_finger_joint1
- fr3_finger_joint2
position:
- 0.23674531740676424
- -0.05642418266404747
- -0.07050217975078593
- -2.2269319048039034
- 0.00624020184535766
- 2.2643389158769485
- 0.15804992496328726
- 0.0
- 0.0
velocity:
- -0.10044444586379596
- 0.028847383328879327
- 0.11372635439595456
- 0.017258637439540113
- 0.020883724119906282
- 0.06079380832189239
- 0.007463746817312961
- 0.0
- 0.0
effort:
- -0.34148693084716797
- -27.540559768676758
- 0.4890328049659729
- 22.403120040893555
- 1.1142154932022095
- 2.5700838565826416
- 0.2214437872171402
- 0.0
- 0.0
---
header:
  stamp:
    sec: 1756281513
    nanosec: 801462050
  frame_id: ''
name:
- fr3_joint1
- fr3_joint2
- fr3_joint3
- fr3_joint4
- fr3_joint5
- fr3_joint6
- fr3_joint7
- fr3_finger_joint1
- fr3_finger_joint2
position:
- 0.23386931769020058
- -0.055452790942875016
- -0.06712321761827143
- -2.2263641927469213
- 0.0069813185979339856
- 2.2663263281155506
- 0.15826305855976444
- 0.0
- 0.0
velocity:
- -0.0866774607687494
- 0.032320845960947274
- 0.10550699255893337
- 0.01878719975845339
- 0.024713394176711957
- 0.05593094668100358
- 0.006729936057861045
- 0.0
- 0.0
effort:
- -0.26214122772216797
- -27.592134475708008
- 0.5921822190284729
- 22.296003341674805
- 1.0812565088272095
- 2.5499422550201416
- 0.2351766973733902
- 0.0
- 0.0
---
header:
  stamp:
    sec: 1756281513
    nanosec: 834460876
  frame_id: ''
name:
- fr3_joint1
- fr3_joint2
- fr3_joint3
- fr3_joint4
- fr3_joint5
- fr3_joint6
- fr3_joint7
- fr3_finger_joint1
- fr3_finger_joint2
position:
- 0.23102535728343151
- -0.05443139414050675
- -0.0636808532339142
- -2.2257764041591503
- 0.007702860411026232
- 2.268102705362641
- 0.15851647548677572
- 0.0
- 0.0
velocity:
- -0.08206214749500602
- 0.03130434243258061
- 0.10329139265321557
- 0.01591239115877651
- 0.023447862486545946
- 0.052513625532092635
- 0.0065863852230879615
- 0.0
- 0.0
effort:
- -0.44066905975341797
- -27.818269729614258
- 0.3858833909034729
- 22.272199630737305
- 1.0684391260147095
- 2.5435335636138916
- 0.295601487159729
- 0.0
- 0.0
---
header:
  stamp:
    sec: 1756281513
    nanosec: 867790631
  frame_id: ''
name:
- fr3_joint1
- fr3_joint2
- fr3_joint3
- fr3_joint4
- fr3_joint5
- fr3_joint6
- fr3_joint7
- fr3_finger_joint1
- fr3_finger_joint2
position:
- 0.2279931646863883
- -0.05344443657126182
- -0.06000756676657949
- -2.225270088159921
- 0.008443596972351877
- 2.269879167020626
- 0.158796602046793
- 0.0
- 0.0
velocity:
- -0.09013741459416863
- 0.02877013005756472
- 0.10800263601984592
- 0.014553948966753116
- 0.020664396672915617
- 0.04961221020183498
- 0.012844387462225815
- 0.0
- 0.0
effort:
- -0.976252555847168
- -27.869844436645508
- -0.1814383864402771
- 22.403120040893555
- 1.0748478174209595
- 2.5829012393951416
- 0.261726975440979
- 0.0
- 0.0
---
header:
  stamp:
    sec: 1756281513
    nanosec: 901169011
  frame_id: ''
name:
- fr3_joint1
- fr3_joint2
- fr3_joint3
- fr3_joint4
- fr3_joint5
- fr3_joint6
- fr3_joint7
- fr3_finger_joint1
- fr3_finger_joint2
position:
- 0.2250281810875573
- -0.0525319479683293
- -0.05642085721163332
- -2.224761601050205
- 0.009148258507030896
- 2.2715150643034354
- 0.1590548713530365
- 0.0
- 0.0
velocity:
- -0.09295017642173017
- 0.026442924034224356
- 0.10842004437960275
- 0.015948965796777015
- 0.019393582222988103
- 0.04930554460168658
- 0.0093418506344817
- 0.0
- 0.0
effort:
- -0.797724723815918
- -28.024568557739258
- -0.0029105544090270996
- 22.403120040893555
- 1.0876652002334595
- 2.5829012393951416
- 0.2278524786233902
- 0.0
- 0.0
---
header:
  stamp:
    sec: 1756281513
    nanosec: 934716353
  frame_id: ''
name:
- fr3_joint1
- fr3_joint2
- fr3_joint3
- fr3_joint4
- fr3_joint5
- fr3_joint6
- fr3_joint7
- fr3_finger_joint1
- fr3_finger_joint2
position:
- 0.22192180974517559
- -0.0516250822129749
- -0.05277327583237173
- -2.2242090157263816
- 0.009900999580840139
- 2.2731969347699317
- 0.15936065818915185
- 0.0
- 0.0
velocity:
- -0.08492525998155036
- 0.02464187683208216
- 0.09900926757917013
- 0.014785446007312228
- 0.02292872498801029
- 0.04785494943610948
- 0.010045940078716118
- 0.0
- 0.0
effort:
- -0.28991222381591797
- -28.048372268676758
- 0.4374580979347229
- 22.454694747924805
- 1.0812565088272095
- 2.6030428409576416
- 0.261726975440979
- 0.0
- 0.0
---
header:
  stamp:
    sec: 1756281513
    nanosec: 968396385
  frame_id: ''
name:
- fr3_joint1
- fr3_joint2
- fr3_joint3
- fr3_joint4
- fr3_joint5
- fr3_joint6
- fr3_joint7
- fr3_finger_joint1
- fr3_finger_joint2
position:
- 0.21918706157959114
- -0.05083708471583914
- -0.04955207832351695
- -2.223720675023349
- 0.010605796100860071
- 2.274819250437642
- 0.15965745850114624
- 0.0
- 0.0
velocity:
- -0.08500797890535304
- 0.02094202160333915
- 0.10226473407134198
- 0.01462709515612992
- 0.01854137232006701
- 0.05132645689243735
- 0.008265139246987602
- 0.0
- 0.0
effort:
- -0.41686534881591797
- -28.024568557739258
- 0.3105049729347229
- 22.375349044799805
- 1.0949894189834595
- 2.5700838565826416
- 0.282784104347229
- 0.0
- 0.0
---
header:
  stamp:
    sec: 1756281514
    nanosec: 1347346
  frame_id: ''
name:
- fr3_joint1
- fr3_joint2
- fr3_joint3
- fr3_joint4
- fr3_joint5
- fr3_joint6
- fr3_joint7
- fr3_finger_joint1
- fr3_finger_joint2
position:
- 0.21644352557215732
- -0.05013249102543102
- -0.04625493488367177
- -2.2233217009662933
- 0.011301283274535901
- 2.2765243107193944
- 0.16000975104302884
- 0.0
- 0.0
velocity:
- -0.08957867625705254
- 0.02022194638048126
- 0.10505046225151239
- 0.011230560252359375
- 0.01928336502363243
- 0.04907594125228873
- 0.010882920333622816
- 0.0
- 0.0
effort:
- -0.619196891784668
- -27.996797561645508
- 0.1002388596534729
- 22.403120040893555
- 1.0812565088272095
- 2.5829012393951416
- 0.295601487159729
- 0.0
- 0.0
---
header:
  stamp:
    sec: 1756281514
    nanosec: 34490348
  frame_id: ''
name:
- fr3_joint1
- fr3_joint2
- fr3_joint3
- fr3_joint4
- fr3_joint5
- fr3_joint6
- fr3_joint7
- fr3_finger_joint1
- fr3_finger_joint2
position:
- 0.21321394064433624
- -0.049476381004296605
- -0.04263942754298359
- -2.222913334098013
- 0.011986029436446067
- 2.2782614457751693
- 0.16037932545092282
- 0.0
- 0.0
velocity:
- -0.0926056998582544
- 0.018591322566092718
- 0.102846985031671
- 0.011431335535729146
- 0.022760850505559163
- 0.05396307491516985
- 0.011826739788641535
- 0.0
- 0.0
effort:
- -0.543818473815918
- -28.024568557739258
- 0.2549629807472229
- 22.426923751831055
- 1.0556217432022095
- 2.5764925479888916
- 0.261726975440979
- 0.0
- 0.0
---
header:
  stamp:
    sec: 1756281514
    nanosec: 68388430
  frame_id: ''
name:
- fr3_joint1
- fr3_joint2
- fr3_joint3
- fr3_joint4
- fr3_joint5
- fr3_joint6
- fr3_joint7
- fr3_finger_joint1
- fr3_finger_joint2
position:
- 0.2099464883528906
- -0.04880486253065158
- -0.039114975038807634
- -2.222429771072469
- 0.012721790574088116
- 2.2800209054674365
- 0.1607614763746151
- 0.0
- 0.0
velocity:
- -0.09184425290015732
- 0.01924675496280276
- 0.10013351397853495
- 0.014519205887468448
- 0.020559896788793858
- 0.05168514827192704
- 0.010997065932405096
- 0.0
- 0.0
effort:
- -0.46844005584716797
- -27.945222854614258
- 0.3105049729347229
- 22.375349044799805
- 1.0876652002334595
- 2.5966341495513916
- 0.261726975440979
- 0.0
- 0.0
---
header:
  stamp:
    sec: 1756281514
    nanosec: 101307571
  frame_id: ''
name:
- fr3_joint1
- fr3_joint2
- fr3_joint3
- fr3_joint4
- fr3_joint5
- fr3_joint6
- fr3_joint7
- fr3_finger_joint1
- fr3_finger_joint2
position:
- 0.20717112053436385
- -0.04814562589324778
- -0.0358436759600237
- -2.221935993193615
- 0.013432574007015897
- 2.2817569944017553
- 0.1610869727561318
- 0.0
- 0.0
velocity:
- -0.08775731498793118
- 0.02070117655281252
- 0.10298162482175514
- 0.013756269289907667
- 0.022717905919501118
- 0.05350816122308069
- 0.008546288675552766
- 0.0
- 0.0
effort:
- -0.520014762878418
- -28.072175979614258
- 0.2311592698097229
- 22.403120040893555
- 1.0876652002334595
- 2.5966341495513916
- 0.2278524786233902
- 0.0
- 0.0
---
header:
  stamp:
    sec: 1756281514
    nanosec: 134540976
  frame_id: ''
name:
- fr3_joint1
- fr3_joint2
- fr3_joint3
- fr3_joint4
- fr3_joint5
- fr3_joint6
- fr3_joint7
- fr3_finger_joint1
- fr3_finger_joint2
position:
- 0.20429578623845335
- -0.047420419384862376
- -0.032245827483555416
- -2.2213881091163428
- 0.014245378043240735
- 2.2836789820413
- 0.16136523750559975
- 0.0
- 0.0
velocity:
- -0.08587060603947504
- 0.02250950850660398
- 0.10692675762241077
- 0.014769385025255644
- 0.023034875493568727
- 0.060441024210441445
- 0.008400638100233152
- 0.0
- 0.0
effort:
- -0.34148693084716797
- -28.123750686645508
- 0.4136543869972229
- 22.351545333862305
- 1.0812565088272095
- 2.5764925479888916
- 0.255318284034729
- 0.0
- 0.0
---
header:
  stamp:
    sec: 1756281514
    nanosec: 168445180
  frame_id: ''
name:
- fr3_joint1
- fr3_joint2
- fr3_joint3
- fr3_joint4
- fr3_joint5
- fr3_joint6
- fr3_joint7
- fr3_finger_joint1
- fr3_finger_joint2
position:
- 0.20122977526808075
- -0.04671258090812161
- -0.02853114316747828
- -2.220891405221808
- 0.0149476674773119
- 2.2856966421961262
- 0.16168156528537375
- 0.0
- 0.0
velocity:
- -0.09577932314362331
- 0.02132365259530635
- 0.11349751012779803
- 0.015843952708410724
- 0.02152194008675419
- 0.06381355491875701
- 0.0071650687940402955
- 0.0
- 0.0
effort:
- -0.698542594909668
- -28.099946975708008
- -0.0544852614402771
- 22.403120040893555
- 1.0876652002334595
- 2.5829012393951416
- 0.309334397315979
- 0.0
- 0.0
---
header:
  stamp:
    sec: 1756281514
    nanosec: 201346329
  frame_id: ''
name:
- fr3_joint1
- fr3_joint2
- fr3_joint3
- fr3_joint4
- fr3_joint5
- fr3_joint6
- fr3_joint7
- fr3_finger_joint1
- fr3_finger_joint2
position:
- 0.19817331093764282
- -0.04600848770650796
- -0.024966006325856674
- -2.2203586132844175
- 0.015596057879556606
- 2.2876255755246633
- 0.16200314021752338
- 0.0
- 0.0
velocity:
- -0.09084595857523428
- 0.02178392019457133
- 0.10694880369596463
- 0.015257039844475786
- 0.018158223023313484
- 0.05640307146199673
- 0.01096989199820236
- 0.0
- 0.0
effort:
- -0.849299430847168
- -28.199129104614258
- -0.1060599684715271
- 22.426923751831055
- 1.0812565088272095
- 2.5764925479888916
- 0.2214437872171402
- 0.0
- 0.0
---
header:
  stamp:
    sec: 1756281514
    nanosec: 234591257
  frame_id: ''
name:
- fr3_joint1
- fr3_joint2
- fr3_joint3
- fr3_joint4
- fr3_joint5
- fr3_joint6
- fr3_joint7
- fr3_finger_joint1
- fr3_finger_joint2
position:
- 0.1952366921476728
- -0.04530113825688589
- -0.021494055652764164
- -2.219781353433452
- 0.01627399998248759
- 2.289592512865057
- 0.16227774113850194
- 0.0
- 0.0
velocity:
- -0.08142869367744991
- 0.019996309266812503
- 0.09711306728827712
- 0.018024432108726018
- 0.020210791729648972
- 0.05392013398916722
- 0.005438008445099576
- 0.0
- 0.0
effort:
- -0.44066905975341797
- -28.072175979614258
- 0.3620796799659729
- 22.403120040893555
- 1.0812565088272095
- 2.5966341495513916
- 0.350533127784729
- 0.0
- 0.0
---
header:
  stamp:
    sec: 1756281514
    nanosec: 267785309
  frame_id: ''
name:
- fr3_joint1
- fr3_joint2
- fr3_joint3
- fr3_joint4
- fr3_joint5
- fr3_joint6
- fr3_joint7
- fr3_finger_joint1
- fr3_finger_joint2
position:
- 0.19244047064395314
- -0.04459924782604956
- -0.018161518537711998
- -2.2192050846126747
- 0.01699845539340852
- 2.2913754785512213
- 0.16254442447445158
- 0.0
- 0.0
velocity:
- -0.08993801336180725
- 0.020348736587372025
- 0.10553690201854923
- 0.017951109629483885
- 0.01922780030291918
- 0.054394964612623956
- 0.007370108486319579
- 0.0
- 0.0
effort:
- -0.13518810272216797
- -27.945222854614258
- 0.6199532151222229
- 22.272199630737305
- 1.0684391260147095
- 2.5627596378326416
- 0.269051194190979
- 0.0
- 0.0
---
header:
  stamp:
    sec: 1756281514
    nanosec: 301246164
  frame_id: ''
name:
- fr3_joint1
- fr3_joint2
- fr3_joint3
- fr3_joint4
- fr3_joint5
- fr3_joint6
- fr3_joint7
- fr3_finger_joint1
- fr3_finger_joint2
position:
- 0.18949591763050447
- -0.04383811439959618
- -0.014807730627542768
- -2.218664013561686
- 0.017659891292744322
- 2.2929846744389613
- 0.16288269062934776
- 0.0
- 0.0
velocity:
- -0.098937195219307
- 0.02339120298533919
- 0.10952563768618324
- 0.01580676281190777
- 0.0213865182867487
- 0.04703421450941457
- 0.009616174140457852
- 0.0
- 0.0
effort:
- -0.36529064178466797
- -28.123750686645508
- 0.4136543869972229
- 22.323774337768555
- 1.1013981103897095
- 2.5966341495513916
- 0.282784104347229
- 0.0
- 0.0
---
header:
  stamp:
    sec: 1756281514
    nanosec: 335035873
  frame_id: ''
name:
- fr3_joint1
- fr3_joint2
- fr3_joint3
- fr3_joint4
- fr3_joint5
- fr3_joint6
- fr3_joint7
- fr3_finger_joint1
- fr3_finger_joint2
position:
- 0.18619074786878648
- -0.042982378213425265
- -0.011165952036249182
- -2.2181152960169217
- 0.018416894544658828
- 2.294713143624968
- 0.16318843850006043
- 0.0
- 0.0
velocity:
- -0.0922035312417206
- 0.025056009114372974
- 0.10438469446199368
- 0.01639080327959493
- 0.020729362788100017
- 0.0507668069879773
- 0.008190710230903848
- 0.0
- 0.0
effort:
