header:
  stamp:
    sec: 1756282395
    nanosec: 838770075
  frame_id: ''
name:
- fr3_joint1
- fr3_joint2
- fr3_joint3
- fr3_joint4
- fr3_joint5
- fr3_joint6
- fr3_joint7
- fr3_finger_joint1
- fr3_finger_joint2
position:
- -0.07375661753047145
- -0.18039157733998273
- 0.11840963129434387
- -2.0943339604827003
- 0.049734103566443824
- 1.92836533908519
- 0.017115409626104066
- 0.0
- 0.0
velocity:
- 0.017345727175201702
- 0.017242343256163323
- 0.09949694331584814
- 3.519060123417355e-05
- 0.0953678470853856
- 0.06129898461527526
- 0.08434393570484146
- 0.0
- 0.0
effort:
- 0.678105354309082
- -24.184236526489258
- -0.4670829176902771
- 22.875226974487305
- 1.4090152978897095
- 2.4235994815826416
- 0.350533127784729
- 0.0
- 0.0
---
header:
  stamp:
    sec: 1756282395
    nanosec: 872452715
  frame_id: ''
name:
- fr3_joint1
- fr3_joint2
- fr3_joint3
- fr3_joint4
- fr3_joint5
- fr3_joint6
- fr3_joint7
- fr3_finger_joint1
- fr3_finger_joint2
position:
- -0.07304889735313373
- -0.17983591055468212
- 0.1217603501536148
- -2.0944497849252346
- 0.05295572038602532
- 1.9305913646297201
- 0.02006382453984146
- 0.0
- 0.0
velocity:
- 0.019865049322042836
- 0.016921586594372706
- 0.10310543249557863
- -0.004432155425130836
- 0.09525099132012299
- 0.06772274590865368
- 0.08792361589444748
- 0.0
- 0.0
effort:
- 0.626530647277832
- -24.208040237426758
- -0.4432792067527771
- 22.978376388549805
- 1.4612003564834595
- 2.4364168643951416
- 0.323067307472229
- 0.0
- 0.0
---
header:
  stamp:
    sec: 1756282395
    nanosec: 905573338
  frame_id: ''
name:
- fr3_joint1
- fr3_joint2
- fr3_joint3
- fr3_joint4
- fr3_joint5
- fr3_joint6
- fr3_joint7
- fr3_finger_joint1
- fr3_finger_joint2
position:
- -0.07233017707893717
- -0.17923281054344625
- 0.12529166163452865
- -2.0945451888240147
- 0.056051415670602914
- 1.9328848231823945
- 0.02298752993749921
- 0.0
- 0.0
velocity:
- 0.02123283675298233
- 0.020166744768668084
- 0.10874629648422765
- -0.001052508973440221
- 0.08625073816748237
- 0.06540853515362112
- 0.09143804645873513
- 0.0
- 0.0
effort:
- 0.705876350402832
- -24.231843948364258
- -0.4670829176902771
- 22.899030685424805
- 1.4877506494522095
- 2.4364168643951416
- 0.329475998878479
- 0.0
- 0.0
---
header:
  stamp:
    sec: 1756282395
    nanosec: 938705966
  frame_id: ''
name:
- fr3_joint1
- fr3_joint2
- fr3_joint3
- fr3_joint4
- fr3_joint5
- fr3_joint6
- fr3_joint7
- fr3_finger_joint1
- fr3_finger_joint2
position:
- -0.07154431218569254
- -0.17862298570916219
- 0.1289038465031078
- -2.094606256822191
- 0.05902145585579859
- 1.935083896708011
- 0.02620040881654269
- 0.0
- 0.0
velocity:
- 0.025383848208437997
- 0.01751033167305465
- 0.10588426071420337
- -0.0027899231104511982
- 0.0856314876766019
- 0.06494569880082274
- 0.09832825613114593
- 0.0
- 0.0
effort:
- 0.602726936340332
- -24.208040237426758
- -0.5980033278465271
- 22.899030685424805
- 1.4547916650772095
- 2.4162752628326416
- 0.356941819190979
- 0.0
- 0.0
---
header:
  stamp:
    sec: 1756282395
    nanosec: 972639917
  frame_id: ''
name:
- fr3_joint1
- fr3_joint2
- fr3_joint3
- fr3_joint4
- fr3_joint5
- fr3_joint6
- fr3_joint7
- fr3_finger_joint1
- fr3_finger_joint2
position:
- -0.07064561295959337
- -0.17803823110100633
- 0.13228617395620973
- -2.094670572170001
- 0.061973506247079056
- 1.9371208018525938
- 0.02944639670906187
- 0.0
- 0.0
velocity:
- 0.031896833412170054
- 0.01852684320432323
- 0.10234264149786941
- -0.0029309036028896712
- 0.09498643791560449
- 0.061478922749225215
- 0.1019190000275091
- 0.0
- 0.0
effort:
- 0.626530647277832
- -24.231843948364258
- -0.5702323317527771
- 22.978376388549805
- 1.4676090478897095
- 2.4629671573638916
- 0.398140549659729
- 0.0
- 0.0
---
header:
  stamp:
    sec: 1756282396
    nanosec: 5490681
  frame_id: ''
name:
- fr3_joint1
- fr3_joint2
- fr3_joint3
- fr3_joint4
- fr3_joint5
- fr3_joint6
- fr3_joint7
- fr3_finger_joint1
- fr3_finger_joint2
position:
- -0.06971913626532433
- -0.17746703451812837
- 0.13585730593746925
- -2.0947329856752614
- 0.06525187887138094
- 1.9390866719879851
- 0.032619824697872044
- 0.0
- 0.0
velocity:
- 0.028166581166717296
- 0.014589232534588945
- 0.10699761258026773
- -0.0027969956973110796
- 0.09643338732309437
- 0.05602941038476799
- 0.08725954354869277
- 0.0
- 0.0
effort:
- 0.578923225402832
- -24.358797073364258
- -0.6733817458152771
- 23.006147384643555
- 1.4547916650772095
- 2.4428255558013916
- 0.323067307472229
- 0.0
- 0.0
---
header:
  stamp:
    sec: 1756282396
    nanosec: 38734283
  frame_id: ''
name:
- fr3_joint1
- fr3_joint2
- fr3_joint3
- fr3_joint4
- fr3_joint5
- fr3_joint6
- fr3_joint7
- fr3_finger_joint1
- fr3_finger_joint2
position:
- -0.06892999231556331
- -0.17694959028022175
- 0.13943181748402012
- -2.0948121459425786
- 0.06836271487128881
- 1.94084507060734
- 0.03513106266232096
- 0.0
- 0.0
velocity:
- 0.018616792091785545
- 0.01693721479044111
- 0.11461843887881792
- -0.0034704197083101243
- 0.09320676748050856
- 0.05627569137077081
- 0.06735491232228313
- 0.0
- 0.0
effort:
- 0.654301643371582
- -24.259614944458008
- -0.5702323317527771
- 22.926801681518555
- 1.4612003564834595
- 2.4428255558013916
- 0.323067307472229
- 0.0
- 0.0
---
header:
  stamp:
    sec: 1756282396
    nanosec: 72573215
  frame_id: ''
name:
- fr3_joint1
- fr3_joint2
- fr3_joint3
- fr3_joint4
- fr3_joint5
- fr3_joint6
- fr3_joint7
- fr3_finger_joint1
- fr3_finger_joint2
position:
- -0.06827051908863467
- -0.17643093224229586
- 0.14303118582195373
- -2.094891260701223
- 0.07147214526731971
- 1.9427672917766983
- 0.037576172939894
- 0.0
- 0.0
velocity:
- 0.01661851034448359
- 0.01572800840744141
- 0.10953469576490317
- -0.001739058942230358
- 0.0946133263018231
- 0.057794878908805344
- 0.07376613912045718
- 0.0
- 0.0
effort:
- 0.678105354309082
- -24.081087112426758
- -0.5702323317527771
- 22.899030685424805
- 1.4483829736709595
- 2.4428255558013916
- 0.350533127784729
- 0.0
- 0.0
---
header:
  stamp:
    sec: 1756282396
    nanosec: 105234348
  frame_id: ''
name:
- fr3_joint1
- fr3_joint2
- fr3_joint3
- fr3_joint4
- fr3_joint5
- fr3_joint6
- fr3_joint7
- fr3_finger_joint1
- fr3_finger_joint2
position:
- -0.0675495770284495
- -0.17585497863295213
- 0.14650035836781466
- -2.0949427910970155
- 0.07462944640213826
- 1.9447123641842634
- 0.04011060852324312
- 0.0
- 0.0
velocity:
- 0.020946856829368966
- 0.017285296954559534
- 0.10337720084886903
- -0.0025083350234360357
- 0.0940274178196329
- 0.0596589644894172
- 0.08505632928229219
- 0.0
- 0.0
effort:
- 0.49957752227783203
- -24.005708694458008
- -0.7765311598777771
- 22.847455978393555
- 1.4090152978897095
- 2.4364168643951416
- 0.329475998878479
- 0.0
- 0.0
---
header:
  stamp:
    sec: 1756282396
    nanosec: 138587055
  frame_id: ''
name:
- fr3_joint1
- fr3_joint2
- fr3_joint3
- fr3_joint4
- fr3_joint5
- fr3_joint6
- fr3_joint7
- fr3_finger_joint1
- fr3_finger_joint2
position:
- -0.06683682704981107
- -0.17523795809265774
- 0.14992324902612053
- -2.09497821178896
- 0.07767135651701022
- 1.9465738975523774
- 0.043009309366488585
- 0.0
- 0.0
velocity:
- 0.022566143257782684
- 0.018797085998799694
- 0.10229432251272663
- -0.0017750108973968938
- 0.09202920268470338
- 0.05909915803995693
- 0.09649125682193771
- 0.0
- 0.0
effort:
- 0.47577381134033203
- -24.104890823364258
- -0.8558768630027771
- 22.899030685424805
- 1.4218326807022095
- 2.4565584659576416
- 0.302925705909729
- 0.0
- 0.0
---
header:
  stamp:
    sec: 1756282396
    nanosec: 172575566
  frame_id: ''
name:
- fr3_joint1
- fr3_joint2
- fr3_joint3
- fr3_joint4
- fr3_joint5
- fr3_joint6
- fr3_joint7
- fr3_finger_joint1
- fr3_finger_joint2
position:
- -0.06618928223148764
- -0.17458501741993193
- 0.1535411456820169
- -2.095051796675413
- 0.08062608774606235
- 1.9486592559448837
- 0.0462719004338719
- 0.0
- 0.0
velocity:
- 0.016211408558217715
- 0.018734600507069238
- 0.10886658818450157
- -0.0037917575472695996
- 0.08860424172700693
- 0.06130949383104436
- 0.09902379699505566
- 0.0
- 0.0
effort:
- 0.551152229309082
- -24.005708694458008
- -0.7011527419090271
- 22.950605392456055
- 1.4813419580459595
- 2.4501497745513916
- 0.350533127784729
- 0.0
- 0.0
---
header:
  stamp:
    sec: 1756282396
    nanosec: 205262250
  frame_id: ''
name:
- fr3_joint1
- fr3_joint2
- fr3_joint3
- fr3_joint4
- fr3_joint5
- fr3_joint6
- fr3_joint7
- fr3_finger_joint1
- fr3_finger_joint2
position:
- -0.06562611887074041
- -0.17386543025768683
- 0.15709011190013625
- -2.095123876883795
- 0.08366747084217391
- 1.9509706486465554
- 0.04982743096884212
- 0.0
- 0.0
velocity:
- 0.020218423653923838
- 0.0216256064980618
- 0.10177201426502572
- -0.0009847654478460286
- 0.09132910916097604
- 0.06991463389592771
- 0.11028480408281142
- 0.0
- 0.0
effort:
- 0.47577381134033203
- -24.005708694458008
- -0.8796805739402771
- 22.847455978393555
- 1.4813419580459595
- 2.4702913761138916
- 0.343208909034729
- 0.0
- 0.0
---
header:
  stamp:
    sec: 1756282396
    nanosec: 238563692
  frame_id: ''
name:
- fr3_joint1
- fr3_joint2
- fr3_joint3
- fr3_joint4
- fr3_joint5
- fr3_joint6
- fr3_joint7
- fr3_finger_joint1
- fr3_finger_joint2
position:
- -0.06508864505611453
- -0.17312066666162365
- 0.16046403862037079
- -2.095169082230475
- 0.08665676690049731
- 1.953036664642566
- 0.05299489553457344
- 0.0
- 0.0
velocity:
- 0.014536560797228301
- 0.02181558294497547
- 0.10492622797904468
- -0.002719063279661674
- 0.09439213193935567
- 0.058409410701223935
- 0.09456129393829005
- 0.0
- 0.0
effort:
- 0.527348518371582
- -24.208040237426758
- -0.8281058669090271
- 22.926801681518555
- 1.4813419580459595
- 2.4501497745513916
- 0.350533127784729
- 0.0
- 0.0
---
header:
  stamp:
    sec: 1756282396
    nanosec: 272556137
  frame_id: ''
name:
- fr3_joint1
- fr3_joint2
- fr3_joint3
- fr3_joint4
- fr3_joint5
- fr3_joint6
- fr3_joint7
- fr3_finger_joint1
- fr3_finger_joint2
position:
- -0.06457059832750708
- -0.172381089071292
- 0.1639785851845214
- -2.0952680030804838
- 0.08982451960250552
- 1.9550343409445592
- 0.055839145196839
- 0.0
- 0.0
velocity:
- 0.016419569623729535
- 0.022251391399102875
- 0.10431560928701847
- -0.0022618674708514423
- 0.09751622271216065
- 0.05992872202865018
- 0.07881962789686635
- 0.0
- 0.0
effort:
- 0.42419910430908203
- -24.259614944458008
- -0.9074515700340271
- 22.978376388549805
- 1.4547916650772095
- 2.4428255558013916
- 0.302925705909729
- 0.0
- 0.0
---
header:
  stamp:
    sec: 1756282396
    nanosec: 305596109
  frame_id: ''
name:
- fr3_joint1
- fr3_joint2
- fr3_joint3
- fr3_joint4
- fr3_joint5
- fr3_joint6
- fr3_joint7
- fr3_finger_joint1
- fr3_finger_joint2
position:
- -0.06419385901996758
- -0.17169206527690994
- 0.16747948673545573
- -2.0953684058377022
- 0.09303802936695835
- 1.9569451578533439
- 0.05859788699482912
- 0.0
- 0.0
velocity:
- 0.011399276506498215
- 0.018949776384435024
- 0.10150078649999555
- -0.003070788654045117
- 0.10249296225901025
- 0.05733131036479357
- 0.08554143340251952
- 0.0
- 0.0
effort:
- 0.654301643371582
- -24.184236526489258
- -0.7527274489402771
- 22.950605392456055
- 1.4419742822647095
- 2.4565584659576416
- 0.370674729347229
- 0.0
- 0.0
---
header:
  stamp:
    sec: 1756282396
    nanosec: 338597738
  frame_id: ''
name:
- fr3_joint1
- fr3_joint2
- fr3_joint3
- fr3_joint4
- fr3_joint5
- fr3_joint6
- fr3_joint7
- fr3_finger_joint1
- fr3_finger_joint2
position:
- -0.0638006523931532
- -0.1710317608297712
- 0.17080724938542127
- -2.095448560076906
- 0.09603424750148504
- 1.9587425025035656
- 0.06139814508563003
- 0.0
- 0.0
velocity:
- 0.015493122184039615
- 0.020376821854183498
- 0.09873173656199066
- -0.0027202882182865975
- 0.09191024242359072
- 0.05475772084056397
- 0.09181456395281787
- 0.0
- 0.0
effort:
- 0.654301643371582
- -24.358797073364258
- -0.7527274489402771
- 22.926801681518555
- 1.4547916650772095
- 2.4428255558013916
- 0.302925705909729
- 0.0
- 0.0
---
header:
  stamp:
    sec: 1756282396
    nanosec: 372604801
  frame_id: ''
name:
- fr3_joint1
- fr3_joint2
- fr3_joint3
- fr3_joint4
- fr3_joint5
- fr3_joint6
- fr3_joint7
- fr3_finger_joint1
- fr3_finger_joint2
position:
- -0.06320233814936574
- -0.17042500669592553
- 0.17415183145796226
- -2.0955631387708915
- 0.0991260295583114
- 1.9605671970518843
- 0.06472731591136217
- 0.0
- 0.0
velocity:
- 0.015941941649248396
- 0.01749186391005943
- 0.1019434650066339
- -0.002513387934210316
- 0.09162103055762466
- 0.05567409160561602
- 0.10229599115590705
- 0.0
- 0.0
effort:
- 0.757451057434082
- -24.156465530395508
- -0.6495780348777771
- 22.950605392456055
- 1.4813419580459595
- 2.4501497745513916
- 0.336800217628479
- 0.0
- 0.0
---
header:
  stamp:
    sec: 1756282396
    nanosec: 405282930
  frame_id: ''
name:
- fr3_joint1
- fr3_joint2
- fr3_joint3
- fr3_joint4
- fr3_joint5
- fr3_joint6
- fr3_joint7
- fr3_finger_joint1
- fr3_finger_joint2
position:
- -0.0625560111205128
- -0.16982806541751375
- 0.17764653012338172
- -2.0956525719060193
- 0.10235835565875723
- 1.9624659180601516
- 0.0681062721064962
- 0.0
- 0.0
velocity:
- 0.017201268671686483
- 0.01732429318702853
- 0.10714927144588719
- -0.003144553355571376
- 0.09795231601277442
- 0.05629926000290341
- 0.10029568798732258
- 0.0
- 0.0
effort:
- 0.856633186340332
- -24.208040237426758
- -0.5702323317527771
- 22.950605392456055
- 1.4547916650772095
- 2.4565584659576416
- 0.336800217628479
- 0.0
- 0.0
---
header:
  stamp:
    sec: 1756282396
    nanosec: 439221128
  frame_id: ''
name:
- fr3_joint1
- fr3_joint2
- fr3_joint3
- fr3_joint4
- fr3_joint5
- fr3_joint6
- fr3_joint7
- fr3_finger_joint1
- fr3_finger_joint2
position:
- -0.06206542109755341
- -0.1693785176721076
- 0.18031134845489014
- -2.0957093939871747
- 0.10472757453453348
- 1.9639599278309003
- 0.07054219632405903
- 0.0
- 0.0
velocity:
- 0.020636517894392865
- 0.017178337248711192
- 0.10557305783706278
- -0.0010654954841228378
- 0.09290500202758782
- 0.05966356219894241
- 0.09420430116165088
- 0.0
- 0.0
effort:
- 0.781254768371582
- -24.208040237426758
- -0.6218070387840271
- 22.899030685424805
- 1.4877506494522095
- 2.4629671573638916
- 0.316658616065979
- 0.0
- 0.0
---
header:
  stamp:
    sec: 1756282396
    nanosec: 472595878
  frame_id: ''
name:
- fr3_joint1
- fr3_joint2
- fr3_joint3
- fr3_joint4
- fr3_joint5
- fr3_joint6
- fr3_joint7
- fr3_finger_joint1
- fr3_finger_joint2
position:
- -0.061145055708563205
- -0.16867662018098947
- 0.18465286120334465
- -2.095800748297752
- 0.10858327464613023
- 1.9664536401956934
- 0.07415338639273202
- 0.0
- 0.0
velocity:
- 0.024708069397153046
- 0.015715220295876242
- 0.10416812944957664
- -0.0006877300658318637
- 0.0942870837942362
- 0.06127357658088306
- 0.08191949746173456
- 0.0
- 0.0
effort:
- 0.729680061340332
- -24.231843948364258
- -0.7765311598777771
- 22.978376388549805
- 1.4612003564834595
- 2.4629671573638916
- 0.295601487159729
- 0.0
- 0.0
---
header:
  stamp:
    sec: 1756282396
    nanosec: 505233411
  frame_id: ''
name:
- fr3_joint1
- fr3_joint2
- fr3_joint3
- fr3_joint4
- fr3_joint5
- fr3_joint6
- fr3_joint7
- fr3_finger_joint1
- fr3_finger_joint2
position:
- -0.060352702062916166
- -0.1681616931503161
- 0.18822202994260728
- -2.0958753350877144
- 0.11183265438899553
- 1.9684562425433927
- 0.07681738971554422
- 0.0
- 0.0
velocity:
- 0.024686248390868495
- 0.014905593431342014
- 0.1059642395870069
- -0.0004757197518093798
- 0.09604422684517307
- 0.057895061158989264
- 0.08213814389658226
- 0.0
- 0.0
effort:
- 0.602726936340332
- -24.184236526489258
- -0.8281058669090271
- 22.926801681518555
- 1.4877506494522095
- 2.4831087589263916
- 0.363350510597229
- 0.0
- 0.0
---
header:
  stamp:
    sec: 1756282396
    nanosec: 538573131
  frame_id: ''
name:
- fr3_joint1
- fr3_joint2
- fr3_joint3
- fr3_joint4
- fr3_joint5
- fr3_joint6
- fr3_joint7
- fr3_finger_joint1
- fr3_finger_joint2
position:
- -0.05966095487863496
- -0.1676586799357442
- 0.19178802605204065
- -2.095947587392066
- 0.11491456723807006
- 1.9706246984193074
- 0.0795002005344125
- 0.0
- 0.0
velocity:
- 0.018317155719240263
- 0.015469465440811903
- 0.11120460959341841
- -0.0032561963405254505
- 0.09136036128462172
- 0.07198815439529876
- 0.08744109223259532
- 0.0
- 0.0
effort:
- 0.678105354309082
- -24.156465530395508
- -0.7249564528465271
- 22.950605392456055
- 1.4355655908584595
- 2.4428255558013916
- 0.343208909034729
- 0.0
- 0.0
---
header:
  stamp:
    sec: 1756282396
    nanosec: 572598764
  frame_id: ''
name:
- fr3_joint1
- fr3_joint2
- fr3_joint3
- fr3_joint4
- fr3_joint5
- fr3_joint6
- fr3_joint7
- fr3_finger_joint1
- fr3_finger_joint2
position:
- -0.058964348223115894
- -0.16709816320865276
- 0.19532793840484963
- -2.095988260263805
- 0.11794097434833978
- 1.9729158046473023
- 0.08249336561431703
- 0.0
- 0.0
velocity:
- 0.01991241979034089
- 0.019083018170820143
- 0.10731371415758874
- -0.0030276571623884443
- 0.08734506732982741
- 0.0668633723669129
- 0.0969287659353557
- 0.0
- 0.0
effort:
- 0.781254768371582
- -24.184236526489258
- -0.6495780348777771
- 22.950605392456055
- 1.3824650049209595
- 2.4428255558013916
- 0.336800217628479
- 0.0
- 0.0
---
header:
  stamp:
    sec: 1756282396
    nanosec: 605622583
  frame_id: ''
name:
- fr3_joint1
- fr3_joint2
- fr3_joint3
- fr3_joint4
- fr3_joint5
- fr3_joint6
- fr3_joint7
- fr3_finger_joint1
- fr3_finger_joint2
position:
- -0.05814151073320187
- -0.16653045010511458
- 0.19876358171714753
- -2.0960339850595155
- 0.12090392816599793
- 1.9751148092531523
- 0.08586648926543512
- 0.0
- 0.0
velocity:
- 0.026181064505901745
- 0.016022048572814734
- 0.10300600914552686
- -0.000916735288034813
- 0.0934162286850907
- 0.0642903563448828
- 0.10894812633427327
- 0.0
- 0.0
effort:
- 0.578923225402832
- -24.184236526489258
- -0.9312552809715271
- 22.926801681518555
- 1.4026066064834595
- 2.4702913761138916
- 0.350533127784729
- 0.0
- 0.0
---
header:
  stamp:
    sec: 1756282396
    nanosec: 638838017
  frame_id: ''
name:
- fr3_joint1
- fr3_joint2
- fr3_joint3
- fr3_joint4
- fr3_joint5
- fr3_joint6
- fr3_joint7
- fr3_finger_joint1
- fr3_finger_joint2
position:
- -0.057231212841438735
- -0.1659467035538303
- 0.20229274801876707
- -2.0960959250277393
- 0.12405536273336189
- 1.977157439176823
- 0.08957959167012221
- 0.0
- 0.0
velocity:
- 0.028585661572046478
- 0.016065345684228675
- 0.10397552999615806
- -0.002181247211287718
- 0.09390798428405862
- 0.057260601810010095
- 0.10055447593310436
- 0.0
- 0.0
effort:
- 0.47577381134033203
- -24.081087112426758
- -1.0621757507324219
- 22.847455978393555
- 1.4419742822647095
- 2.4565584659576416
- 0.377083420753479
- 0.0
- 0.0
---
header:
  stamp:
    sec: 1756282396
    nanosec: 672630947
  frame_id: ''
name:
- fr3_joint1
- fr3_joint2
- fr3_joint3
- fr3_joint4
- fr3_joint5
- fr3_joint6
- fr3_joint7
- fr3_finger_joint1
- fr3_finger_joint2
position:
- -0.056387693626289
- -0.1653795777353652
- 0.20577787700109368
- -2.0961593607475284
- 0.12697670083219245
- 1.9789853539522015
- 0.0926869018322329
- 0.0
- 0.0
velocity:
- 0.022572792003859508
- 0.017687144641910207
- 0.11023840944019564
- -0.0014787928850173813
- 0.09170058137277078
- 0.05583606719042448
- 0.09219309308207256
- 0.0
- 0.0
effort:
- 0.602726936340332
- -24.057283401489258
- -0.9312552809715271
- 22.847455978393555
- 1.4483829736709595
- 2.4702913761138916
- 0.289192795753479
- 0.0
- 0.0
---
header:
  stamp:
    sec: 1756282396
    nanosec: 705487427
  frame_id: ''
name:
- fr3_joint1
- fr3_joint2
- fr3_joint3
- fr3_joint4
- fr3_joint5
- fr3_joint6
- fr3_joint7
- fr3_finger_joint1
- fr3_finger_joint2
position:
- -0.05569964695782057
- -0.16481904842228715
- 0.20928363336035896
- -2.0962463178266897
- 0.12994275888106047
- 1.9808885995009922
- 0.09539890723755415
- 0.0
- 0.0
velocity:
- 0.022339286315099613
- 0.01675623342297834
- 0.10883949309345572
- -0.0035122202046890694
- 0.09040886832320559
- 0.05953717371276438
- 0.08267699033631597
- 0.0
- 0.0
effort:
- 0.47577381134033203
- -24.005708694458008
- -1.0899467468261719
- 22.875226974487305
- 1.4355655908584595
- 2.4428255558013916
- 0.329475998878479
- 0.0
- 0.0
---
header:
  stamp:
    sec: 1756282396
    nanosec: 738575317
  frame_id: ''
name:
- fr3_joint1
- fr3_joint2
- fr3_joint3
- fr3_joint4
- fr3_joint5
- fr3_joint6
- fr3_joint7
- fr3_finger_joint1
- fr3_finger_joint2
position:
- -0.05498997089485751
- -0.16419712446242127
- 0.21284322700177608
- -2.0963228444298383
- 0.13328574084948155
- 1.9828429807147259
- 0.09840949371692569
- 0.0
- 0.0
velocity:
- 0.019243047016627025
- 0.019885715134683426
- 0.10698473927470019
- -0.0021617612030772264
- 0.10114402777150842
- 0.06005727377862494
- 0.09112140306454611
- 0.0
- 0.0
effort:
- 0.44800281524658203
- -24.081087112426758
- -1.0621757507324219
- 22.899030685424805
- 1.4282413721084595
- 2.4702913761138916
- 0.309334397315979
- 0.0
- 0.0
---
header:
  stamp:
    sec: 1756282396
    nanosec: 772839327
  frame_id: ''
name:
- fr3_joint1
- fr3_joint2
- fr3_joint3
- fr3_joint4
- fr3_joint5
- fr3_joint6
- fr3_joint7
- fr3_finger_joint1
- fr3_finger_joint2
position:
- -0.05429217610117915
- -0.16357860851146933
- 0.21636878610528548
- -2.096404383319656
- 0.13639754375227464
- 1.9848511771697603
- 0.10134148324456287
- 0.0
- 0.0
velocity:
- 0.019404206802789415
- 0.017551565224329237
- 0.10329433901260164
- -0.0018760886133824782
- 0.09510362031183045
- 0.056796191842461236
- 0.08979543165389549
- 0.0
- 0.0
effort:
- 0.42419910430908203
- -24.081087112426758
- -1.1137504577636719
- 22.875226974487305
- 1.4218326807022095
- 2.4565584659576416
- 0.329475998878479
- 0.0
- 0.0
---
header:
  stamp:
    sec: 1756282396
    nanosec: 805676117
  frame_id: ''
name:
- fr3_joint1
- fr3_joint2
- fr3_joint3
- fr3_joint4
- fr3_joint5
- fr3_joint6
- fr3_joint7
- fr3_finger_joint1
- fr3_finger_joint2
position:
- -0.05376974418165923
- -0.162936044133007
- 0.21987864854315306
- -2.096481829031764
- 0.1393917026728683
- 1.9867572416910448
- 0.1045387844999591
- 0.0
- 0.0
velocity:
- 0.016115806907818647
- 0.01866484895682511
- 0.1000702180638894
- -0.002489828929154455
- 0.09103810354490796
- 0.0579642460119272
- 0.09813347425207854
- 0.0
- 0.0
effort:
- 0.654301643371582
- -23.954133987426758
- -0.9590262770652771
- 22.899030685424805
- 1.4547916650772095
- 2.4428255558013916
- 0.356941819190979
- 0.0
- 0.0
---
header:
  stamp:
    sec: 1756282396
    nanosec: 838585402
  frame_id: ''
name:
- fr3_joint1
- fr3_joint2
- fr3_joint3
- fr3_joint4
- fr3_joint5
- fr3_joint6
- fr3_joint7
- fr3_finger_joint1
- fr3_finger_joint2
position:
- -0.05324192445054063
- -0.16227516715560666
- 0.22322087162113097
- -2.0965476375684693
- 0.14247649365391507
- 1.9886656102920885
- 0.10780758218322932
- 0.0
- 0.0
velocity:
- 0.01882037586412297
- 0.018870056971981547
- 0.09830845237246658
- -0.0025906466870339413
- 0.09667590205054793
- 0.06001001364424435
- 0.10641081696194542
- 0.0
- 0.0
effort:
- 0.527348518371582
- -23.926362991333008
- -1.0106010437011719
- 22.899030685424805
- 1.4547916650772095
- 2.4702913761138916
- 0.356941819190979
- 0.0
- 0.0
---
header:
  stamp:
    sec: 1756282396
    nanosec: 872401374
  frame_id: ''
name:
- fr3_joint1
- fr3_joint2
- fr3_joint3
- fr3_joint4
- fr3_joint5
- fr3_joint6
- fr3_joint7
- fr3_finger_joint1
- fr3_finger_joint2
position:
- -0.05258461391104963
- -0.16154287579500867
- 0.22665739899151233
- -2.096628153327917
- 0.14573178436563242
- 1.990868271675342
- 0.11097484279347597
- 0.0
- 0.0
velocity:
- 0.019783106769273646
- 0.022434522292964557
- 0.10357641641240756
- -0.0025719270313101744
- 0.09569573829677874
- 0.06667674137553513
- 0.08762065140698302
- 0.0
- 0.0
effort:
- 0.602726936340332
- -23.878755569458008
- -0.9312552809715271
- 22.847455978393555
- 1.4547916650772095
- 2.4428255558013916
- 0.363350510597229
- 0.0
- 0.0
---
header:
  stamp:
    sec: 1756282396
    nanosec: 905239706
  frame_id: ''
name:
- fr3_joint1
- fr3_joint2
- fr3_joint3
- fr3_joint4
- fr3_joint5
- fr3_joint6
- fr3_joint7
- fr3_finger_joint1
- fr3_finger_joint2
position:
- -0.05194809727173365
- -0.16077781936064542
- 0.2302204903954973
- -2.096701852559716
- 0.1488471249131734
- 1.9928801721278393
- 0.11358625035402713
- 0.0
- 0.0
velocity:
- 0.017025364134168042
- 0.02404169379486018
- 0.11164180590481211
- -0.0034099127539843877
- 0.09367308164161925
- 0.06121489262549916
- 0.07292257393515515
- 0.0
- 0.0
effort:
- 0.602726936340332
- -23.977937698364258
- -0.9312552809715271
- 22.926801681518555
- 1.4355655908584595
- 2.4565584659576416
- 0.363350510597229
- 0.0
- 0.0
---
header:
  stamp:
    sec: 1756282396
    nanosec: 938590331
  frame_id: ''
name:
- fr3_joint1
- fr3_joint2
- fr3_joint3
- fr3_joint4
- fr3_joint5
- fr3_joint6
- fr3_joint7
- fr3_finger_joint1
- fr3_finger_joint2
position:
- -0.051451318819240074
- -0.1600290506633673
- 0.23373586911358363
- -2.0967876523452618
- 0.15185028047538005
- 1.9948248267511486
- 0.11599430302069143
- 0.0
- 0.0
velocity:
- 0.017877361701060378
- 0.022888201724295596
- 0.10586644955165639
- -0.00517230129029515
- 0.09476400251658192
- 0.05967694606541629
- 0.07210969295897313
- 0.0
- 0.0
effort:
- 0.602726936340332
- -24.057283401489258
- -1.0383720397949219
- 22.875226974487305
- 1.4547916650772095
- 2.4767000675201416
- 0.384407639503479
- 0.0
- 0.0
---
header:
  stamp:
    sec: 1756282396
    nanosec: 972594727
  frame_id: ''
name:
- fr3_joint1
- fr3_joint2
- fr3_joint3
- fr3_joint4
- fr3_joint5
- fr3_joint6
- fr3_joint7
- fr3_finger_joint1
- fr3_finger_joint2
position:
- -0.05087091637770674
- -0.15925443133748252
- 0.23724767571393718
- -2.096899792848731
- 0.15489696589128146
- 1.9968368965097447
- 0.11861675674351956
- 0.0
- 0.0
velocity:
- 0.018623487736573376
- 0.02327103086887463
- 0.10216647248523804
- -0.00460184943915913
- 0.08951350343355703
- 0.05977530724587798
- 0.08482810354075432
- 0.0
- 0.0
effort:
- 0.578923225402832
- -24.057283401489258
- -1.0383720397949219
- 22.875226974487305
- 1.4483829736709595
- 2.4300081729888916
- 0.316658616065979
- 0.0
- 0.0
---
header:
  stamp:
    sec: 1756282397
    nanosec: 6076214
  frame_id: ''
name:
- fr3_joint1
- fr3_joint2
- fr3_joint3
- fr3_joint4
- fr3_joint5
- fr3_joint6
- fr3_joint7
- fr3_finger_joint1
- fr3_finger_joint2
position:
- -0.0502206515667628
- -0.15850299093785283
- 0.24074353192093642
- -2.096990705311291
- 0.15791648419084753
- 1.9986033530914962
- 0.12159905428955256
- 0.0
- 0.0
velocity:
- 0.02164423449816949
- 0.022536340374090153
- 0.10290816393245636
- -0.0009227016946395855
- 0.08911683050718067
- 0.050584010965993534
- 0.09296330645963152
- 0.0
- 0.0
effort:
- 0.602726936340332
- -24.029512405395508
- -1.0621757507324219
- 22.899030685424805
- 1.4282413721084595
- 2.4702913761138916
- 0.350533127784729
- 0.0
- 0.0
---
header:
  stamp:
    sec: 1756282397
    nanosec: 38564062
  frame_id: ''
name:
- fr3_joint1
- fr3_joint2
- fr3_joint3
- fr3_joint4
- fr3_joint5
- fr3_joint6
- fr3_joint7
- fr3_finger_joint1
- fr3_finger_joint2
position:
- -0.04963384025822357
- -0.1577981933044092
- 0.24419235089867633
- -2.0971064102847157
- 0.16081623382725843
- 2.000281809782844
- 0.12474311501498053
- 0.0
- 0.0
velocity:
- 0.011552507258739483
- 0.020678179176260518
- 0.10859384751388147
- -0.003932168460832808
- 0.09116322856272929
- 0.05357491259175084
- 0.09957875889064878
- 0.0
- 0.0
effort:
- 0.908207893371582
- -24.104890823364258
- -0.7011527419090271
- 22.978376388549805
- 1.4813419580459595
- 2.4629671573638916
- 0.377083420753479
- 0.0
- 0.0
---
header:
  stamp:
    sec: 1756282397
    nanosec: 71945247
  frame_id: ''
name:
- fr3_joint1
- fr3_joint2
- fr3_joint3
- fr3_joint4
- fr3_joint5
- fr3_joint6
- fr3_joint7
- fr3_finger_joint1
- fr3_finger_joint2
position:
- -0.04904015066592587
- -0.15710102954520824
- 0.24766380395222806
- -2.0972102566993907
- 0.16389171411140116
- 2.002171345056206
- 0.12835575414251685
- 0.0
- 0.0
velocity:
- 0.01481878392379836
- 0.01989437164299117
- 0.10717749593441608
- -0.0025912580529623363
- 0.09123999086683746
- 0.06147491890545337
- 0.11137635085579349
- 0.0
- 0.0
effort:
- 0.884404182434082
- -24.081087112426758
- -0.7011527419090271
- 22.926801681518555
- 1.5005680322647095
- 2.4629671573638916
- 0.384407639503479
- 0.0
- 0.0
---
header:
  stamp:
    sec: 1756282397
    nanosec: 105629948
  frame_id: ''
name:
- fr3_joint1
- fr3_joint2
- fr3_joint3
- fr3_joint4
- fr3_joint5
- fr3_joint6
- fr3_joint7
- fr3_finger_joint1
- fr3_finger_joint2
position:
- -0.04832954315562905
- -0.15642940601009403
- 0.2510867971489238
- -2.097297429467717
- 0.16696885222039123
- 2.004226166551753
- 0.13171904094098705
- 0.0
- 0.0
velocity:
- 0.02095068103304722
- 0.019678020423730198
- 0.10139213511940309
- -0.0021370178259355072
- 0.09185043084778727
- 0.05992846132524471
- 0.09656503127216945
- 0.0
- 0.0
effort:
- 0.678105354309082
- -24.057283401489258
- -0.9590262770652771
- 22.899030685424805
- 1.4813419580459595
- 2.4968416690826416
- 0.404549241065979
- 0.0
- 0.0
---
header:
  stamp:
    sec: 1756282397
    nanosec: 138575044
  frame_id: ''
name:
- fr3_joint1
- fr3_joint2
- fr3_joint3
- fr3_joint4
- fr3_joint5
- fr3_joint6
- fr3_joint7
- fr3_finger_joint1
- fr3_finger_joint2
position:
- -0.04755031215594531
- -0.15581856134294128
- 0.254525790011524
- -2.0973738228355825
- 0.17000758764447277
- 2.006201041301082
- 0.13446346425119765
- 0.0
- 0.0
velocity:
- 0.02485435782285475
- 0.0167834547117945
- 0.10384961216199438
- -0.0029679991021004603
- 0.09450315072447335
- 0.059647887084102603
- 0.07776888276051427
- 0.0
- 0.0
effort:
- 0.44800281524658203
- -24.029512405395508
- -1.2446708679199219
- 22.978376388549805
- 1.4612003564834595
- 2.4702913761138916
- 0.404549241065979
- 0.0
- 0.0
---
header:
  stamp:
    sec: 1756282397
    nanosec: 171891794
  frame_id: ''
name:
- fr3_joint1
- fr3_joint2
- fr3_joint3
- fr3_joint4
- fr3_joint5
- fr3_joint6
- fr3_joint7
- fr3_finger_joint1
- fr3_finger_joint2
position:
- -0.046804250571151534
- -0.15523388510241476
- 0.2581744567629974
- -2.0974573508048664
- 0.1732002262921863
- 2.0083541004930145
- 0.13728557408117126
- 0.0
- 0.0
velocity:
- 0.02001290805923891
- 0.017320866041265637
- 0.11053677930004494
- -0.002773921413957836
- 0.08838881304419469
- 0.06651277199456555
- 0.09026904111724943
- 0.0
- 0.0
effort:
- 0.729680061340332
- -24.057283401489258
- -1.0383720397949219
- 22.950605392456055
- 1.4813419580459595
- 2.4831087589263916
- 0.323067307472229
- 0.0
- 0.0
---
header:
  stamp:
    sec: 1756282397
    nanosec: 205623563
  frame_id: ''
name:
- fr3_joint1
- fr3_joint2
- fr3_joint3
- fr3_joint4
- fr3_joint5
- fr3_joint6
- fr3_joint7
- fr3_finger_joint1
- fr3_finger_joint2
position:
- -0.04615652694961144
- -0.1547501801555493
- 0.26136780078643307
- -2.097513761490289
- 0.17596871874780726
- 2.0104669249801894
- 0.13987964385683072
- 0.0
- 0.0
velocity:
- 0.022132533019285326
- 0.01604865149735166
- 0.10640611668130363
- -0.0009090532135639743
- 0.0948736920968606
- 0.07183291686803481
- 0.08618551627275799
- 0.0
- 0.0
effort:
- 0.729680061340332
- -24.057283401489258
- -0.9867972731590271
- 22.950605392456055
- 1.4813419580459595
- 2.4629671573638916
- 0.370674729347229
- 0.0
- 0.0
---
header:
  stamp:
    sec: 1756282397
    nanosec: 238575972
  frame_id: ''
name:
- fr3_joint1
- fr3_joint2
- fr3_joint3
- fr3_joint4
- fr3_joint5
- fr3_joint6
- fr3_joint7
- fr3_finger_joint1
- fr3_finger_joint2
position:
- -0.04524938277251205
- -0.15418484241977096
- 0.2650781819478988
- -2.097571711093245
- 0.17935628520765876
- 2.0128692801387538
- 0.14344075995053046
- 0.0
- 0.0
velocity:
- 0.025297181490498016
- 0.014652557264814584
- 0.10419492613132002
- -0.003154708884736653
- 0.09542424449833198
- 0.06415088028842393
- 0.10100292003083892
- 0.0
- 0.0
effort:
- 0.626530647277832
- -23.850984573364258
- -1.0106010437011719
- 22.875226974487305
- 1.4877506494522095
- 2.4629671573638916
- 0.370674729347229
- 0.0
- 0.0
---
header:
  stamp:
    sec: 1756282397
    nanosec: 272066241
  frame_id: ''
name:
- fr3_joint1
- fr3_joint2
- fr3_joint3
- fr3_joint4
- fr3_joint5
- fr3_joint6
- fr3_joint7
- fr3_finger_joint1
- fr3_finger_joint2
position:
- -0.0443305368372462
- -0.153613051287225
- 0.26852553500931026
- -2.097608194370615
- 0.18262255353613607
- 2.0150584680831614
- 0.14681963886396313
- 0.0
- 0.0
velocity:
- 0.029411496422369326
- 0.01876404630664166
- 0.10025105107210296
- -0.0016861590851302527
- 0.0957521530650223
- 0.06299898903942114
- 0.09904272031780081
- 0.0
- 0.0
effort:
- 0.49957752227783203
- -24.005708694458008
- -1.1137504577636719
- 22.847455978393555
- 1.4282413721084595
- 2.4501497745513916
- 0.390816330909729
- 0.0
- 0.0
---
header:
  stamp:
    sec: 1756282397
    nanosec: 305248421
  frame_id: ''
name:
- fr3_joint1
- fr3_joint2
- fr3_joint3
- fr3_joint4
- fr3_joint5
- fr3_joint6
- fr3_joint7
- fr3_finger_joint1
- fr3_finger_joint2
position:
- -0.04352139663699717
- -0.15303647956478242
- 0.27206937556002436
- -2.097649455562355
- 0.18575385659900834
- 2.017078153740726
- 0.14991981213191094
- 0.0
- 0.0
velocity:
- 0.02353320661345606
- 0.017093490873475822
- 0.10309931721634479
- -0.001149082278007776
- 0.09457049515235154
- 0.056897584720573165
- 0.08729240770904197
- 0.0
- 0.0
effort:
- 0.602726936340332
- -23.878755569458008
- -1.0106010437011719
- 22.819684982299805
- 1.4355655908584595
- 2.4702913761138916
- 0.424690842628479
- 0.0
- 0.0
---
header:
  stamp:
    sec: 1756282397
    nanosec: 338586395
  frame_id: ''
name:
- fr3_joint1
- fr3_joint2
- fr3_joint3
- fr3_joint4
- fr3_joint5
- fr3_joint6
- fr3_joint7
- fr3_finger_joint1
- fr3_finger_joint2
position:
- -0.0428214212053167
- -0.15247705606054313
- 0.275546357644023
- -2.097730328305901
- 0.1889298100904976
- 2.0189349471820246
- 0.15275102043178168
- 0.0
- 0.0
velocity:
- 0.024601446833650727
- 0.017033537260306358
- 0.10298443365839058
- -0.0029251832819670634
- 0.09906390484959093
- 0.056263309853190765
- 0.08011137784141255
- 0.0
- 0.0
effort:
- 0.49957752227783203
- -23.902559280395508
- -1.1415214538574219
- 22.847455978393555
- 1.4282413721084595
- 2.4767000675201416
- 0.384407639503479
- 0.0
- 0.0
---
header:
  stamp:
    sec: 1756282397
    nanosec: 373121731
  frame_id: ''
name:
- fr3_joint1
- fr3_joint2
- fr3_joint3
- fr3_joint4
- fr3_joint5
- fr3_joint6
- fr3_joint7
- fr3_finger_joint1
- fr3_finger_joint2
position:
- -0.042047806819753605
- -0.15190012975461842
- 0.2789723322495412
- -2.0978184768992887
- 0.19214802165679878
- 2.0207631448706547
- 0.15547436318860933
- 0.0
- 0.0
velocity:
- 0.022581566442004576
- 0.01883511232733408
- 0.1054127211959949
- -0.002399710457153112
- 0.09572204042288097
- 0.05591901948553115
- 0.08507902160702588
- 0.0
- 0.0
effort:
- 0.527348518371582
- -23.850984573364258
- -1.1653251647949219
- 22.847455978393555
- 1.3888736963272095
- 2.4428255558013916
- 0.336800217628479
- 0.0
- 0.0
---
header:
  stamp:
    sec: 1756282397
    nanosec: 405409156
  frame_id: ''
name:
- fr3_joint1
- fr3_joint2
- fr3_joint3
- fr3_joint4
- fr3_joint5
- fr3_joint6
- fr3_joint7
- fr3_finger_joint1
- fr3_finger_joint2
position:
- -0.04129447483498102
- -0.1512606280464699
- 0.28267014627353554
- -2.0978816045160227
- 0.1952468662955684
- 2.022757469274358
- 0.15841037307597905
- 0.0
- 0.0
velocity:
- 0.018863708934614205
- 0.019396781235365777
- 0.10890019288629715
- -0.002099128022892157
- 0.08964925182272383
- 0.056780515882208775
- 0.08785762014714796
- 0.0
- 0.0
effort:
- 0.551152229309082
- -23.954133987426758
- -1.1415214538574219
- 22.847455978393555
- 1.4154239892959595
- 2.4501497745513916
- 0.316658616065979
- 0.0
- 0.0
---
header:
  stamp:
    sec: 1756282397
    nanosec: 438590265
  frame_id: ''
name:
- fr3_joint1
- fr3_joint2
- fr3_joint3
- fr3_joint4
- fr3_joint5
- fr3_joint6
- fr3_joint7
- fr3_finger_joint1
- fr3_finger_joint2
position:
- -0.04067706123574
- -0.15069614043568108
- 0.28617940775622946
- -2.097968020244425
- 0.19797008631936322
- 2.024564119213846
- 0.16131680307438503
- 0.0
- 0.0
velocity:
- 0.022403992814920306
- 0.016487649333377367
- 0.10332948154602047
- -0.00270739449484442
- 0.08287948959333166
- 0.054902796993175025
- 0.09784283547022206
- 0.0
- 0.0
effort:
- 0.47577381134033203
- -23.850984573364258
- -1.2684745788574219
- 22.899030685424805
- 1.4419742822647095
- 2.4702913761138916
- 0.350533127784729
- 0.0
- 0.0
---
header:
  stamp:
    sec: 1756282397
    nanosec: 472522257
  frame_id: ''
name:
- fr3_joint1
- fr3_joint2
- fr3_joint3
- fr3_joint4
- fr3_joint5
- fr3_joint6
- fr3_joint7
- fr3_finger_joint1
- fr3_finger_joint2
position:
- -0.04001192488505833
- -0.15011516263928887
- 0.2896771056724408
- -2.0980829185581493
- 0.20100114398871724
- 2.0265866130180172
- 0.16473504586826765
- 0.0
- 0.0
velocity:
- 0.022063078293147784
- 0.01687388634974431
- 0.1030747672332566
- -0.0028913289254151094
- 0.089025136238649
- 0.05942268583706556
- 0.1061051340409979
- 0.0
- 0.0
effort:
- 0.44800281524658203
- -23.850984573364258
- -1.2684745788574219
- 22.926801681518555
- 1.4612003564834595
- 2.4968416690826416
- 0.398140549659729
- 0.0
- 0.0
---
header:
  stamp:
    sec: 1756282397
    nanosec: 505554873
  frame_id: ''
name:
- fr3_joint1
- fr3_joint2
- fr3_joint3
- fr3_joint4
- fr3_joint5
- fr3_joint6
- fr3_joint7
- fr3_finger_joint1
- fr3_finger_joint2
position:
- -0.0393987722998577
- -0.14949067074935257
- 0.2931955791310664
- -2.0981618489755993
- 0.20406627511247774
- 2.028765150755799
- 0.16841614255059928
- 0.0
- 0.0
velocity:
- 0.017389305213258894
- 0.01901910150608045
- 0.10504352497020256
- -0.001787749049711747
- 0.09001876187280776
- 0.06763610012665926
- 0.10612348384474264
- 0.0
- 0.0
effort:
- 0.49957752227783203
- -23.799409866333008
- -1.2446708679199219
- 22.819684982299805
- 1.4547916650772095
- 2.4702913761138916
- 0.302925705909729
- 0.0
- 0.0
---
header:
  stamp:
    sec: 1756282397
    nanosec: 538591473
  frame_id: ''
name:
- fr3_joint1
- fr3_joint2
- fr3_joint3
- fr3_joint4
- fr3_joint5
- fr3_joint6
- fr3_joint7
- fr3_finger_joint1
- fr3_finger_joint2
position:
- -0.038938052835404746
- -0.1488566813138087
- 0.2966788090722708
- -2.0982282926843117
- 0.20705317510492152
- 2.0309213071245353
- 0.17151646697998119
- 0.0
- 0.0
velocity:
- 0.009356888965556207
- 0.018899460109882426
- 0.10964061490221032
- -0.0024415191664661304
- 0.09367679990381257
- 0.05894096252053254
- 0.08730564817553065
- 0.0
- 0.0
effort:
- 0.729680061340332
- -23.799409866333008
- -0.9590262770652771
- 22.819684982299805
- 1.4612003564834595
- 2.4767000675201416
- 0.377083420753479
- 0.0
- 0.0
---
header:
  stamp:
    sec: 1756282397
    nanosec: 571895459
  frame_id: ''
name:
- fr3_joint1
- fr3_joint2
- fr3_joint3
- fr3_joint4
- fr3_joint5
- fr3_joint6
- fr3_joint7
- fr3_finger_joint1
- fr3_finger_joint2
position:
- -0.03854728104943136
- -0.14817320553512517
- 0.30019415435242736
- -2.0982991339379784
- 0.2102541064235419
- 2.0329668950960307
- 0.17422629737981915
- 0.0
- 0.0
velocity:
- 0.010208822725474003
- 0.02100406535967086
- 0.1052834769329732
- -0.002876471062086979
- 0.09769317824822232
- 0.05941655255524648
- 0.08232042052079956
- 0.0
- 0.0
effort:
- 0.757451057434082
- -23.827180862426758
- -1.0106010437011719
- 22.899030685424805
- 1.4483829736709595
- 2.4565584659576416
- 0.295601487159729
- 0.0
- 0.0
---
header:
  stamp:
    sec: 1756282397
    nanosec: 605510215
  frame_id: ''
name:
- fr3_joint1
- fr3_joint2
- fr3_joint3
- fr3_joint4
- fr3_joint5
- fr3_joint6
- fr3_joint7
- fr3_finger_joint1
- fr3_finger_joint2
position:
- -0.038019409700590936
- -0.14747704942964834
- 0.30360213657898494
- -2.098380547876361
- 0.2135065503184158
- 2.0349394647715706
- 0.17720133161763776
- 0.0
- 0.0
velocity:
- 0.01605249755942116
- 0.01980635237181402
- 0.10232116863008306
- -0.003313735781001445
- 0.09383890134029294
- 0.05761829306807836
- 0.0897540929815245
- 0.0
- 0.0
effort:
- 0.602726936340332
- -23.751802444458008
- -1.1415214538574219
- 22.819684982299805
- 1.4154239892959595
- 2.4702913761138916
- 0.336800217628479
- 0.0
- 0.0
---
header:
  stamp:
    sec: 1756282397
    nanosec: 638744880
  frame_id: ''
name:
- fr3_joint1
- fr3_joint2
- fr3_joint3
- fr3_joint4
- fr3_joint5
- fr3_joint6
- fr3_joint7
- fr3_finger_joint1
- fr3_finger_joint2
position:
- -0.0373939608456481
- -0.14676256730994558
- 0.30707812110639265
- -2.0984780747453726
- 0.21658125392875857
- 2.036845738907387
- 0.1800785706015966
- 0.0
- 0.0
velocity:
- 0.020974408526141856
- 0.020877211695329342
- 0.10014495467650543
- -0.0018773064586951281
- 0.08487129162279652
- 0.05553578537848494
- 0.09356517278785251
- 0.0
- 0.0
effort:
- 0.527348518371582
- -23.902559280395508
- -1.3200492858886719
- 22.795881271362305
- 1.4419742822647095
- 2.4501497745513916
- 0.295601487159729
- 0.0
- 0.0
---
header:
  stamp:
    sec: 1756282397
    nanosec: 672614169
  frame_id: ''
name:
- fr3_joint1
- fr3_joint2
- fr3_joint3
- fr3_joint4
- fr3_joint5
- fr3_joint6
- fr3_joint7
- fr3_finger_joint1
- fr3_finger_joint2
position:
- -0.036818540959442744
- -0.14610103414716658
- 0.31048944997793393
- -2.098606317780927
- 0.21963944504482477
- 2.038576423187641
- 0.18318098675355526
- 0.0
- 0.0
velocity:
- 0.015447331202964095
- 0.019399706789358866
- 0.10782751407578521
- -0.004465598445215497
- 0.0927875335442009
- 0.05657284854136888
- 0.10062975675106664
- 0.0
- 0.0
effort:
- 0.781254768371582
- -23.902559280395508
- -1.0899467468261719
- 22.875226974487305
- 1.4282413721084595
- 2.4629671573638916
- 0.377083420753479
- 0.0
- 0.0
---
header:
  stamp:
    sec: 1756282397
    nanosec: 705640169
  frame_id: ''
name:
- fr3_joint1
- fr3_joint2
- fr3_joint3
- fr3_joint4
- fr3_joint5
- fr3_joint6
- fr3_joint7
- fr3_finger_joint1
- fr3_finger_joint2
position:
- -0.03620087057530318
- -0.14543379990630065
- 0.31402511974683217
- -2.0987279800123773
- 0.22289286653787965
- 2.040486182711679
- 0.1866756755420413
- 0.0
- 0.0
velocity:
- 0.021903643160411126
- 0.019528188181495817
- 0.10450604433675711
- -0.003349002118159897
- 0.09442001680377522
- 0.058836071915892234
- 0.10431839605790097
- 0.0
- 0.0
effort:
- 0.678105354309082
- -23.850984573364258
- -1.1415214538574219
- 22.899030685424805
- 1.4547916650772095
- 2.4565584659576416
- 0.404549241065979
- 0.0
- 0.0
---
header:
  stamp:
    sec: 1756282397
    nanosec: 738607458
  frame_id: ''
name:
- fr3_joint1
- fr3_joint2
- fr3_joint3
- fr3_joint4
- fr3_joint5
- fr3_joint6
- fr3_joint7
- fr3_finger_joint1
- fr3_finger_joint2
position:
- -0.03549070315684495
- -0.14480825552756157
- 0.31741395937872824
- -2.098862072987523
- 0.22590479066702088
- 2.042412458531218
- 0.18975317505422043
- 0.0
- 0.0
velocity:
- 0.02078281302475528
- 0.019499055987851805
- 0.10734207019025517
- -0.0030383234441418152
- 0.08859693565644092
- 0.057366365876918436
- 0.0854968363334649
- 0.0
- 0.0
effort:
- 0.527348518371582
- -23.878755569458008
- -1.2684745788574219
- 22.899030685424805
- 1.4612003564834595
- 2.4895174503326416
- 0.390816330909729
- 0.0
- 0.0
---
header:
  stamp:
    sec: 1756282397
    nanosec: 772481020
  frame_id: ''
name:
- fr3_joint1
- fr3_joint2
- fr3_joint3
- fr3_joint4
- fr3_joint5
- fr3_joint6
- fr3_joint7
- fr3_finger_joint1
- fr3_finger_joint2
position:
- -0.03470866422088008
- -0.14417510317763504
- 0.3209654714444503
- -2.0989685593971292
- 0.22888533542332395
- 2.0443824769357324
- 0.19242993018754162
- 0.0
- 0.0
velocity:
- 0.02367750410839754
- 0.021125454405655924
- 0.10541960223724683
- -0.001878835691224299
- 0.08825562135697303
- 0.055501351953914195
- 0.07589205883601417
- 0.0
- 0.0
effort:
- 0.527348518371582
- -23.751802444458008
- -1.3200492858886719
- 22.847455978393555
- 1.4676090478897095
- 2.4702913761138916
- 0.323067307472229
- 0.0
- 0.0
---
header:
  stamp:
    sec: 1756282397
    nanosec: 805264065
  frame_id: ''
name:
- fr3_joint1
- fr3_joint2
- fr3_joint3
- fr3_joint4
- fr3_joint5
- fr3_joint6
- fr3_joint7
- fr3_finger_joint1
- fr3_finger_joint2
position:
- -0.03409175356783594
- -0.1435345797630192
- 0.3245454557984061
- -2.099057316239865
- 0.23198891715087727
- 2.046374643009667
- 0.19498993122951935
- 0.0
- 0.0
velocity:
- 0.01722305865802471
- 0.02012728272986849
- 0.10337133651848728
- -0.001962544328498396
- 0.0895814274693461
- 0.061927245603936004
- 0.07822518257328161
- 0.0
- 0.0
effort:
- 0.705876350402832
- -23.751802444458008
- -1.1415214538574219
- 22.768110275268555
- 1.4547916650772095
- 2.4767000675201416
- 0.323067307472229
- 0.0
- 0.0
---
header:
  stamp:
    sec: 1756282397
    nanosec: 838532159
  frame_id: ''
name:
- fr3_joint1
- fr3_joint2
- fr3_joint3
- fr3_joint4
- fr3_joint5
- fr3_joint6
- fr3_joint7
- fr3_finger_joint1
- fr3_finger_joint2
position:
- -0.033485915787133926
- -0.14290175638452454
- 0.32796018133000693
- -2.0991586176187353
- 0.23495023870913442
- 2.0484742420437683
- 0.1976960915048889
- 0.0
- 0.0
velocity:
- 0.021871998655886793
- 0.019163492251850416
- 0.1028339620390816
- -0.001775803901706399
- 0.09054993006113089
- 0.06995626490937151
- 0.08854946521860826
- 0.0
- 0.0
effort:
- 0.527348518371582
- -23.775606155395508
- -1.2684745788574219
- 22.819684982299805
- 1.4355655908584595
- 2.4831087589263916
- 0.329475998878479
- 0.0
- 0.0
---
header:
  stamp:
    sec: 1756282397
    nanosec: 872527764
  frame_id: ''
name:
- fr3_joint1
- fr3_joint2
- fr3_joint3
- fr3_joint4
- fr3_joint5
- fr3_joint6
- fr3_joint7
- fr3_finger_joint1
- fr3_finger_joint2
position:
- -0.032718650111895224
- -0.1422926456881535
- 0.33140332774927767
- -2.09930114708687
- 0.23790873847466645
- 2.0507572481888583
- 0.2009058817043811
- 0.0
- 0.0
velocity:
- 0.021823284895124636
- 0.01794580350364776
- 0.10476078778141236
- -0.004199062840317697
- 0.08735765641587137
- 0.06418374337079726
- 0.10011488098641987
- 0.0
- 0.0
effort:
- 0.705876350402832
- -23.827180862426758
- -1.1415214538574219
- 22.950605392456055
- 1.4676090478897095
- 2.4702913761138916
- 0.289192795753479
- 0.0
- 0.0
---
header:
  stamp:
    sec: 1756282397
    nanosec: 905235836
  frame_id: ''
name:
- fr3_joint1
- fr3_joint2
- fr3_joint3
- fr3_joint4
- fr3_joint5
- fr3_joint6
- fr3_joint7
- fr3_finger_joint1
- fr3_finger_joint2
position:
- -0.031909327602153724
- -0.14171196673635975
- 0.33494521825627355
- -2.099424495352924
- 0.24104127644623655
- 2.052948181022085
- 0.20425739368458637
- 0.0
- 0.0
velocity:
- 0.023093136622477542
- 0.017325367991431508
- 0.10680149763901917
- -0.003975914583732569
- 0.09140683077733638
- 0.0648461064387942
- 0.10288648786584295
- 0.0
- 0.0
effort:
- 0.729680061340332
- -23.775606155395508
- -1.1653251647949219
- 22.926801681518555
- 1.4676090478897095
- 2.4831087589263916
- 0.350533127784729
- 0.0
- 0.0
---
header:
  stamp:
    sec: 1756282397
    nanosec: 938555462
  frame_id: ''
name:
- fr3_joint1
- fr3_joint2
- fr3_joint3
- fr3_joint4
- fr3_joint5
- fr3_joint6
- fr3_joint7
- fr3_finger_joint1
- fr3_finger_joint2
position:
- -0.03116173315270597
- -0.1411867419050211
- 0.3384370405983917
- -2.099523104652373
- 0.24411107600173257
- 2.0549984164012143
- 0.20776267618732322
- 0.0
- 0.0
velocity:
- 0.023922813313304644
- 0.014950080280826252
- 0.1027739104469856
- -0.004400708033104472
- 0.09211563124531999
- 0.06101191554146762
- 0.10718285131905103
- 0.0
- 0.0
effort:
- 0.578923225402832
- -23.724031448364258
- -1.2962455749511719
- 22.926801681518555
- 1.4612003564834595
- 2.4895174503326416
- 0.336800217628479
- 0.0
- 0.0
---
header:
  stamp:
    sec: 1756282397
    nanosec: 972644542
  frame_id: ''
name:
- fr3_joint1
- fr3_joint2
- fr3_joint3
- fr3_joint4
- fr3_joint5
- fr3_joint6
- fr3_joint7
- fr3_finger_joint1
- fr3_finger_joint2
position:
- -0.030335285468081757
- -0.14065309926954525
- 0.3419504971886758
- -2.0995892082311145
- 0.24724810125026025
- 2.0569340867852786
- 0.21094932614597975
- 0.0
- 0.0
velocity:
- 0.02470311906457291
- 0.014413542372794973
- 0.1044962611976999
- -0.001527210782593095
- 0.09274858261171184
- 0.05497920395664484
- 0.09099896806618107
- 0.0
- 0.0
effort:
- 0.551152229309082
- -23.724031448364258
- -1.2962455749511719
- 22.899030685424805
- 1.4676090478897095
- 2.4565584659576416
- 0.316658616065979
- 0.0
- 0.0
---
header:
  stamp:
    sec: 1756282398
    nanosec: 5544656
  frame_id: ''
name:
- fr3_joint1
- fr3_joint2
- fr3_joint3
- fr3_joint4
- fr3_joint5
- fr3_joint6
- fr3_joint7
- fr3_finger_joint1
- fr3_finger_joint2
position:
- -0.02955629832793007
- -0.14014193014614573
- 0.3455264285097249
- -2.0996680465813093
- 0.2504232453402949
- 2.058848701091971
- 0.21365236167966056
- 0.0
- 0.0
velocity:
- 0.024028694679385995
- 0.015549669493922735
- 0.10776472090422139
- -0.0010240472732983682
- 0.0973853759497158
- 0.05745012026051737
- 0.08239928956574455
- 0.0
- 0.0
effort:
- 0.551152229309082
- -23.672456741333008
- -1.3716239929199219
- 22.875226974487305
- 1.4740177392959595
- 2.4629671573638916
- 0.295601487159729
- 0.0
- 0.0
---
header:
  stamp:
    sec: 1756282398
    nanosec: 38622705
  frame_id: ''
name:
- fr3_joint1
- fr3_joint2
- fr3_joint3
- fr3_joint4
- fr3_joint5
- fr3_joint6
- fr3_joint7
- fr3_finger_joint1
- fr3_finger_joint2
position:
- -0.028941151537714812
- -0.13966061419328313
- 0.34907429891077313
- -2.0997472419178194
- 0.253422325031908
- 2.060733342680553
- 0.21636247358964691
- 0.0
- 0.0
velocity:
- 0.014163764694470365
- 0.01509512386786646
- 0.11108568484246537
- -0.002193774616934631
- 0.09183896361024353
- 0.05974439319882551
- 0.08416465262428968
- 0.0
- 0.0
effort:
- 0.757451057434082
- -23.545503616333008
- -1.0899467468261719
- 22.847455978393555
- 1.4813419580459595
- 2.4629671573638916
- 0.336800217628479
- 0.0
- 0.0
---
header:
  stamp:
    sec: 1756282398
    nanosec: 71885275
  frame_id: ''
name:
- fr3_joint1
- fr3_joint2
- fr3_joint3
- fr3_joint4
- fr3_joint5
- fr3_joint6
- fr3_joint7
- fr3_finger_joint1
- fr3_finger_joint2
position:
- -0.028336153560411168
- -0.13910391052444335
- 0.3525937246241732
- -2.0997957413971142
- 0.25656714617023085
- 2.0627575228025443
- 0.21933051774397147
- 0.0
- 0.0
velocity:
- 0.016157650950460928
- 0.016522934794749887
- 0.10553578285757237
- 0.001298036285013614
- 0.0921619849828668
- 0.05882489315856988
- 0.09474990663587989
- 0.0
- 0.0
effort:
- 0.757451057434082
- -23.521699905395508
- -1.1137504577636719
- 22.768110275268555
- 1.4547916650772095
- 2.4364168643951416
- 0.323067307472229
- 0.0
- 0.0
---
header:
  stamp:
    sec: 1756282398
    nanosec: 105284920
  frame_id: ''
name:
- fr3_joint1
- fr3_joint2
- fr3_joint3
- fr3_joint4
- fr3_joint5
- fr3_joint6
- fr3_joint7
- fr3_finger_joint1
- fr3_finger_joint2
position:
- -0.027674243170266715
- -0.1384927014078136
- 0.3560484010237648
- -2.0998627407502926
- 0.25988980996324096
- 2.064689510017592
- 0.22268451363450162
- 0.0
- 0.0
velocity:
- 0.01918599584203853
- 0.018913405718445013
- 0.10337669224337795
- -0.003623088753237102
- 0.09892890750243555
- 0.06060594731835509
- 0.10082103884232783
- 0.0
- 0.0
effort:
- 0.654301643371582
- -23.521699905395508
- -1.3200492858886719
- 22.875226974487305
- 1.4419742822647095
- 2.4831087589263916
- 0.350533127784729
- 0.0
- 0.0
---
header:
  stamp:
    sec: 1756282398
    nanosec: 138601312
  frame_id: ''
name:
- fr3_joint1
- fr3_joint2
- fr3_joint3
- fr3_joint4
- fr3_joint5
- fr3_joint6
- fr3_joint7
- fr3_finger_joint1
- fr3_finger_joint2
position:
- -0.02695508122865826
- -0.13789886883063163
- 0.35943711931587785
- -2.0999450854084514
- 0.2629818821991505
- 2.0665880316437555
- 0.22582633570101227
- 0.0
- 0.0
velocity:
- 0.022516609108981473
- 0.018094688066216055
- 0.10313017617758946
- -0.002032895595819291
- 0.09257590593816838
- 0.05880388262166644
- 0.09517040208247886
- 0.0
- 0.0
effort:
- 0.37262439727783203
- -23.573274612426758
- -1.5263481140136719
- 22.875226974487305
- 1.4419742822647095
- 2.4501497745513916
- 0.356941819190979
- 0.0
- 0.0
---
header:
  stamp:
    sec: 1756282398
    nanosec: 172686644
  frame_id: ''
name:
- fr3_joint1
- fr3_joint2
- fr3_joint3
- fr3_joint4
- fr3_joint5
- fr3_joint6
- fr3_joint7
- fr3_finger_joint1
- fr3_finger_joint2
position:
- -0.02636454777864169
- -0.13730315331085605
- 0.36307875370317777
- -2.100063426346527
- 0.26611669822096684
- 2.068649375709799
- 0.22883241275117683
- 0.0
- 0.0
velocity:
- 0.016713318697562683
- 0.018062471374038915
- 0.10650427321855013
- -0.003630042981104871
- 0.09291136355897837
- 0.06401740979910601
- 0.08667564827991428
- 0.0
- 0.0
effort:
- 0.626530647277832
- -23.497896194458008
- -1.2684745788574219
- 22.875226974487305
- 1.4090152978897095
- 2.4565584659576416
- 0.323067307472229
- 0.0
- 0.0
---
header:
  stamp:
    sec: 1756282398
    nanosec: 205237588
  frame_id: ''
name:
- fr3_joint1
- fr3_joint2
- fr3_joint3
- fr3_joint4
- fr3_joint5
- fr3_joint6
- fr3_joint7
- fr3_finger_joint1
- fr3_finger_joint2
position:
- -0.025849016101978033
- -0.13665410452151203
- 0.36666291737563517
- -2.100148198432087
- 0.2692942751801361
- 2.070696391916066
- 0.231653193061687
- 0.0
- 0.0
velocity:
- 0.014010536087553255
- 0.02017993594015772
- 0.10614671706703802
- -0.002064648621485894
- 0.09686007268760921
- 0.057602304356497346
- 0.0811798916366345
- 0.0
- 0.0
effort:
- 0.578923225402832
- -23.418550491333008
- -1.4509696960449219
- 22.875226974487305
- 1.4355655908584595
- 2.5096590518951416
- 0.350533127784729
- 0.0
- 0.0
---
header:
  stamp:
    sec: 1756282398
    nanosec: 239056546
  frame_id: ''
name:
- fr3_joint1
- fr3_joint2
- fr3_joint3
- fr3_joint4
- fr3_joint5
- fr3_joint6
- fr3_joint7
- fr3_finger_joint1
- fr3_finger_joint2
position:
- -0.025275970481760585
- -0.13593758615438295
- 0.3701677323140644
- -2.100197767042434
- 0.2723702467235652
- 2.0727786009688405
- 0.23438846005454667
- 0.0
- 0.0
velocity:
- 0.016649470370049393
- 0.021414320359342216
- 0.10417752115897369
- -0.0015453173585197129
- 0.08662058495296146
- 0.06035725654726069
- 0.08037160465306925
- 0.0
- 0.0
effort:
- 0.49957752227783203
- -23.418550491333008
- -1.5025444030761719
- 22.819684982299805
- 1.4026066064834595
- 2.4565584659576416
- 0.377083420753479
- 0.0
- 0.0
---
header:
  stamp:
    sec: 1756282398
    nanosec: 271977226
  frame_id: ''
name:
- fr3_joint1
- fr3_joint2
- fr3_joint3
- fr3_joint4
- fr3_joint5
- fr3_joint6
- fr3_joint7
- fr3_finger_joint1
- fr3_finger_joint2
position:
- -0.02474015249020816
- -0.1351813629392263
- 0.37355064666606924
- -2.100260685392779
- 0.2751911890899257
- 2.0747364934973103
- 0.23713115054419484
- 0.0
- 0.0
velocity:
- 0.017503102647104793
- 0.02345098732323391
- 0.10138404541225322
- -0.0037545075548754583
- 0.08165678247303583
- 0.060481181598331615
- 0.08712377971167681
- 0.0
- 0.0
effort:
- 0.44800281524658203
- -23.366975784301758
- -1.4231986999511719
- 22.819684982299805
- 1.4419742822647095
- 2.4501497745513916
- 0.329475998878479
- 0.0
- 0.0
---
header:
  stamp:
    sec: 1756282398
    nanosec: 305546549
  frame_id: ''
name:
- fr3_joint1
- fr3_joint2
- fr3_joint3
- fr3_joint4
- fr3_joint5
- fr3_joint6
- fr3_joint7
- fr3_finger_joint1
- fr3_finger_joint2
position:
- -0.02429669428118951
- -0.13434145741289147
- 0.3770211365683778
- -2.1003214290861285
- 0.27809677355057016
- 2.076646792041142
- 0.24017759495271232
- 0.0
- 0.0
velocity:
- 0.016201115834325812
- 0.02627152438549734
- 0.0986631800512666
- -0.00011205638601456051
- 0.09162658899747897
- 0.052685929688639756
- 0.0947558976552141
- 0.0
- 0.0
effort:
- 0.729680061340332
- -23.319368362426758
- -1.1930961608886719
- 22.768110275268555
- 1.4547916650772095
- 2.4364168643951416
- 0.356941819190979
- 0.0
- 0.0
---
header:
  stamp:
    sec: 1756282398
    nanosec: 338698087
  frame_id: ''
name:
- fr3_joint1
- fr3_joint2
- fr3_joint3
- fr3_joint4
- fr3_joint5
- fr3_joint6
- fr3_joint7
- fr3_finger_joint1
- fr3_finger_joint2
position:
- -0.023766964979425702
- -0.1334493817383977
- 0.3804336397334943
- -2.1004159060174743
- 0.28131002603240496
- 2.0784372943328635
- 0.2437056815786166
- 0.0
- 0.0
velocity:
- 0.01823271623974239
- 0.026277541827152077
- 0.0988915261561613
- -0.0034494052550632604
- 0.09551987811549165
- 0.05040536806957894
- 0.1125620894386435
- 0.0
- 0.0
effort:
- 0.729680061340332
- -23.497896194458008
- -1.2168998718261719
- 22.847455978393555
- 1.4419742822647095
- 2.4565584659576416
- 0.289192795753479
- 0.0
- 0.0
---
header:
  stamp:
    sec: 1756282398
    nanosec: 371910291
  frame_id: ''
name:
- fr3_joint1
- fr3_joint2
- fr3_joint3
- fr3_joint4
- fr3_joint5
- fr3_joint6
- fr3_joint7
- fr3_finger_joint1
- fr3_finger_joint2
position:
- -0.02307740470041276
- -0.13264783296086619
- 0.38370362058102736
- -2.1005512152841286
- 0.28431524801796254
- 2.0801638261286555
- 0.24725963741340978
- 0.0
- 0.0
velocity:
- 0.023189260989923088
- 0.024342438223388416
- 0.1017608518289947
- -0.0032417004710220934
- 0.0906301970850514
- 0.05266079942402825
- 0.10133001477531309
- 0.0
- 0.0
effort:
- 0.757451057434082
- -23.521699905395508
- -1.1653251647949219
- 22.875226974487305
- 1.4355655908584595
- 2.4895174503326416
- 0.323067307472229
- 0.0
- 0.0
---
header:
  stamp:
    sec: 1756282398
    nanosec: 405290403
  frame_id: ''
name:
- fr3_joint1
- fr3_joint2
- fr3_joint3
- fr3_joint4
- fr3_joint5
- fr3_joint6
- fr3_joint7
- fr3_finger_joint1
- fr3_finger_joint2
position:
- -0.0223091188762399
- -0.13187227408884938
- 0.38721549742213834
- -2.100694002194848
- 0.287455157566449
- 2.0820902186246695
- 0.250338649833017
- 0.0
- 0.0
velocity:
- 0.020421322247118658
- 0.02158224213944695
- 0.10948909294214754
- -0.004757940165998856
- 0.0914331550265321
- 0.06095049335212148
- 0.0816316738337495
- 0.0
- 0.0
effort:
- 0.781254768371582
- -23.497896194458008
- -1.2168998718261719
- 22.978376388549805
- 1.4483829736709595
- 2.4895174503326416
- 0.350533127784729
- 0.0
- 0.0
---
header:
  stamp:
    sec: 1756282398
    nanosec: 438743292
  frame_id: ''
name:
- fr3_joint1
- fr3_joint2
- fr3_joint3
- fr3_joint4
- fr3_joint5
- fr3_joint6
- fr3_joint7
- fr3_finger_joint1
- fr3_finger_joint2
position:
- -0.021542782862578592
- -0.1311681032796456
- 0.39083936630677596
- -2.1008195614311167
- 0.2907442518509201
- 2.0841832566221945
- 0.25301007322885044
- 0.0
- 0.0
velocity:
- 0.02312241187737661
- 0.01925873913845509
- 0.10471084546696334
- -0.0013403046178218888
- 0.09345545547680274
- 0.06045467728689971
- 0.08677385428118421
- 0.0
- 0.0
effort:
- 0.705876350402832
- -23.366975784301758
- -1.2684745788574219
- 22.819684982299805
- 1.4218326807022095
- 2.4831087589263916
- 0.343208909034729
- 0.0
- 0.0
---
header:
  stamp:
    sec: 1756282398
    nanosec: 471904826
  frame_id: ''
name:
- fr3_joint1
- fr3_joint2
- fr3_joint3
- fr3_joint4
- fr3_joint5
- fr3_joint6
- fr3_joint7
- fr3_finger_joint1
- fr3_finger_joint2
position:
- -0.020771895572029228
- -0.13054293668462108
- 0.39430878922409834
- -2.100915283184867
- 0.2937131523846305
- 2.0861942933801982
- 0.2557787066301011
- 0.0
- 0.0
velocity:
- 0.025400007338763797
- 0.01737999733558298
- 0.10475526760408439
- -0.002206661786687418
- 0.09270999976585648
- 0.06228177771636394
- 0.08560989401197967
- 0.0
- 0.0
effort:
- 0.602726936340332
- -23.394746780395508
- -1.3200492858886719
- 22.899030685424805
- 1.4282413721084595
- 2.4702913761138916
- 0.398140549659729
- 0.0
- 0.0
---
header:
  stamp:
    sec: 1756282398
    nanosec: 505259720
  frame_id: ''
name:
- fr3_joint1
- fr3_joint2
- fr3_joint3
- fr3_joint4
- fr3_joint5
- fr3_joint6
- fr3_joint7
- fr3_finger_joint1
- fr3_finger_joint2
position:
- -0.019939118196833513
- -0.1299334726129714
- 0.39790330785322403
- -2.101002296531863
- 0.2967213619812688
- 2.0884827256378427
- 0.2585711350203861
- 0.0
- 0.0
velocity:
- 0.02589059446286128
- 0.01889453430683559
- 0.10544245735344207
- -0.002095037021259889
- 0.09449802754692599
- 0.07044626676029002
- 0.08855853340157228
- 0.0
- 0.0
effort:
- 0.578923225402832
- -23.394746780395508
- -1.3993949890136719
- 22.899030685424805
- 1.4355655908584595
- 2.4767000675201416
- 0.377083420753479
- 0.0
- 0.0
---
header:
  stamp:
    sec: 1756282398
    nanosec: 538576327
  frame_id: ''
name:
- fr3_joint1
- fr3_joint2
- fr3_joint3
- fr3_joint4
- fr3_joint5
- fr3_joint6
- fr3_joint7
- fr3_finger_joint1
- fr3_finger_joint2
