header:
  stamp:
    sec: 1756278221
    nanosec: 633941778
  frame_id: ''
name:
- fr3_joint1
- fr3_joint2
- fr3_joint3
- fr3_joint4
- fr3_joint5
- fr3_joint6
- fr3_joint7
- fr3_finger_joint1
- fr3_finger_joint2
position:
- 0.04238417190463006
- -0.1631652202376249
- -0.14374620208014005
- -1.443071153702694
- 0.0849073121811651
- 1.7165790529858544
- 0.13365558899457555
- 0.0
- 0.0
velocity:
- 0.14215973723793765
- -0.035263298960222386
- -0.060191159148364634
- 0.08939680779045722
- 0.03733709745607837
- 0.08651535262491915
- 0.19197700652559618
- 0.0
- 0.0
effort:
- 0.678105354309082
- -23.648653030395508
- 0.1518135666847229
- 21.093915939331055
- 1.3824650049209595
- 2.8831942081451416
- 0.350533127784729
- 0.0
- 0.0
---
header:
  stamp:
    sec: 1756278221
    nanosec: 667251094
  frame_id: ''
name:
- fr3_joint1
- fr3_joint2
- fr3_joint3
- fr3_joint4
- fr3_joint5
- fr3_joint6
- fr3_joint7
- fr3_finger_joint1
- fr3_finger_joint2
position:
- 0.047783143823899005
- -0.16444325262553397
- -0.1461401616775881
- -1.4399019404255688
- 0.08629850727683999
- 1.719443905069794
- 0.14003751239295797
- 0.0
- 0.0
velocity:
- 0.1618813874650474
- -0.038035054135293025
- -0.0711846455690611
- 0.08993714861606221
- 0.042818091026751576
- 0.08166904199493433
- 0.19494586325774318
- 0.0
- 0.0
effort:
- 0.908207893371582
- -23.446321487426758
- 0.5168038010597229
- 20.804304122924805
- 1.3961979150772095
- 2.8630526065826416
- 0.295601487159729
- 0.0
- 0.0
---
header:
  stamp:
    sec: 1756278221
    nanosec: 700841706
  frame_id: ''
name:
- fr3_joint1
- fr3_joint2
- fr3_joint3
- fr3_joint4
- fr3_joint5
- fr3_joint6
- fr3_joint7
- fr3_finger_joint1
- fr3_finger_joint2
position:
- 0.052908533141600454
- -0.1657269072459041
- -0.14845645296802595
- -1.4369338137474117
- 0.08763173135492126
- 1.7221436992177939
- 0.14698015708089454
- 0.0
- 0.0
velocity:
- 0.1540332446260634
- -0.04100089015520692
- -0.06573977726666468
- 0.08477057801758126
- 0.040695488495726864
- 0.0862586068263453
- 0.21952039751949204
- 0.0
- 0.0
effort:
- 0.602726936340332
- -23.089265823364258
- 0.2827339768409729
- 20.304426193237305
- 1.3632389307022095
- 2.7834017276763916
- 0.329475998878479
- 0.0
- 0.0
---
header:
  stamp:
    sec: 1756278221
    nanosec: 733838649
  frame_id: ''
name:
- fr3_joint1
- fr3_joint2
- fr3_joint3
- fr3_joint4
- fr3_joint5
- fr3_joint6
- fr3_joint7
- fr3_finger_joint1
- fr3_finger_joint2
position:
- 0.05797078803782721
- -0.16707435030916973
- -0.15061362951607302
- -1.4341629081358955
- 0.0889779389291555
- 1.7246348235935747
- 0.15353542999187839
- 0.0
- 0.0
velocity:
- 0.1602766958247149
- -0.037226282238212206
- -0.07324310157084972
- 0.08743698186455902
- 0.0420471591588588
- 0.07367505414522402
- 0.1935877354052124
- 0.0
- 0.0
effort:
- 0.578923225402832
- -22.708406448364258
- 0.2311592698097229
- 20.752729415893555
- 1.3696476221084595
- 2.8831942081451416
- 0.261726975440979
- 0.0
- 0.0
---
header:
  stamp:
    sec: 1756278221
    nanosec: 767310966
  frame_id: ''
name:
- fr3_joint1
- fr3_joint2
- fr3_joint3
- fr3_joint4
- fr3_joint5
- fr3_joint6
- fr3_joint7
- fr3_finger_joint1
- fr3_finger_joint2
position:
- 0.06366572969023215
- -0.16834423061966622
- -0.15329595841836066
- -1.431167676170701
- 0.09042837248589465
- 1.7274026495474515
- 0.1600443790258069
- 0.0
- 0.0
velocity:
- 0.15811284608551132
- -0.036641710661759586
- -0.07555808741087942
- 0.08795270112242105
- 0.04336125400284545
- 0.08323528416020122
- 0.19385442048084317
- 0.0
- 0.0
effort:
- 0.602726936340332
- -22.680635452270508
- 0.3858833909034729
- 20.566267013549805
- 1.3110538721084595
- 2.8493196964263916
- 0.329475998878479
- 0.0
- 0.0
---
header:
  stamp:
    sec: 1756278221
    nanosec: 800517484
  frame_id: ''
name:
- fr3_joint1
- fr3_joint2
- fr3_joint3
- fr3_joint4
- fr3_joint5
- fr3_joint6
- fr3_joint7
- fr3_finger_joint1
- fr3_finger_joint2
position:
- 0.06860711111052857
- -0.16934412119425288
- -0.15550795027704895
- -1.4281766800921394
- 0.09180385788795384
- 1.7300900230099543
- 0.1670685618455882
- 0.0
- 0.0
velocity:
- 0.1523877235419131
- -0.030070230259638384
- -0.06527944345375235
- 0.09215732594738359
- 0.045891124917974827
- 0.08003421003106033
- 0.22911386129703754
- 0.0
- 0.0
effort:
- 0.551152229309082
- -22.708406448364258
- 0.2827339768409729
- 20.435346603393555
- 1.3302799463272095
- 2.8429110050201416
- 0.336800217628479
- 0.0
- 0.0
---
header:
  stamp:
    sec: 1756278221
    nanosec: 833895115
  frame_id: ''
name:
- fr3_joint1
- fr3_joint2
- fr3_joint3
- fr3_joint4
- fr3_joint5
- fr3_joint6
- fr3_joint7
- fr3_finger_joint1
- fr3_finger_joint2
position:
- 0.07382236982892737
- -0.17030774206327756
- -0.1577018657811433
- -1.4250498323061174
- 0.09332225895383989
- 1.7328273134659065
- 0.17390392985455652
- 0.0
- 0.0
velocity:
- 0.16225729338338382
- -0.03046912428084843
- -0.0664197661369759
- 0.09161875988414216
- 0.042246013243111676
- 0.08726417989126103
- 0.18505377530742365
- 0.0
- 0.0
effort:
- 0.832829475402832
- -22.656831741333008
- 0.4652290940284729
- 20.332197189331055
- 1.3568302392959595
- 2.8566439151763916
- 0.269051194190979
- 0.0
- 0.0
---
header:
  stamp:
    sec: 1756278221
    nanosec: 867166066
  frame_id: ''
name:
- fr3_joint1
- fr3_joint2
- fr3_joint3
- fr3_joint4
- fr3_joint5
- fr3_joint6
- fr3_joint7
- fr3_finger_joint1
- fr3_finger_joint2
position:
- 0.0792901032168922
- -0.17145360880297594
- -0.15998848840939708
- -1.4221164951615555
- 0.09467903944625156
- 1.7361185514724993
- 0.18062216328077516
- 0.0
- 0.0
velocity:
- 0.15208843675101497
- -0.030880888874288564
- -0.06269364422408229
- 0.08738281004786046
- 0.037123287749979784
- 0.09216707048962611
- 0.20226757862470543
- 0.0
- 0.0
effort:
- 0.44800281524658203
- -22.553682327270508
- 0.0486641526222229
- 20.332197189331055
- 1.3174625635147095
- 2.8163607120513916
- 0.336800217628479
- 0.0
- 0.0
---
header:
  stamp:
    sec: 1756278221
    nanosec: 900550709
  frame_id: ''
name:
- fr3_joint1
- fr3_joint2
- fr3_joint3
- fr3_joint4
- fr3_joint5
- fr3_joint6
- fr3_joint7
- fr3_finger_joint1
- fr3_finger_joint2
position:
- 0.08438268240587929
- -0.1724171500822953
- -0.16204614113282706
- -1.4191726457720295
- 0.09602295351212284
- 1.739024567400738
- 0.18758499005684234
- 0.0
- 0.0
velocity:
- 0.16321664910454617
- -0.03005101412568354
- -0.06901139649263728
- 0.08654344744328138
- 0.040225392501091105
- 0.09203541026936705
- 0.21887628757406502
- 0.0
- 0.0
effort:
- 0.44800281524658203
- -22.633028030395508
- 0.1518135666847229
- 20.435346603393555
- 1.3037296533584595
- 2.8566439151763916
- 0.336800217628479
- 0.0
- 0.0
---
header:
  stamp:
    sec: 1756278221
    nanosec: 934128827
  frame_id: ''
name:
- fr3_joint1
- fr3_joint2
- fr3_joint3
- fr3_joint4
- fr3_joint5
- fr3_joint6
- fr3_joint7
- fr3_finger_joint1
- fr3_finger_joint2
position:
- 0.08996060495409636
- -0.1734118273504616
- -0.16471010821711757
- -1.4161867347845936
- 0.09736941996721743
- 1.7418488947560709
- 0.19405097191784387
- 0.0
- 0.0
velocity:
- 0.1609467568038482
- -0.02784153688782199
- -0.07734344150496063
- 0.08968180604015867
- 0.03830195817146467
- 0.07759682423326972
- 0.16998389651668122
- 0.0
- 0.0
effort:
- 0.49957752227783203
- -22.708406448364258
- 0.3105049729347229
- 20.594038009643555
- 1.2909122705459595
- 2.8960115909576416
- 0.356941819190979
- 0.0
- 0.0
---
header:
  stamp:
    sec: 1756278221
    nanosec: 967756699
  frame_id: ''
name:
- fr3_joint1
- fr3_joint2
- fr3_joint3
- fr3_joint4
- fr3_joint5
- fr3_joint6
- fr3_joint7
- fr3_finger_joint1
- fr3_finger_joint2
position:
- 0.09478594141460772
- -0.17434358061004224
- -0.16693903720565856
- -1.4132363834603043
- 0.09864492990837338
- 1.744415267944275
- 0.2000572217332326
- 0.0
- 0.0
velocity:
- 0.1412390971090862
- -0.032135499123891055
- -0.06321869030253707
- 0.0887224072763818
- 0.04280911592543839
- 0.08042418886138501
- 0.2044109075333617
- 0.0
- 0.0
effort:
- 0.626530647277832
- -22.759981155395508
- 0.2827339768409729
- 20.280622482299805
- 1.3366886377334595
- 2.8429110050201416
- 0.2351766973733902
- 0.0
- 0.0
---
header:
  stamp:
    sec: 1756278222
    nanosec: 507540
  frame_id: ''
name:
- fr3_joint1
- fr3_joint2
- fr3_joint3
- fr3_joint4
- fr3_joint5
- fr3_joint6
- fr3_joint7
- fr3_finger_joint1
- fr3_finger_joint2
position:
- 0.10017226656047006
- -0.17552636340342115
- -0.16932177801926115
- -1.4104295567210896
- 0.10007465124339066
- 1.7472721468464885
- 0.20738025253369727
- 0.0
- 0.0
velocity:
- 0.16329198462786132
- -0.038760697888232824
- -0.07375680718914188
- 0.0790448916721726
- 0.04453455930935384
- 0.08722171905957644
- 0.22436981705026773
- 0.0
- 0.0
effort:
- 0.908207893371582
- -22.605257034301758
- 0.5683785080909729
- 20.383771896362305
- 1.3568302392959595
- 2.8694612979888916
- 0.309334397315979
- 0.0
- 0.0
---
header:
  stamp:
    sec: 1756278222
    nanosec: 34095413
  frame_id: ''
name:
- fr3_joint1
- fr3_joint2
- fr3_joint3
- fr3_joint4
- fr3_joint5
- fr3_joint6
- fr3_joint7
- fr3_finger_joint1
- fr3_finger_joint2
position:
- 0.10546019906391198
- -0.17682297745591286
- -0.17162623934615606
- -1.4076811944184904
- 0.10148279989982734
- 1.7499202102934441
- 0.21422271820703068
- 0.0
- 0.0
velocity:
- 0.15178774424931019
- -0.03899095231506847
- -0.06346968523691986
- 0.0831624749114543
- 0.04349666117718251
- 0.07454637058330997
- 0.18435923610843996
- 0.0
- 0.0
effort:
- 0.626530647277832
- -22.506074905395508
- 0.3343086838722229
- 20.411542892456055
- 1.3366886377334595
- 2.8960115909576416
- 0.295601487159729
- 0.0
- 0.0
---
header:
  stamp:
    sec: 1756278222
    nanosec: 67240542
  frame_id: ''
name:
- fr3_joint1
- fr3_joint2
- fr3_joint3
- fr3_joint4
- fr3_joint5
- fr3_joint6
- fr3_joint7
- fr3_finger_joint1
- fr3_finger_joint2
position:
- 0.11068691007094164
- -0.178091132584358
- -0.17381190760814796
- -1.4048433448788642
- 0.10299170780477186
- 1.7526601825448407
- 0.22067871987085638
- 0.0
- 0.0
velocity:
- 0.15730311107435294
- -0.03773489005006489
- -0.0676914247012108
- 0.0901976263993125
- 0.04179489993948186
- 0.07892938236238153
- 0.2075399741365868
- 0.0
- 0.0
effort:
- 0.527348518371582
- -22.200593948364258
- 0.3105049729347229
- 20.173505783081055
- 1.2973209619522095
- 2.8831942081451416
- 0.302925705909729
- 0.0
- 0.0
---
header:
  stamp:
    sec: 1756278222
    nanosec: 100562470
  frame_id: ''
name:
- fr3_joint1
- fr3_joint2
- fr3_joint3
- fr3_joint4
- fr3_joint5
- fr3_joint6
- fr3_joint7
- fr3_finger_joint1
- fr3_finger_joint2
position:
- 0.11600638080539043
- -0.1792638355776837
- -0.17628774492107013
- -1.401795004826274
- 0.1044125074529703
- 1.7555067657287293
- 0.22767816976591368
- 0.0
- 0.0
velocity:
- 0.15561196174952385
- -0.03543943985736704
- -0.07470383024668206
- 0.09529645584898346
- 0.044078098964359866
- 0.09060832542168748
- 0.20850627435104763
- 0.0
- 0.0
effort:
- 0.654301643371582
- -22.045869827270508
- 0.6437569260597229
- 20.121931076049805
- 1.2845035791397095
- 2.8630526065826416
- 0.323067307472229
- 0.0
- 0.0
---
header:
  stamp:
    sec: 1756278222
    nanosec: 133842758
  frame_id: ''
name:
- fr3_joint1
- fr3_joint2
- fr3_joint3
- fr3_joint4
- fr3_joint5
- fr3_joint6
- fr3_joint7
- fr3_finger_joint1
- fr3_finger_joint2
position:
- 0.12093507451114911
- -0.1803990090902456
- -0.1785646349664835
- -1.3986386429975062
- 0.10581225750905036
- 1.7583801031296808
- 0.23392338994851625
- 0.0
- 0.0
velocity:
- 0.14930764373327016
- -0.0351478698596944
- -0.06378385539973198
- 0.0938816650249691
- 0.042999086657254375
- 0.08681122076507868
- 0.18685203627972205
- 0.0
- 0.0
effort:
- 0.678105354309082
- -21.716585159301758
- 0.4652290940284729
- 19.808515548706055
- 1.2973209619522095
- 2.8365023136138916
- 0.323067307472229
- 0.0
- 0.0
---
header:
  stamp:
    sec: 1756278222
    nanosec: 168690061
  frame_id: ''
name:
- fr3_joint1
- fr3_joint2
- fr3_joint3
- fr3_joint4
- fr3_joint5
- fr3_joint6
- fr3_joint7
- fr3_finger_joint1
- fr3_finger_joint2
position:
- 0.12643392427808028
- -0.18173103654937708
- -0.18095720770117252
- -1.395586758801036
- 0.10725659204084292
- 1.7613203331682317
- 0.2407153811869552
- 0.0
- 0.0
velocity:
- 0.16221494874033288
- -0.036231867728067274
- -0.07433118038105045
- 0.0910645314460566
- 0.040136082684768586
- 0.07812967037655634
- 0.20719596795470172
- 0.0
- 0.0
effort:
- 0.832829475402832
- -21.514253616333008
- 0.6199532151222229
- 19.939435958862305
- 1.3174625635147095
- 2.8630526065826416
- 0.377083420753479
- 0.0
- 0.0
---
header:
  stamp:
    sec: 1756278222
    nanosec: 200562073
  frame_id: ''
name:
- fr3_joint1
- fr3_joint2
- fr3_joint3
- fr3_joint4
- fr3_joint5
- fr3_joint6
- fr3_joint7
- fr3_finger_joint1
- fr3_finger_joint2
position:
- 0.13162656926431848
- -0.18282727711464364
- -0.18318566894245775
- -1.3925269856494278
- 0.10863408601306795
- 1.763761252986274
- 0.24809068496458048
- 0.0
- 0.0
velocity:
- 0.15141880578999264
- -0.03380520695561164
- -0.06342459632984411
- 0.08998244297618231
- 0.045509198078162845
- 0.07516400934517882
- 0.22321099904587138
- 0.0
- 0.0
effort:
- 0.37262439727783203
- -21.383333206176758
- 0.1518135666847229
- 19.911664962768555
- 1.2845035791397095
- 2.8630526065826416
- 0.316658616065979
- 0.0
- 0.0
---
header:
  stamp:
    sec: 1756278222
    nanosec: 234022936
  frame_id: ''
name:
- fr3_joint1
- fr3_joint2
- fr3_joint3
- fr3_joint4
- fr3_joint5
- fr3_joint6
- fr3_joint7
- fr3_finger_joint1
- fr3_finger_joint2
position:
- 0.13642161347081358
- -0.18379820681728862
- -0.1851064001351611
- -1.3897234076304947
- 0.109897966733025
- 1.7660545801162824
- 0.25406945943504144
- 0.0
- 0.0
velocity:
- 0.16313954105079423
- -0.030774442832996088
- -0.06873541692992167
- 0.09279434312587094
- 0.04211601557005064
- 0.07459379308220448
- 0.18290034583775622
- 0.0
- 0.0
effort:
- 0.551152229309082
- -21.514253616333008
- 0.3858833909034729
- 19.808515548706055
- 1.2716861963272095
- 2.8758699893951416
- 0.329475998878479
- 0.0
- 0.0
---
header:
  stamp:
    sec: 1756278222
    nanosec: 267180948
  frame_id: ''
name:
- fr3_joint1
- fr3_joint2
- fr3_joint3
- fr3_joint4
- fr3_joint5
- fr3_joint6
- fr3_joint7
- fr3_finger_joint1
- fr3_finger_joint2
position:
- 0.14236458882375935
- -0.18486574201536457
- -0.18784993851630769
- -1.386499423601051
- 0.11141805947537034
- 1.7691149041337473
- 0.261086057594364
- 0.0
- 0.0
velocity:
- 0.15668375596114034
- -0.02825162577630664
- -0.07024574311701412
- 0.09038618113055837
- 0.04213839385825157
- 0.08468219240799038
- 0.20195639329037826
- 0.0
- 0.0
effort:
- 0.654301643371582
- -21.411104202270508
- 0.6199532151222229
- 19.836286544799805
- 1.2845035791397095
- 2.8630526065826416
- 0.363350510597229
- 0.0
- 0.0
---
header:
  stamp:
    sec: 1756278222
    nanosec: 301652578
  frame_id: ''
name:
- fr3_joint1
- fr3_joint2
- fr3_joint3
- fr3_joint4
- fr3_joint5
- fr3_joint6
- fr3_joint7
- fr3_finger_joint1
- fr3_finger_joint2
position:
- 0.14723755037790634
- -0.1858838277302687
- -0.19008704561224504
- -1.383772781838254
- 0.11283341403941799
- 1.7720039929294462
- 0.26820261316451444
- 0.0
- 0.0
velocity:
- 0.14897251507691006
- -0.03298768763025051
- -0.06587580187774032
- 0.07914114325377657
- 0.04258207957490666
- 0.08981931468198259
- 0.2160386819987087
- 0.0
- 0.0
effort:
- 0.527348518371582
- -21.359529495239258
- 0.3343086838722229
- 19.967206954956055
- 1.2845035791397095
- 2.9033358097076416
- 0.275459885597229
- 0.0
- 0.0
---
header:
  stamp:
    sec: 1756278222
    nanosec: 333889182
  frame_id: ''
name:
- fr3_joint1
- fr3_joint2
- fr3_joint3
- fr3_joint4
- fr3_joint5
- fr3_joint6
- fr3_joint7
- fr3_finger_joint1
- fr3_finger_joint2
position:
- 0.15255546415598972
- -0.18693233402542472
- -0.19249972620559083
- -1.3810855949956484
- 0.11410055042231813
- 1.7749992167988702
- 0.27412655490955035
- 0.0
- 0.0
velocity:
- 0.16669066963707033
- -0.031968012769833055
- -0.07844142765217177
- 0.08150879865847882
- 0.0389859080325845
- 0.09390272208871243
- 0.17461826750297982
- 0.0
- 0.0
effort:
- 0.832829475402832
- -21.359529495239258
- 0.7746773362159729
- 19.729169845581055
- 1.3037296533584595
- 2.8300936222076416
- 0.356941819190979
- 0.0
- 0.0
---
header:
  stamp:
    sec: 1756278222
    nanosec: 367438375
  frame_id: ''
name:
- fr3_joint1
- fr3_joint2
- fr3_joint3
- fr3_joint4
- fr3_joint5
- fr3_joint6
- fr3_joint7
- fr3_finger_joint1
- fr3_finger_joint2
position:
- 0.15802321842817701
- -0.18804112380498159
- -0.1949775381226257
- -1.3782272737071037
- 0.11546900721623024
- 1.7781069901966788
- 0.28092217849667406
- 0.0
- 0.0
velocity:
- 0.15238566388667568
- -0.031911113226892475
- -0.06649376837619982
- 0.08361752487202667
- 0.03840943920909402
- 0.08658175551011513
- 0.2087767937606663
- 0.0
- 0.0
effort:
- 0.47577381134033203
- -21.486482620239258
- 0.3620796799659729
- 19.967206954956055
- 1.2780948877334595
- 2.8960115909576416
- 0.316658616065979
- 0.0
- 0.0
---
header:
  stamp:
    sec: 1756278222
    nanosec: 400548041
  frame_id: ''
name:
- fr3_joint1
- fr3_joint2
- fr3_joint3
- fr3_joint4
- fr3_joint5
- fr3_joint6
- fr3_joint7
- fr3_finger_joint1
- fr3_finger_joint2
position:
- 0.1630687619648084
- -0.18908357798485298
- -0.19708244222588062
- -1.375287836712128
- 0.11669707044158092
- 1.7808493809942996
- 0.28818653693658486
- 0.0
- 0.0
velocity:
- 0.1557781096042456
- -0.03306906036764708
- -0.06949415385720141
- 0.09178215686169153
- 0.0360584976857857
- 0.08328320371509444
- 0.21906671810605388
- 0.0
- 0.0
effort:
- 0.47577381134033203
- -21.462678909301758
- 0.3858833909034729
- 19.939435958862305
- 1.2909122705459595
- 2.9097445011138916
- 0.323067307472229
- 0.0
- 0.0
---
header:
  stamp:
    sec: 1756278222
    nanosec: 434077151
  frame_id: ''
name:
- fr3_joint1
- fr3_joint2
- fr3_joint3
- fr3_joint4
- fr3_joint5
- fr3_joint6
- fr3_joint7
- fr3_finger_joint1
- fr3_finger_joint2
position:
- 0.16858473190068957
- -0.19034060851466322
- -0.19960042779700166
- -1.3722034465189736
- 0.11789974877003173
- 1.7835312253886513
- 0.2944677800597087
- 0.0
- 0.0
velocity:
- 0.15659635883448686
- -0.04046579776322863
- -0.07399946148915004
- 0.08870678684013467
- 0.038619850451063066
- 0.07866987712738159
- 0.18028529437636912
- 0.0
- 0.0
effort:
- 0.602726936340332
- -21.208772659301758
- 0.6437569260597229
- 19.439558029174805
- 1.2579532861709595
- 2.8300936222076416
- 0.309334397315979
- 0.0
- 0.0
---
header:
  stamp:
    sec: 1756278222
    nanosec: 467276271
  frame_id: ''
name:
- fr3_joint1
- fr3_joint2
- fr3_joint3
- fr3_joint4
- fr3_joint5
- fr3_joint6
- fr3_joint7
- fr3_finger_joint1
- fr3_finger_joint2
position:
- 0.1735721020898829
- -0.19179123357840466
- -0.201821023412562
- -1.3693092932859716
- 0.11912629712675542
- 1.7862238277132378
- 0.3010647430469617
- 0.0
- 0.0
velocity:
- 0.14780861024722455
- -0.041226491760902255
- -0.06693323007129469
- 0.09355364325589595
- 0.03562013767462822
- 0.07948558235330949
- 0.21170129020341003
- 0.0
- 0.0
effort:
- 0.832829475402832
- -20.954866409301758
- 0.7469063401222229
- 19.626020431518555
- 1.3302799463272095
- 2.8831942081451416
- 0.370674729347229
- 0.0
- 0.0
---
header:
  stamp:
    sec: 1756278222
    nanosec: 500555261
  frame_id: ''
name:
- fr3_joint1
- fr3_joint2
- fr3_joint3
- fr3_joint4
- fr3_joint5
- fr3_joint6
- fr3_joint7
- fr3_finger_joint1
- fr3_finger_joint2
position:
- 0.17871129408348332
- -0.19307455042642668
- -0.20413940319993118
- -1.3662521413336848
- 0.12044765354204272
- 1.7888607518901152
- 0.3079564526485245
- 0.0
- 0.0
velocity:
- 0.16065578777935818
- -0.03822043025380261
- -0.07460372083608025
- 0.09384772206311047
- 0.04177130618542587
- 0.0792113078747742
- 0.1997111242251368
- 0.0
- 0.0
effort:
- 0.935978889465332
- -20.649385452270508
- 0.7984810471534729
- 19.705366134643555
- 1.3366886377334595
- 2.9225618839263916
- 0.356941819190979
- 0.0
- 0.0
---
header:
  stamp:
    sec: 1756278222
    nanosec: 533861556
  frame_id: ''
name:
- fr3_joint1
- fr3_joint2
- fr3_joint3
- fr3_joint4
- fr3_joint5
- fr3_joint6
- fr3_joint7
- fr3_finger_joint1
- fr3_finger_joint2
position:
- 0.18387745164749844
- -0.19420359672692686
- -0.2064416606751614
- -1.3631210747803857
- 0.12184469255210933
- 1.791598277151293
- 0.31422054748335815
- 0.0
- 0.0
velocity:
- 0.1522674480563667
- -0.03268252734956072
- -0.06835224769004174
- 0.09529911825029092
- 0.04392274894235367
- 0.08592445060724142
- 0.1846435982315946
- 0.0
- 0.0
effort:
- 0.578923225402832
- -20.724763870239258
- 0.5683785080909729
- 19.257062911987305
- 1.3174625635147095
- 2.8163607120513916
- 0.302925705909729
- 0.0
- 0.0
---
header:
  stamp:
    sec: 1756278222
    nanosec: 567147352
  frame_id: ''
name:
- fr3_joint1
- fr3_joint2
- fr3_joint3
- fr3_joint4
- fr3_joint5
- fr3_joint6
- fr3_joint7
- fr3_finger_joint1
- fr3_finger_joint2
position:
- 0.18924876343172622
- -0.19533587910952704
- -0.20864161128310285
- -1.3598817244263082
- 0.12331456879860819
- 1.794825545845124
- 0.3211171558160464
- 0.0
- 0.0
velocity:
- 0.164215458797877
- -0.03268149071880794
- -0.06923354223636506
- 0.09101133730207955
- 0.041073800108279296
- 0.09440839757025754
- 0.212060067665312
- 0.0
- 0.0
effort:
- 0.44800281524658203
- -20.522432327270508
- 0.4890328049659729
- 19.284833908081055
- 1.2845035791397095
- 2.8300936222076416
- 0.370674729347229
- 0.0
- 0.0
---
header:
  stamp:
    sec: 1756278222
    nanosec: 600953331
  frame_id: ''
name:
- fr3_joint1
- fr3_joint2
- fr3_joint3
- fr3_joint4
- fr3_joint5
- fr3_joint6
- fr3_joint7
- fr3_finger_joint1
- fr3_finger_joint2
position:
- 0.19405610719763264
- -0.19636748115344152
- -0.21081717470975592
- -1.3573984507449037
- 0.12448130172703838
- 1.7973983908035795
- 0.3276550097644482
- 0.0
- 0.0
velocity:
- 0.16253741378842587
- -0.036574171300336016
- -0.0718712865058724
- 0.08189920976782666
- 0.03821948268019072
- 0.08629071718749436
- 0.21810139881441473
- 0.0
- 0.0
effort:
- 0.678105354309082
- -20.216951370239258
- 0.7984810471534729
- 19.308637619018555
- 1.2909122705459595
- 2.8429110050201416
- 0.350533127784729
- 0.0
- 0.0
---
header:
  stamp:
    sec: 1756278222
    nanosec: 633867989
  frame_id: ''
name:
- fr3_joint1
- fr3_joint2
- fr3_joint3
- fr3_joint4
- fr3_joint5
- fr3_joint6
- fr3_joint7
- fr3_finger_joint1
- fr3_finger_joint2
position:
- 0.19954808712855374
- -0.19756140277907788
- -0.21325318227308881
- -1.354323050763227
- 0.12595700472364882
- 1.800311065572819
- 0.3346503660812964
- 0.0
- 0.0
velocity:
- 0.14537892064547223
- -0.030640211141784064
- -0.06091856896706441
- 0.08279810524065695
- 0.03966141968523635
- 0.08172781987296898
- 0.1888577977220947
- 0.0
- 0.0
effort:
- 0.654301643371582
- -20.343904495239258
- 0.6437569260597229
- 19.102338790893555
- 1.3238712549209595
- 2.8026278018951416
- 0.343208909034729
- 0.0
- 0.0
---
header:
  stamp:
    sec: 1756278222
    nanosec: 667762333
  frame_id: ''
name:
- fr3_joint1
- fr3_joint2
- fr3_joint3
- fr3_joint4
- fr3_joint5
- fr3_joint6
- fr3_joint7
- fr3_finger_joint1
- fr3_finger_joint2
position:
- 0.20505368609381316
- -0.19860462346252586
- -0.21567620725872233
- -1.3514245359849408
- 0.12728192990332673
- 1.8028698832756993
- 0.3416233160102572
- 0.0
- 0.0
velocity:
- 0.1662966428854544
- -0.028921843388013305
- -0.07653866700060152
- 0.08500245891610894
- 0.03857636428678758
- 0.07407662461965643
- 0.2131661453625948
- 0.0
- 0.0
effort:
- 0.805058479309082
- -20.391511917114258
- 0.9016304612159729
- 19.626020431518555
- 1.3504215478897095
- 2.9362947940826416
- 0.295601487159729
- 0.0
- 0.0
---
header:
  stamp:
    sec: 1756278222
    nanosec: 700524152
  frame_id: ''
name:
- fr3_joint1
- fr3_joint2
- fr3_joint3
- fr3_joint4
- fr3_joint5
- fr3_joint6
- fr3_joint7
- fr3_finger_joint1
- fr3_finger_joint2
position:
- 0.21026632020263183
- -0.19955556221900453
- -0.21806588477618655
- -1.3484768906936286
- 0.1285654911374368
- 1.8053934160527165
- 0.3485771150350367
- 0.0
- 0.0
velocity:
- 0.15509557637286778
- -0.030461644174708362
- -0.06707895181804416
- 0.0909922333584588
- 0.043110089815494766
- 0.07977146179190353
- 0.199571265808767
- 0.0
- 0.0
effort:
- 0.44800281524658203
- -20.391511917114258
- 0.5683785080909729
- 19.257062911987305
- 1.2780948877334595
- 2.8896028995513916
- 0.2489096075296402
- 0.0
- 0.0
---
header:
  stamp:
    sec: 1756278222
    nanosec: 734076555
  frame_id: ''
name:
- fr3_joint1
- fr3_joint2
- fr3_joint3
- fr3_joint4
- fr3_joint5
- fr3_joint6
- fr3_joint7
- fr3_finger_joint1
- fr3_finger_joint2
position:
- 0.215524974869269
- -0.20063597333092675
- -0.22029924697996447
- -1.3454914829648879
- 0.12993176238321827
- 1.8082411014672508
- 0.3546030563899534
- 0.0
- 0.0
velocity:
- 0.16367112143706142
- -0.03710320494567705
- -0.06960410807609436
- 0.08154199364991818
- 0.04243890148447431
- 0.08696872931379086
- 0.18457337334751528
- 0.0
- 0.0
effort:
- 0.29724597930908203
- -20.089998245239258
- 0.4374580979347229
- 18.892072677612305
- 1.2973209619522095
- 2.8099520206451416
- 0.370674729347229
- 0.0
- 0.0
---
header:
  stamp:
    sec: 1756278222
    nanosec: 767387416
  frame_id: ''
name:
- fr3_joint1
- fr3_joint2
- fr3_joint3
- fr3_joint4
- fr3_joint5
- fr3_joint6
- fr3_joint7
- fr3_finger_joint1
- fr3_finger_joint2
position:
- 0.22107188894846821
- -0.2018720930690922
- -0.2227942341180069
- -1.3426664198388407
- 0.13134261515651308
- 1.811070620038278
- 0.3615915777567389
- 0.0
- 0.0
velocity:
- 0.1549542315717851
- -0.03480639379704119
- -0.07092305818439731
- 0.08833604811013565
- 0.0436746325511096
- 0.08466143316097713
- 0.21413580678331437
- 0.0
- 0.0
effort:
- 0.602726936340332
- -20.216951370239258
- 0.7746773362159729
- 19.467329025268555
- 1.3037296533584595
- 2.9097445011138916
- 0.350533127784729
- 0.0
- 0.0
---
header:
  stamp:
    sec: 1756278222
    nanosec: 800558370
  frame_id: ''
name:
- fr3_joint1
- fr3_joint2
- fr3_joint3
- fr3_joint4
- fr3_joint5
- fr3_joint6
- fr3_joint7
- fr3_finger_joint1
- fr3_finger_joint2
position:
- 0.22592702314016702
- -0.20300283360548738
- -0.22495666593714542
- -1.3397531115558015
- 0.13285968335193862
- 1.8139572262524983
- 0.3687625722098388
- 0.0
- 0.0
velocity:
- 0.14897358762585577
- -0.035323985170854805
- -0.0660401473388978
- 0.086910984827046
- 0.042284535185241626
- 0.095168790868361
- 0.19891651173056424
- 0.0
- 0.0
effort:
- 0.805058479309082
- -20.264558792114258
- 0.8500557541847229
- 19.205488204956055
- 1.3174625635147095
- 2.8758699893951416
- 0.269051194190979
- 0.0
- 0.0
---
header:
  stamp:
    sec: 1756278222
    nanosec: 833873549
  frame_id: ''
name:
- fr3_joint1
- fr3_joint2
- fr3_joint3
- fr3_joint4
- fr3_joint5
- fr3_joint6
- fr3_joint7
- fr3_finger_joint1
- fr3_finger_joint2
position:
- 0.23107983066649743
- -0.20419006099278675
- -0.22717918141425913
- -1.3368459325668618
- 0.13412069556787093
- 1.816917486244236
- 0.37477328800262816
- 0.0
- 0.0
velocity:
- 0.15763288324535538
- -0.03649159403820625
- -0.07016128323535617
- 0.09381536426045965
- 0.03554668661155002
- 0.08843714160961141
- 0.18795198553797668
- 0.0
- 0.0
effort:
- 0.908207893371582
- -19.963045120239258
- 1.0841255187988281
- 18.915876388549805
- 1.3302799463272095
- 2.8227694034576416
- 0.302925705909729
- 0.0
- 0.0
---
header:
  stamp:
    sec: 1756278222
    nanosec: 867179273
  frame_id: ''
name:
- fr3_joint1
- fr3_joint2
- fr3_joint3
- fr3_joint4
- fr3_joint5
- fr3_joint6
- fr3_joint7
- fr3_finger_joint1
- fr3_finger_joint2
position:
- 0.23649307900232652
- -0.20540641629928524
- -0.22959841192534092
- -1.3336143120765471
- 0.13559661581689578
- 1.8199372104952296
- 0.38203877415425946
- 0.0
- 0.0
velocity:
- 0.15034432966325736
- -0.034881013087830044
- -0.06763516470882022
- 0.09244732700540592
- 0.04330577562191248
- 0.08371298866863133
- 0.2185664318115291
- 0.0
- 0.0
effort:
- 0.40039539337158203
- -19.657564163208008
- 0.5683785080909729
- 18.943647384643555
- 1.2652775049209595
- 2.8694612979888916
- 0.261726975440979
- 0.0
- 0.0
---
header:
  stamp:
    sec: 1756278222
    nanosec: 900549898
  frame_id: ''
name:
- fr3_joint1
- fr3_joint2
- fr3_joint3
- fr3_joint4
- fr3_joint5
- fr3_joint6
- fr3_joint7
- fr3_finger_joint1
- fr3_finger_joint2
position:
- 0.2415644588708238
- -0.20664876971938007
- -0.23171927721217098
- -1.3307929475143254
- 0.13687252346225015
- 1.82265928715028
- 0.3886227152652212
- 0.0
- 0.0
velocity:
- 0.1654443069763643
- -0.039089568509711896
- -0.07066117864900774
- 0.08286874086933174
- 0.035576353401189226
- 0.0822285019768356
- 0.1931413045583499
- 0.0
- 0.0
effort:
- 0.40039539337158203
- -19.248933792114258
- 0.6715279221534729
- 18.892072677612305
- 1.2515445947647095
- 2.8566439151763916
- 0.275459885597229
- 0.0
- 0.0
---
header:
  stamp:
    sec: 1756278222
    nanosec: 934167696
  frame_id: ''
name:
- fr3_joint1
- fr3_joint2
- fr3_joint3
- fr3_joint4
- fr3_joint5
- fr3_joint6
- fr3_joint7
- fr3_finger_joint1
- fr3_finger_joint2
position:
- 0.24714870383431414
- -0.2078708056329701
- -0.23433021557294242
- -1.327887081915834
- 0.13817430637841965
- 1.8253798620980415
- 0.39496705594110487
- 0.0
- 0.0
velocity:
- 0.15963986610059827
- -0.034447766150071994
- -0.07275204286098977
- 0.08433897957379526
- 0.04271015134321865
- 0.08340310496813784
- 0.19725799838135588
- 0.0
- 0.0
effort:
- 0.578923225402832
- -19.121980667114258
- 0.9016304612159729
- 18.654035568237305
- 1.2387272119522095
- 2.8429110050201416
- 0.302925705909729
- 0.0
- 0.0
---
header:
  stamp:
    sec: 1756278222
    nanosec: 967210206
  frame_id: ''
name:
- fr3_joint1
- fr3_joint2
- fr3_joint3
- fr3_joint4
- fr3_joint5
- fr3_joint6
- fr3_joint7
- fr3_finger_joint1
- fr3_finger_joint2
position:
- 0.25214710336400703
- -0.20892415473284234
- -0.2365664986782368
- -1.3249116533822045
- 0.13959425484973123
- 1.8281124158326632
- 0.40199930658086264
- 0.0
- 0.0
velocity:
- 0.14626654356058968
- -0.027852995140353564
- -0.06469426058282458
- 0.09580309589831275
- 0.042352915565031644
- 0.07772789243698448
- 0.22526315458893312
- 0.0
- 0.0
effort:
- 0.678105354309082
- -19.070405960083008
- 0.9294014573097229
- 18.864301681518555
- 1.2973209619522095
- 2.8896028995513916
- 0.302925705909729
- 0.0
- 0.0
---
header:
  stamp:
    sec: 1756278223
    nanosec: 471680
  frame_id: ''
name:
- fr3_joint1
- fr3_joint2
- fr3_joint3
- fr3_joint4
- fr3_joint5
- fr3_joint6
- fr3_joint7
- fr3_finger_joint1
- fr3_finger_joint2
position:
- 0.2573653058102839
- -0.2098388462427861
- -0.2388676955947555
- -1.3218569102475333
- 0.14095091779488106
- 1.8308490282645904
- 0.4088545198720182
- 0.0
- 0.0
velocity:
- 0.16766073037291768
- -0.028463746082925324
- -0.07708639125431213
- 0.09401660587653622
- 0.04338818447270816
- 0.08436881226527798
- 0.18197810859365993
- 0.0
- 0.0
effort:
- 0.856633186340332
- -19.173555374145508
- 1.1634712219238281
- 18.681806564331055
- 1.3037296533584595
- 2.8300936222076416
- 0.329475998878479
- 0.0
- 0.0
---
header:
  stamp:
    sec: 1756278223
    nanosec: 34164821
  frame_id: ''
name:
- fr3_joint1
- fr3_joint2
- fr3_joint3
- fr3_joint4
- fr3_joint5
- fr3_joint6
- fr3_joint7
- fr3_finger_joint1
- fr3_finger_joint2
position:
- 0.26266045104508146
- -0.21089664292149174
- -0.24118017366762232
- -1.3188923854139345
- 0.1424390216681778
- 1.833825561258799
- 0.41513374584868035
- 0.0
- 0.0
velocity:
- 0.1530271154230232
- -0.03328371137620361
- -0.06512884139904425
- 0.07877414503540281
- 0.044900137012864064
- 0.094927605845452
- 0.1925987430553518
- 0.0
- 0.0
effort:
- 0.551152229309082
- -18.971223831176758
- 0.7746773362159729
- 18.602460861206055
- 1.2780948877334595
- 2.8163607120513916
- 0.363350510597229
- 0.0
- 0.0
---
header:
  stamp:
    sec: 1756278223
    nanosec: 67164526
  frame_id: ''
name:
- fr3_joint1
- fr3_joint2
- fr3_joint3
- fr3_joint4
- fr3_joint5
- fr3_joint6
- fr3_joint7
- fr3_finger_joint1
- fr3_finger_joint2
position:
- 0.26797994347162074
- -0.21196652638550836
- -0.243430672673666
- -1.3159248572410773
- 0.14387705998538824
- 1.8366246242644524
- 0.422260607775186
- 0.0
- 0.0
velocity:
- 0.16314508221028892
- -0.03188997303276615
- -0.07041144205510706
- 0.09268927115589436
- 0.042103929631457856
- 0.0829201658016391
- 0.22186913708796321
- 0.0
- 0.0
effort:
- 0.34882068634033203
- -19.046602249145508
- 0.6199532151222229
- 18.602460861206055
- 1.2515445947647095
- 2.8300936222076416
- 0.323067307472229
- 0.0
- 0.0
---
header:
  stamp:
    sec: 1756278223
    nanosec: 100777415
  frame_id: ''
name:
- fr3_joint1
- fr3_joint2
- fr3_joint3
- fr3_joint4
- fr3_joint5
- fr3_joint6
- fr3_joint7
- fr3_finger_joint1
- fr3_finger_joint2
position:
- 0.27342980441111586
- -0.21301348648600263
- -0.24599361873594452
- -1.3130824419432048
- 0.1452698709075125
- 1.839327698954164
- 0.42883757377499176
- 0.0
- 0.0
velocity:
- 0.1578545959547389
- -0.03167501026198231
- -0.07335917740056212
- 0.08971385316360579
- 0.04087422363796403
- 0.07965503113502032
- 0.17653391597377974
- 0.0
- 0.0
effort:
- 0.47577381134033203
- -18.943452835083008
- 0.8500557541847229
- 18.499311447143555
- 1.2515445947647095
- 2.8365023136138916
- 0.336800217628479
- 0.0
- 0.0
---
header:
  stamp:
    sec: 1756278223
    nanosec: 134078316
  frame_id: ''
name:
- fr3_joint1
- fr3_joint2
- fr3_joint3
- fr3_joint4
- fr3_joint5
- fr3_joint6
- fr3_joint7
- fr3_finger_joint1
- fr3_finger_joint2
position:
- 0.27846548342990957
- -0.21396720172941766
- -0.24830331982473422
- -1.3099813621417429
- 0.14661485392703205
- 1.841848330277653
- 0.43502852819905535
- 0.0
- 0.0
velocity:
- 0.1478691047507196
- -0.03168738841907545
- -0.06279858590020089
- 0.09077108846200277
- 0.039138557700116997
- 0.07613423933419565
- 0.1998272521447459
- 0.0
- 0.0
effort:
- 0.805058479309082
- -19.098176956176758
- 1.0325508117675781
- 18.578657150268555
- 1.3037296533584595
- 2.8694612979888916
- 0.255318284034729
- 0.0
- 0.0
---
header:
  stamp:
    sec: 1756278223
    nanosec: 167342715
  frame_id: ''
name:
- fr3_joint1
- fr3_joint2
- fr3_joint3
- fr3_joint4
- fr3_joint5
- fr3_joint6
- fr3_joint7
- fr3_finger_joint1
- fr3_finger_joint2
position:
- 0.2837244365477923
- -0.21511580134871527
- -0.25058060759470685
- -1.3070228707322722
- 0.14793927299494805
- 1.8443823857892756
- 0.44230633448971574
- 0.0
- 0.0
velocity:
- 0.15914766200018443
- -0.0381888155355906
- -0.07095027400797264
- 0.08319649843007546
- 0.04211984938897231
- 0.078634683672803
- 0.22854969621677879
- 0.0
- 0.0
effort:
- 0.908207893371582
- -18.919649124145508
- 1.2388496398925781
- 18.550886154174805
- 1.2845035791397095
- 2.8099520206451416
- 0.269051194190979
- 0.0
- 0.0
---
header:
  stamp:
    sec: 1756278223
    nanosec: 200571390
  frame_id: ''
name:
- fr3_joint1
- fr3_joint2
- fr3_joint3
- fr3_joint4
- fr3_joint5
- fr3_joint6
- fr3_joint7
- fr3_finger_joint1
- fr3_finger_joint2
position:
- 0.2888644977241366
- -0.21648193367825935
- -0.2528065362354629
- -1.3043988964088329
- 0.14924150301030867
- 1.8470658619738651
- 0.4490228940529614
- 0.0
- 0.0
velocity:
- 0.14947395752974196
- -0.04065297380948481
- -0.060754345140792414
- 0.0825341041478903
- 0.043254253626772675
- 0.08181484398965272
- 0.18040142485447122
- 0.0
- 0.0
effort:
- 0.42419910430908203
- -18.689546585083008
- 0.7984810471534729
- 18.499311447143555
- 1.2579532861709595
- 2.8365023136138916
- 0.316658616065979
- 0.0
- 0.0
---
header:
  stamp:
    sec: 1756278223
    nanosec: 234514108
  frame_id: ''
name:
- fr3_joint1
- fr3_joint2
- fr3_joint3
- fr3_joint4
- fr3_joint5
- fr3_joint6
- fr3_joint7
- fr3_finger_joint1
- fr3_finger_joint2
position:
- 0.2939910790335868
- -0.21776189150297237
- -0.25499263905343167
- -1.3014923215993075
- 0.15059472407994193
- 1.8499388245848287
- 0.4551870616074521
- 0.0
- 0.0
velocity:
- 0.1628851010053471
- -0.038395835374040246
- -0.07054007838397267
- 0.08515510422936927
- 0.04363792091286445
- 0.09343858772781746
- 0.19867517595290105
- 0.0
- 0.0
effort:
- 0.47577381134033203
- -18.332490921020508
- 0.8778267502784729
- 18.312849044799805
- 1.2387272119522095
- 2.8163607120513916
- 0.316658616065979
- 0.0
- 0.0
---
header:
  stamp:
    sec: 1756278223
    nanosec: 267191724
  frame_id: ''
name:
- fr3_joint1
- fr3_joint2
- fr3_joint3
- fr3_joint4
- fr3_joint5
- fr3_joint6
- fr3_joint7
- fr3_finger_joint1
- fr3_finger_joint2
position:
- 0.29953912166037744
- -0.21903891659890642
- -0.25763452614637755
- -1.2985167249980756
- 0.15192981738208608
- 1.8530260323169157
- 0.4623513874320354
- 0.0
- 0.0
velocity:
- 0.15841116633475202
- -0.03730254256275501
- -0.07390491441311263
- 0.09464793918886158
- 0.036603240446830804
- 0.09138990965721763
- 0.2089718875670487
- 0.0
- 0.0
effort:
- 0.654301643371582
- -18.233308792114258
- 1.2388496398925781
- 18.602460861206055
- 1.2780948877334595
- 2.9033358097076416
- 0.323067307472229
- 0.0
- 0.0
---
header:
  stamp:
    sec: 1756278223
    nanosec: 300559055
  frame_id: ''
name:
- fr3_joint1
- fr3_joint2
- fr3_joint3
- fr3_joint4
- fr3_joint5
- fr3_joint6
- fr3_joint7
- fr3_finger_joint1
- fr3_finger_joint2
position:
- 0.30440826609401056
- -0.220161238468393
- -0.25987589011821255
- -1.295409289238898
- 0.15323458173142043
- 1.8560698134528495
- 0.4688608043079349
- 0.0
- 0.0
velocity:
- 0.14571082959975254
- -0.032745519506964936
- -0.06474918025110779
- 0.09881157914299367
- 0.038815880406998286
- 0.09376753470562808
- 0.19609677694801425
- 0.0
- 0.0
effort:
- 0.678105354309082
- -18.106355667114258
- 1.0325508117675781
- 17.947858810424805
- 1.3037296533584595
- 2.7632601261138916
- 0.269051194190979
- 0.0
- 0.0
---
header:
  stamp:
    sec: 1756278223
    nanosec: 333880800
  frame_id: ''
name:
- fr3_joint1
- fr3_joint2
- fr3_joint3
- fr3_joint4
- fr3_joint5
- fr3_joint6
- fr3_joint7
- fr3_finger_joint1
- fr3_finger_joint2
position:
- 0.30967543491417443
- -0.22140567524094956
- -0.26215390533049365
- -1.2924508012599032
- 0.15455078622072607
- 1.8590466358024629
- 0.47524139484352407
- 0.0
- 0.0
velocity:
- 0.16675326198392437
- -0.040286498003120154
- -0.07590104385693651
- 0.08548182431023807
- 0.03960275765116863
- 0.08659986240135743
- 0.20280092195298652
- 0.0
- 0.0
effort:
- 0.856633186340332
- -17.773103713989258
- 1.2666206359863281
- 18.078779220581055
- 1.2909122705459595
- 2.8026278018951416
- 0.261726975440979
- 0.0
- 0.0
---
header:
  stamp:
    sec: 1756278223
    nanosec: 367328161
  frame_id: ''
name:
- fr3_joint1
- fr3_joint2
- fr3_joint3
- fr3_joint4
- fr3_joint5
- fr3_joint6
- fr3_joint7
- fr3_finger_joint1
- fr3_finger_joint2
position:
- 0.3151153997797291
- -0.22264320717694533
- -0.26445754786749903
- -1.2893190672600876
- 0.15595306162876607
- 1.8617983535278528
- 0.48292302200091836
- 0.0
- 0.0
velocity:
- 0.15534674279073113
- -0.032813437229499545
- -0.06680681702657494
- 0.09523821964224584
- 0.04446604425761264
- 0.07627188266111518
- 0.22767188706514316
- 0.0
- 0.0
effort:
- 0.47577381134033203
- -17.749300003051758
- 0.9294014573097229
- 17.975629806518555
- 1.2451359033584595
- 2.8163607120513916
- 0.316658616065979
- 0.0
- 0.0
---
header:
  stamp:
    sec: 1756278223
    nanosec: 400794783
  frame_id: ''
name:
- fr3_joint1
- fr3_joint2
- fr3_joint3
- fr3_joint4
- fr3_joint5
- fr3_joint6
- fr3_joint7
- fr3_finger_joint1
- fr3_finger_joint2
position:
- 0.3201905444948615
- -0.22368465326165288
- -0.2665372957345269
- -1.2863860804349811
- 0.15722997927233742
- 1.8644083194425471
- 0.48926778857631603
- 0.0
- 0.0
velocity:
- 0.16319836942125965
- -0.03197662958933185
- -0.06785153861141234
- 0.08734989145768464
- 0.03739717052544303
- 0.08084157770129428
- 0.17980126098936322
- 0.0
- 0.0
effort:
- 0.34882068634033203
- -17.673921585083008
- 0.8500557541847229
- 17.947858810424805
- 1.2716861963272095
- 2.7962191104888916
- 0.323067307472229
- 0.0
- 0.0
---
header:
  stamp:
    sec: 1756278223
    nanosec: 434059037
  frame_id: ''
name:
- fr3_joint1
- fr3_joint2
- fr3_joint3
- fr3_joint4
- fr3_joint5
- fr3_joint6
- fr3_joint7
- fr3_finger_joint1
- fr3_finger_joint2
position:
- 0.325749997909482
- -0.22463808802522361
- -0.2691431734720074
- -1.2833120944195964
- 0.15850037201744777
- 1.8671035214496192
- 0.49574060719392027
- 0.0
- 0.0
velocity:
- 0.1574858426349463
- -0.02823728139725371
- -0.07557794184674997
- 0.09049645180415718
- 0.0407280229271432
- 0.08200580045079676
- 0.2005029123710742
- 0.0
- 0.0
effort:
- 0.527348518371582
- -17.721529006958008
- 1.0603218078613281
- 17.975629806518555
- 1.2323185205459595
- 2.8227694034576416
- 0.269051194190979
- 0.0
- 0.0
---
header:
  stamp:
    sec: 1756278223
    nanosec: 467323617
  frame_id: ''
name:
- fr3_joint1
- fr3_joint2
- fr3_joint3
- fr3_joint4
- fr3_joint5
- fr3_joint6
- fr3_joint7
- fr3_finger_joint1
- fr3_finger_joint2
position:
- 0.3308370852971563
- -0.22559029579855613
- -0.27151201450521323
- -1.2803229909306293
- 0.15989092734343846
- 1.8699327988146435
- 0.502940870980123
- 0.0
- 0.0
velocity:
- 0.14907006293973782
- -0.02963922103567764
- -0.068466875500664
- 0.08742599797565051
- 0.041614638596541006
- 0.0877978786509052
- 0.22207895369194341
- 0.0
- 0.0
effort:
- 0.856633186340332
- -17.646150588989258
- 1.2666206359863281
- 17.582868576049805
- 1.3037296533584595
- 2.7165682315826416
- 0.2278524786233902
- 0.0
- 0.0
---
header:
  stamp:
    sec: 1756278223
    nanosec: 500548114
  frame_id: ''
name:
- fr3_joint1
- fr3_joint2
- fr3_joint3
- fr3_joint4
- fr3_joint5
- fr3_joint6
- fr3_joint7
- fr3_finger_joint1
- fr3_finger_joint2
position:
- 0.3360527212221648
- -0.22666267055647196
- -0.27379381506202466
- -1.2777107593116321
- 0.16122725104227043
- 1.872953631916586
- 0.5091521457523851
- 0.0
- 0.0
velocity:
- 0.16470679529574675
- -0.03158620317980213
- -0.07403601147874443
- 0.0809517475809008
- 0.03929477560016273
- 0.09223518673901036
- 0.17771996751692473
- 0.0
- 0.0
effort:
- 0.805058479309082
- -17.546968460083008
- 1.2666206359863281
- 17.920087814331055
- 1.3302799463272095
- 2.7962191104888916
- 0.336800217628479
- 0.0
- 0.0
---
header:
  stamp:
    sec: 1756278223
    nanosec: 533901507
  frame_id: ''
name:
- fr3_joint1
- fr3_joint2
- fr3_joint3
- fr3_joint4
- fr3_joint5
- fr3_joint6
- fr3_joint7
- fr3_finger_joint1
- fr3_finger_joint2
position:
- 0.34131883374629246
- -0.2277686739743188
- -0.2760561251285825
- -1.274909525749288
- 0.16254777445282734
- 1.8757672806122887
- 0.5157710610234554
- 0.0
- 0.0
velocity:
- 0.14651625469905724
- -0.032214081169914414
- -0.06100994844760607
- 0.08028745766022222
- 0.04332322947061707
- 0.08101249924025851
- 0.2125313796814307
- 0.0
- 0.0
effort:
- 0.44800281524658203
- -17.673921585083008
- 0.9294014573097229
- 17.947858810424805
- 1.2845035791397095
- 2.8365023136138916
- 0.336800217628479
- 0.0
- 0.0
---
header:
  stamp:
    sec: 1756278223
    nanosec: 567837942
  frame_id: ''
name:
- fr3_joint1
- fr3_joint2
- fr3_joint3
- fr3_joint4
- fr3_joint5
- fr3_joint6
- fr3_joint7
- fr3_finger_joint1
- fr3_finger_joint2
position:
- 0.346461779891331
- -0.2288844802770025
- -0.27820171214349093
- -1.2719644078947603
- 0.16386043048636853
- 1.8784006312231503
- 0.5231975457851537
- 0.0
- 0.0
velocity:
- 0.16297729397714703
- -0.032719489129185944
- -0.07060130873618015
- 0.09571780370357666
- 0.03929555053288027
- 0.0818644153683043
- 0.2174594533354118
- 0.0
- 0.0
effort:
- 0.44800281524658203
- -17.594575881958008
- 1.0841255187988281
- 17.789167404174805
- 1.2780948877334595
- 2.7696688175201416
- 0.316658616065979
- 0.0
- 0.0
---
header:
  stamp:
    sec: 1756278223
    nanosec: 600509342
  frame_id: ''
name:
- fr3_joint1
- fr3_joint2
- fr3_joint3
- fr3_joint4
- fr3_joint5
- fr3_joint6
- fr3_joint7
- fr3_finger_joint1
- fr3_finger_joint2
position:
- 0.3518351940879291
- -0.23008436425061765
- -0.2806550618038982
- -1.2690355456778502
- 0.1651454797734271
- 1.8809911032655506
- 0.5292492485470973
- 0.0
- 0.0
velocity:
- 0.15879217447323066
- -0.038689875791376054
- -0.07062276793753076
- 0.08962650266418545
- 0.0394463883541809
- 0.07380166520627904
- 0.17203992165922094
- 0.0
- 0.0
effort:
- 0.729680061340332
- -17.416048049926758
- 1.4451484680175781
- 17.789167404174805
- 1.2973209619522095
- 2.8163607120513916
- 0.356941819190979
- 0.0
- 0.0
---
header:
  stamp:
    sec: 1756278223
    nanosec: 634095905
  frame_id: ''
name:
- fr3_joint1
- fr3_joint2
- fr3_joint3
- fr3_joint4
- fr3_joint5
- fr3_joint6
- fr3_joint7
- fr3_finger_joint1
- fr3_finger_joint2
position:
- 0.3568735183931691
- -0.2314339436390935
- -0.28300331075336493
- -1.2660024636514573
- 0.16653647286470563
- 1.8836353506575927
- 0.5356285155306835
- 0.0
- 0.0
velocity:
- 0.14795310250280627
- -0.043032211544834977
- -0.06245705272398008
- 0.08465599960470879
- 0.04046379653537623
- 0.08016786211582481
- 0.20871371119943685
- 0.0
- 0.0
effort:
- 0.729680061340332
- -16.856660842895508
- 1.1634712219238281
- 17.606672286987305
- 1.3110538721084595
- 2.8099520206451416
- 0.269051194190979
- 0.0
- 0.0
---
header:
  stamp:
    sec: 1756278223
    nanosec: 667169392
  frame_id: ''
name:
- fr3_joint1
- fr3_joint2
- fr3_joint3
- fr3_joint4
- fr3_joint5
- fr3_joint6
- fr3_joint7
- fr3_finger_joint1
- fr3_finger_joint2
position:
- 0.36231657229588693
- -0.23274361935418275
- -0.28538717320383217
- -1.2628451791733881
- 0.167928651610536
- 1.886434835340315
- 0.5428156267663439
- 0.0
- 0.0
velocity:
- 0.16675273763741724
- -0.03570034382448939
- -0.07605294152337704
- 0.09755335392297118
- 0.040516298524122286
- 0.08223001240931457
- 0.20735030171333235
- 0.0
- 0.0
effort:
- 0.832829475402832
- -16.809053421020508
- 1.5244941711425781
- 17.213911056518555
- 1.3366886377334595
- 2.7229769229888916
- 0.282784104347229
- 0.0
- 0.0
---
header:
  stamp:
    sec: 1756278223
    nanosec: 700763791
  frame_id: ''
name:
- fr3_joint1
- fr3_joint2
- fr3_joint3
- fr3_joint4
- fr3_joint5
- fr3_joint6
- fr3_joint7
- fr3_finger_joint1
- fr3_finger_joint2
position:
- 0.3674553493780627
- -0.23390300182490711
- -0.2876045816677063
- -1.2598231150228598
- 0.16925439544781146
- 1.8891554466607492
- 0.5491637123086367
- 0.0
- 0.0
velocity:
- 0.15299753318860948
- -0.033296493728811646
- -0.06240393812916039
- 0.09701058035201632
- 0.041929168809132965
- 0.07798396243540681
- 0.18987216806533352
- 0.0
- 0.0
effort:
- 0.44800281524658203
- -16.682100296020508
- 1.0841255187988281
- 17.321027755737305
- 1.2780948877334595
- 2.7559359073638916
- 0.309334397315979
- 0.0
- 0.0
---
header:
  stamp:
    sec: 1756278223
    nanosec: 734157145
  frame_id: ''
name:
- fr3_joint1
- fr3_joint2
- fr3_joint3
- fr3_joint4
- fr3_joint5
- fr3_joint6
- fr3_joint7
- fr3_finger_joint1
- fr3_finger_joint2
position:
- 0.37267817142459414
- -0.23491137945697363
- -0.2897727243239904
- -1.2566270726415782
- 0.1706716308114872
- 1.8921551766811
- 0.5558574452995849
- 0.0
- 0.0
velocity:
- 0.1613247983935249
- -0.029732807128683834
- -0.06860966243731052
- 0.09171331891265835
- 0.04269328407708595
- 0.09478023239046357
- 0.21043128486056492
- 0.0
- 0.0
effort:
- 0.40039539337158203
- -16.475801467895508
- 1.1357002258300781
- 17.321027755737305
- 1.2716861963272095
- 2.7760775089263916
- 0.323067307472229
- 0.0
- 0.0
---
header:
  stamp:
    sec: 1756278223
    nanosec: 767857888
  frame_id: ''
name:
- fr3_joint1
- fr3_joint2
- fr3_joint3
- fr3_joint4
- fr3_joint5
- fr3_joint6
- fr3_joint7
- fr3_finger_joint1
- fr3_finger_joint2
position:
- 0.37823645814790186
- -0.23599404241125602
- -0.29228791523210074
- -1.2536003118600056
- 0.1720837707215579
- 1.8953852925105006
- 0.5633422571589523
- 0.0
- 0.0
velocity:
- 0.15421467024437485
- -0.034843917076714116
- -0.06894277808174842
- 0.08488508474893919
- 0.04362075322863489
- 0.09193851462099381
- 0.211771100643004
- 0.0
- 0.0
effort:
- 0.705876350402832
- -16.297273635864258
- 1.5244941711425781
- 16.872724533081055
- 1.2451359033584595
- 2.6561434268951416
- 0.275459885597229
- 0.0
- 0.0
---
header:
  stamp:
    sec: 1756278223
    nanosec: 802401227
  frame_id: ''
name:
- fr3_joint1
- fr3_joint2
- fr3_joint3
- fr3_joint4
- fr3_joint5
- fr3_joint6
- fr3_joint7
- fr3_finger_joint1
- fr3_finger_joint2
position:
- 0.3829355201210224
- -0.23703687262029427
- -0.2944317403683021
- -1.2510388660696086
- 0.17335052367712261
- 1.8980816398295879
- 0.5691336628906601
- 0.0
- 0.0
velocity:
- 0.14939419085804084
- -0.028709758139613174
- -0.0690001222300768
- 0.08632080297612336
- 0.04178323919423266
- 0.0829701606173745
- 0.18435383076420975
- 0.0
- 0.0
effort:
- 0.705876350402832
- -16.400423049926758
- 1.3697700500488281
- 17.213911056518555
- 1.2780948877334595
- 2.7431185245513916
- 0.316658616065979
- 0.0
- 0.0
---
header:
  stamp:
    sec: 1756278223
    nanosec: 833844152
  frame_id: ''
name:
- fr3_joint1
- fr3_joint2
- fr3_joint3
- fr3_joint4
- fr3_joint5
- fr3_joint6
- fr3_joint7
- fr3_finger_joint1
- fr3_finger_joint2
position:
- 0.38840239700012325
- -0.2380674357384202
- -0.2969158184046728
- -1.2481862034551328
- 0.17478276559505138
- 1.9008441794670028
- 0.5758364233291005
- 0.0
- 0.0
velocity:
- 0.16407241263017688
- -0.031109041591356395
- -0.0761568163880542
- 0.08458872639468464
- 0.043665348123742044
- 0.07867375170538048
- 0.20960049355089294
- 0.0
- 0.0
effort:
- 0.805058479309082
- -16.221895217895508
- 1.4967231750488281
- 17.213911056518555
- 1.3037296533584595
- 2.7696688175201416
- 0.295601487159729
- 0.0
- 0.0
---
header:
  stamp:
    sec: 1756278223
    nanosec: 867199397
  frame_id: ''
name:
- fr3_joint1
- fr3_joint2
- fr3_joint3
- fr3_joint4
- fr3_joint5
- fr3_joint6
- fr3_joint7
- fr3_finger_joint1
- fr3_finger_joint2
position:
- 0.39383716865702284
- -0.2390431695279455
- -0.2993962375676172
- -1.2451524270508278
- 0.17624054271959966
- 1.9035764274032694
- 0.5833992302022376
- 0.0
- 0.0
velocity:
- 0.1502554364150552
- -0.026453849411857144
- -0.06718449862084681
- 0.09192131662487918
- 0.04372776908632898
- 0.07909043390952265
- 0.2092335043085558
- 0.0
- 0.0
effort:
- 0.26947498321533203
- -16.297273635864258
- 1.0087471008300781
- 16.979841232299805
- 1.2121769189834595
- 2.6964266300201416
- 0.316658616065979
- 0.0
- 0.0
---
header:
  stamp:
    sec: 1756278223
    nanosec: 900786274
  frame_id: ''
name:
- fr3_joint1
- fr3_joint2
- fr3_joint3
- fr3_joint4
- fr3_joint5
- fr3_joint6
- fr3_joint7
- fr3_finger_joint1
- fr3_finger_joint2
position:
- 0.39880602618941746
- -0.2399643830973942
- -0.30150463980632536
- -1.2421634492999512
- 0.1775184082100284
- 1.906292892792457
- 0.5894135456415958
- 0.0
- 0.0
velocity:
- 0.16068384855703763
- -0.029486654670825646
- -0.06793770461557463
- 0.09027984990062546
- 0.0431293149677561
- 0.08160379349780353
- 0.18734721030462934
- 0.0
- 0.0
effort:
- 0.34882068634033203
- -16.297273635864258
- 1.1634712219238281
- 17.031415939331055
- 1.2259098291397095
- 2.6964266300201416
- 0.2351766973733902
- 0.0
- 0.0
---
header:
  stamp:
    sec: 1756278223
    nanosec: 934125029
  frame_id: ''
name:
- fr3_joint1
- fr3_joint2
- fr3_joint3
- fr3_joint4
- fr3_joint5
- fr3_joint6
- fr3_joint7
- fr3_finger_joint1
- fr3_finger_joint2
position:
- 0.4043526813572715
- -0.24123178691697447
- -0.30401847004663507
- -1.2394113119724433
- 0.17895332110263013
- 1.9091106763685564
- 0.5963901190221835
- 0.0
- 0.0
velocity:
- 0.1614892936513467
- -0.040212450795892876
- -0.07597509762929734
- 0.08039880903842746
- 0.045638595051340866
- 0.0796932374011992
- 0.21797524328446663
- 0.0
- 0.0
effort:
- 0.551152229309082
- -16.019563674926758
- 1.5244941711425781
- 17.190107345581055
- 1.2323185205459595
- 2.7431185245513916
- 0.289192795753479
- 0.0
- 0.0
---
header:
  stamp:
    sec: 1756278223
    nanosec: 967200310
  frame_id: ''
name:
- fr3_joint1
- fr3_joint2
- fr3_joint3
- fr3_joint4
- fr3_joint5
- fr3_joint6
- fr3_joint7
- fr3_finger_joint1
- fr3_finger_joint2
position:
- 0.4093599486300281
- -0.24249762600820057
- -0.3063053837588992
- -1.236477199873066
- 0.18040631026484008
- 1.911838583000408
- 0.6037515944601404
- 0.0
- 0.0
velocity:
- 0.1478130668712082
- -0.03699858902938608
- -0.06861655743757719
- 0.08672454156287658
- 0.0433004429481808
- 0.08930574407173027
- 0.20273726794830937
- 0.0
- 0.0
effort:
- 0.705876350402832
- -16.198091506958008
- 1.6038398742675781
- 16.872724533081055
- 1.2652775049209595
- 2.6900179386138916
- 0.329475998878479
- 0.0
- 0.0
---
header:
  stamp:
    sec: 1756278224
    nanosec: 956235
  frame_id: ''
name:
- fr3_joint1
- fr3_joint2
- fr3_joint3
- fr3_joint4
- fr3_joint5
- fr3_joint6
- fr3_joint7
- fr3_finger_joint1
- fr3_finger_joint2
position:
- 0.4146007590685773
- -0.24375614312929342
- -0.30864733635880653
- -1.2335729818214511
- 0.18178416014253795
- 1.9145845174177507
- 0.6095573887977537
- 0.0
- 0.0
velocity:
- 0.1663529086434863
- -0.038434519189136186
- -0.0784325095781063
- 0.08800822395583176
- 0.0421705239855833
- 0.07929893784986364
- 0.18194920627100597
- 0.0
- 0.0
effort:
- 0.832829475402832
- -15.892610549926758
- 1.6792182922363281
- 17.162336349487305
- 1.2451359033584595
- 2.7632601261138916
- 0.336800217628479
- 0.0
- 0.0
---
header:
  stamp:
    sec: 1756278224
    nanosec: 34899997
  frame_id: ''
name:
- fr3_joint1
- fr3_joint2
- fr3_joint3
- fr3_joint4
- fr3_joint5
- fr3_joint6
- fr3_joint7
- fr3_finger_joint1
- fr3_finger_joint2
position:
- 0.4197632977099504
- -0.24497694696133518
- -0.3109053304944849
- -1.230524067700807
- 0.18316906980393485
- 1.9172825149784878
- 0.616226240766031
- 0.0
- 0.0
velocity:
- 0.15382890263004015
- -0.037593924353479406
- -0.06649915599656833
- 0.09022007931434134
- 0.04171965248754501
- 0.08426683272738611
- 0.21814105726745323
- 0.0
- 0.0
effort:
- 0.47577381134033203
- -15.662508010864258
- 1.3697700500488281
- 16.821149826049805
- 1.2451359033584595
- 2.7101595401763916
- 0.302925705909729
- 0.0
- 0.0
---
header:
  stamp:
    sec: 1756278224
    nanosec: 67284871
  frame_id: ''
name:
- fr3_joint1
- fr3_joint2
- fr3_joint3
- fr3_joint4
- fr3_joint5
- fr3_joint6
- fr3_joint7
- fr3_finger_joint1
- fr3_finger_joint2
position:
- 0.4251647734962465
- -0.24627292213638177
- -0.3130827839448954
- -1.2273026050131306
- 0.18458192066466753
- 1.9200785300570709
- 0.6234885895124143
- 0.0
- 0.0
velocity:
- 0.16193360634516626
- -0.03980494405469489
- -0.06324983739392138
- 0.08907550975506587
- 0.042448148702824595
- 0.0812259193919772
- 0.20020528247271654
- 0.0
- 0.0
effort:
- 0.42419910430908203
- -15.079317092895508
- 1.2150459289550781
- 16.194318771362305
- 1.2121769189834595
- 2.5764925479888916
- 0.323067307472229
- 0.0
- 0.0
---
header:
  stamp:
    sec: 1756278224
    nanosec: 100480906
  frame_id: ''
name:
- fr3_joint1
- fr3_joint2
- fr3_joint3
- fr3_joint4
- fr3_joint5
- fr3_joint6
- fr3_joint7
- fr3_finger_joint1
- fr3_finger_joint2
position:
- 0.430601028728696
- -0.24761669693409993
- -0.315464940049122
- -1.2245160702395212
- 0.18588179362022209
- 1.9225579697227089
- 0.6296887742012356
- 0.0
- 0.0
velocity:
- 0.15492173066053205
- -0.03815064267623207
- -0.06737165371660385
- 0.08765581467962627
- 0.041888028271035924
- 0.07367758846690604
- 0.19056688072675038
- 0.0
- 0.0
effort:
- 0.654301643371582
- -14.900789260864258
- 1.6554145812988281
- 16.769575119018555
- 1.1993595361709595
- 2.7431185245513916
- 0.356941819190979
- 0.0
- 0.0
---
header:
  stamp:
    sec: 1756278224
    nanosec: 133969552
  frame_id: ''
name:
- fr3_joint1
- fr3_joint2
- fr3_joint3
- fr3_joint4
- fr3_joint5
- fr3_joint6
- fr3_joint7
- fr3_finger_joint1
- fr3_finger_joint2
position:
- 0.4354734919504552
- -0.2487126571334395
- -0.3176998850201418
- -1.2216589876959687
- 0.1872813735779365
- 1.9252407277694996
- 0.636408574998696
- 0.0
- 0.0
velocity:
- 0.14834537984351953
- -0.031699611636214764
- -0.06482519222884206
- 0.08879190613946542
- 0.041470885924992096
- 0.08676079953967925
- 0.2239899294910252
- 0.0
- 0.0
effort:
- 0.832829475402832
- -14.797639846801758
- 1.5760688781738281
- 16.400617599487305
- 1.2579532861709595
- 2.6634676456451416
- 0.275459885597229
- 0.0
- 0.0
---
header:
  stamp:
    sec: 1756278224
    nanosec: 167790158
  frame_id: ''
name:
- fr3_joint1
- fr3_joint2
- fr3_joint3
- fr3_joint4
- fr3_joint5
- fr3_joint6
- fr3_joint7
- fr3_finger_joint1
- fr3_finger_joint2
position:
- 0.4409194132588623
- -0.24972752141752227
- -0.32014285450503527
- -1.2184861208540734
- 0.1887447891364549
- 1.928219481218165
- 0.6439718860103967
- 0.0
- 0.0
velocity:
- 0.16233524803178798
- -0.029354539879530222
- -0.07674012351536258
- 0.08985304131759557
- 0.04190609718892861
- 0.08978842760578937
- 0.1939098735274244
- 0.0
- 0.0
effort:
- 0.856633186340332
- -14.924592971801758
- 1.7069892883300781
- 16.325239181518555
- 1.2652775049209595
- 2.6094515323638916
- 0.282784104347229
- 0.0
- 0.0
---
header:
  stamp:
    sec: 1756278224
    nanosec: 200523306
  frame_id: ''
name:
- fr3_joint1
- fr3_joint2
- fr3_joint3
- fr3_joint4
- fr3_joint5
- fr3_joint6
- fr3_joint7
- fr3_finger_joint1
- fr3_finger_joint2
position:
- 0.4460671929320131
- -0.25072552231551803
- -0.3224899863735976
- -1.215564053684413
- 0.19009301689656516
- 1.9311868075509595
- 0.6501019719202671
- 0.0
- 0.0
velocity:
- 0.1503155876767217
- -0.029910486991622614
- -0.0663312862836317
- 0.09087352509635781
- 0.0444221213483161
- 0.09513210957403377
- 0.19404050376672147
- 0.0
- 0.0
effort:
- 0.32104969024658203
- -14.849214553833008
- 1.1872749328613281
- 16.376813888549805
- 1.2323185205459595
- 2.6561434268951416
- 0.289192795753479
- 0.0
- 0.0
---
header:
  stamp:
    sec: 1756278224
    nanosec: 233849345
  frame_id: ''
name:
- fr3_joint1
- fr3_joint2
- fr3_joint3
- fr3_joint4
- fr3_joint5
- fr3_joint6
- fr3_joint7
- fr3_finger_joint1
- fr3_finger_joint2
position:
- 0.45106390824607795
- -0.2517935078457809
- -0.3246387299826601
- -1.2127980249535293
- 0.1914547862459191
- 1.9343182519745163
- 0.6567197010597638
- 0.0
- 0.0
velocity:
- 0.16412241148319423
- -0.03281246387200921
- -0.06796146280844322
- 0.08648579472794363
- 0.03662096709245154
- 0.08876272965063844
- 0.2111743032493565
- 0.0
- 0.0
effort:
- 0.29724597930908203
- -14.746065139770508
- 1.3419990539550781
- 16.376813888549805
- 1.2387272119522095
- 2.6360018253326416
- 0.384407639503479
- 0.0
- 0.0
---
header:
  stamp:
    sec: 1756278224
    nanosec: 267222053
  frame_id: ''
name:
- fr3_joint1
- fr3_joint2
- fr3_joint3
- fr3_joint4
- fr3_joint5
- fr3_joint6
- fr3_joint7
- fr3_finger_joint1
- fr3_finger_joint2
position:
- 0.4568220287535708
- -0.2529280326182669
- -0.3272887688154033
- -1.2097375060053484
- 0.19272026686045646
- 1.9373287505466257
- 0.6639437252648037
- 0.0
- 0.0
velocity:
- 0.15542747175280333
- -0.03304358018732781
- -0.07165327081016987
- 0.08595870371200441
- 0.0342190118311674
- 0.08799455281513399
- 0.18563423802452703
- 0.0
- 0.0
effort:
- 0.705876350402832
- -14.543733596801758
- 1.8101387023925781
- 16.194318771362305
- 1.2451359033584595
- 2.6094515323638916
- 0.302925705909729
- 0.0
- 0.0
---
header:
  stamp:
    sec: 1756278224
    nanosec: 300617229
  frame_id: ''
name:
- fr3_joint1
- fr3_joint2
- fr3_joint3
- fr3_joint4
- fr3_joint5
- fr3_joint6
- fr3_joint7
- fr3_finger_joint1
- fr3_finger_joint2
position:
- 0.46163286140389237
- -0.25393857405141873
- -0.329432022836451
- -1.2068490142336767
- 0.19393664806381697
- 1.9398779550227434
- 0.6699394976658621
- 0.0
- 0.0
velocity:
- 0.14151930605682397
- -0.028886616495624684
- -0.06292928932978248
- 0.09378741026798235
- 0.03597296473261627
- 0.07454913121753542
- 0.19432557741321396
- 0.0
- 0.0
effort:
- 0.757451057434082
- -14.900789260864258
- 1.8339424133300781
- 16.479963302612305
- 1.2780948877334595
- 2.6497347354888916
- 0.323067307472229
- 0.0
- 0.0
---
header:
  stamp:
    sec: 1756278224
    nanosec: 333842496
  frame_id: ''
name:
- fr3_joint1
- fr3_joint2
- fr3_joint3
- fr3_joint4
- fr3_joint5
- fr3_joint6
- fr3_joint7
- fr3_finger_joint1
- fr3_finger_joint2
position:
- 0.466845272528004
- -0.2550049665828619
- -0.33169335802213956
- -1.2038896439799858
- 0.19515755651213
- 1.9424704566561133
- 0.6769589106268831
- 0.0
- 0.0
velocity:
- 0.16282987251978376
- -0.03625849369889963
- -0.06864565510815382
