header:
  stamp:
    sec: 1756277760
    nanosec: 347397908
  frame_id: ''
name:
- fr3_joint1
- fr3_joint2
- fr3_joint3
- fr3_joint4
- fr3_joint5
- fr3_joint6
- fr3_joint7
- fr3_finger_joint1
- fr3_finger_joint2
position:
- -1.1743503446873087
- -0.0545386468196647
- -1.0777279986994859
- -2.1513983083031105
- -0.08356450016209335
- 2.077391019828022
- 2.2203827122770368
- 0.0
- 0.0
velocity:
- 0.16015518451625238
- -0.028193820838574534
- -0.009693918540097025
- 0.01780713203146148
- -0.1122364190415234
- 0.08528340120447761
- -0.025770406689022307
- 0.0
- 0.0
effort:
- 0.654301643371582
- -14.392976760864258
- 0.9294014573097229
- 22.141279220581055
- 0.32869309186935425
- 2.1498568058013916
- -0.266532301902771
- 0.0
- 0.0
---
header:
  stamp:
    sec: 1756277760
    nanosec: 380674895
  frame_id: ''
name:
- fr3_joint1
- fr3_joint2
- fr3_joint3
- fr3_joint4
- fr3_joint5
- fr3_joint6
- fr3_joint7
- fr3_finger_joint1
- fr3_finger_joint2
position:
- -1.168814617453432
- -0.055586672295630496
- -1.0783934175868821
- -2.150837060285761
- -0.0873415345250883
- 2.0802603295820026
- 2.2193692666049905
- 0.0
- 0.0
velocity:
- 0.16919172189743772
- -0.03370789999306811
- -0.028161504306554702
- 0.015385726511075034
- -0.11306399912133984
- 0.08737715344459618
- -0.026843198065100108
- 0.0
- 0.0
effort:
- 1.162114143371582
- -14.266023635864258
- 1.7307929992675781
- 22.296003341674805
- 0.27650803327560425
- 2.1837313175201416
- -0.252799391746521
- 0.0
- 0.0
---
header:
  stamp:
    sec: 1756277760
    nanosec: 414035628
  frame_id: ''
name:
- fr3_joint1
- fr3_joint2
- fr3_joint3
- fr3_joint4
- fr3_joint5
- fr3_joint6
- fr3_joint7
- fr3_finger_joint1
- fr3_finger_joint2
position:
- -1.16357491248495
- -0.05675318476483348
- -1.0790292179274072
- -2.1503749822769196
- -0.09116181081603268
- 2.083597136634181
- 2.2185123942782
- 0.0
- 0.0
velocity:
- 0.14934478633941004
- -0.036125438780308286
- -0.012478016159749965
- 0.015706756154636178
- -0.11238013559194027
- 0.09981465020678781
- -0.02782189593826054
- 0.0
- 0.0
effort:
- 0.527348518371582
- -14.162874221801758
- 1.1118965148925781
- 22.272199630737305
- 0.29573410749435425
- 2.1901400089263916
- -0.266532301902771
- 0.0
- 0.0
---
header:
  stamp:
    sec: 1756277760
    nanosec: 447272612
  frame_id: ''
name:
- fr3_joint1
- fr3_joint2
- fr3_joint3
- fr3_joint4
- fr3_joint5
- fr3_joint6
- fr3_joint7
- fr3_finger_joint1
- fr3_finger_joint2
position:
- -1.1586039503810845
- -0.05788478751472547
- -1.0793875521138991
- -2.14981872562555
- -0.09487670415707701
- 2.087134354297164
- 2.217797952248245
- 0.0
- 0.0
velocity:
- 0.15645434563244867
- -0.03438044671002884
- -0.012681063950722835
- 0.018633390795150594
- -0.11618601439035328
- 0.11655644217294694
- -0.0224174684535584
- 0.0
- 0.0
effort:
- 0.578923225402832
- -14.087495803833008
- 1.0325508117675781
- 22.272199630737305
- 0.33510178327560425
- 2.1901400089263916
- -0.260123610496521
- 0.0
- 0.0
---
header:
  stamp:
    sec: 1756277760
    nanosec: 480627942
  frame_id: ''
name:
- fr3_joint1
- fr3_joint2
- fr3_joint3
- fr3_joint4
- fr3_joint5
- fr3_joint6
- fr3_joint7
- fr3_finger_joint1
- fr3_finger_joint2
position:
- -1.1531980748072985
- -0.059030350371056625
- -1.0798251059865913
- -2.1492071374712403
- -0.09873671032708528
- 2.0911367572402364
- 2.2170394656438828
- 0.0
- 0.0
velocity:
- 0.1571104041849602
- -0.03323221532790042
- -0.00955325396992
- 0.018551281862046354
- -0.11361723387691092
- 0.11452437890072492
- -0.026391086116399513
- 0.0
- 0.0
effort:
- 0.44800281524658203
- -14.214448928833008
- 1.0087471008300781
- 22.216657638549805
- 0.28291672468185425
- 2.1699984073638916
- -0.252799391746521
- 0.0
- 0.0
---
header:
  stamp:
    sec: 1756277760
    nanosec: 513946106
  frame_id: ''
name:
- fr3_joint1
- fr3_joint2
- fr3_joint3
- fr3_joint4
- fr3_joint5
- fr3_joint6
- fr3_joint7
- fr3_finger_joint1
- fr3_finger_joint2
position:
- -1.1478726530808223
- -0.060145835813284476
- -1.0801583527612815
- -2.1486005498674197
- -0.10238899382903889
- 2.094757511432319
- 2.2161180990393854
- 0.0
- 0.0
velocity:
- 0.1614197468714391
- -0.032510039180651706
- -0.014283328758605395
- 0.01872791123567882
- -0.1088981078196336
- 0.100715799990975
- -0.0263292769910684
- 0.0
- 0.0
effort:
- 0.654301643371582
- -14.289827346801758
- 1.1357002258300781
- 22.165082931518555
- 0.28932541608810425
- 2.1635897159576416
- -0.280265212059021
- 0.0
- 0.0
---
header:
  stamp:
    sec: 1756277760
    nanosec: 547283439
  frame_id: ''
name:
- fr3_joint1
- fr3_joint2
- fr3_joint3
- fr3_joint4
- fr3_joint5
- fr3_joint6
- fr3_joint7
- fr3_finger_joint1
- fr3_finger_joint2
position:
- -1.142544120592692
- -0.06128035944621396
- -1.0808986289162725
- -2.1480330705288058
- -0.10606552449214773
- 2.0977545436888576
- 2.2152870445731354
- 0.0
- 0.0
velocity:
- 0.1687872515868148
- -0.03575945418191764
- -0.03122086973384171
- 0.017512848399414666
- -0.12102383434711797
- 0.08810746837945031
- -0.0270417217003763
- 0.0
- 0.0
effort:
- 1.189885139465332
- -13.932771682739258
- 1.8101387023925781
- 22.085737228393555
- 0.28932541608810425
- 2.2029573917388916
- -0.280265212059021
- 0.0
- 0.0
---
header:
  stamp:
    sec: 1756277760
    nanosec: 580685337
  frame_id: ''
name:
- fr3_joint1
- fr3_joint2
- fr3_joint3
- fr3_joint4
- fr3_joint5
- fr3_joint6
- fr3_joint7
- fr3_finger_joint1
- fr3_finger_joint2
position:
- -1.1374147761341455
- -0.062444236985814694
- -1.081625596731675
- -2.147533090432857
- -0.11010352339335663
- 2.100859858556137
- 2.2143289861029047
- 0.0
- 0.0
velocity:
- 0.14635384942833662
- -0.03283386648353162
- -0.013512389230342366
- 0.013379602049035906
- -0.12074046800355694
- 0.096084135408531
- -0.028368545937028308
- 0.0
- 0.0
effort:
- 0.678105354309082
- -13.984346389770508
- 1.2388496398925781
- 22.141279220581055
- 0.29573410749435425
- 2.1837313175201416
- -0.2463906854391098
- 0.0
- 0.0
---
header:
  stamp:
    sec: 1756277760
    nanosec: 614081039
  frame_id: ''
name:
- fr3_joint1
- fr3_joint2
- fr3_joint3
- fr3_joint4
- fr3_joint5
- fr3_joint6
- fr3_joint7
- fr3_finger_joint1
- fr3_finger_joint2
position:
- -1.1322816694978037
- -0.06355023899932834
- -1.0820965891418575
- -2.147100151691329
- -0.11407530871097929
- 2.1041431107368855
- 2.2134405425179504
- 0.0
- 0.0
velocity:
- 0.15645364132077683
- -0.03303405648106565
- -0.011994053891556717
- 0.011355550344220993
- -0.11672952752255729
- 0.10408610003366357
- -0.02659532009740265
- 0.0
- 0.0
effort:
- 0.42419910430908203
- -13.984346389770508
- 1.1118965148925781
- 22.272199630737305
- 0.33510178327560425
- 2.2432405948638916
- -0.2125161737203598
- 0.0
- 0.0
---
header:
  stamp:
    sec: 1756277760
    nanosec: 647614972
  frame_id: ''
name:
- fr3_joint1
- fr3_joint2
- fr3_joint3
- fr3_joint4
- fr3_joint5
- fr3_joint6
- fr3_joint7
- fr3_finger_joint1
- fr3_finger_joint2
position:
- -1.1271041989760162
- -0.06459993082996182
- -1.082550028372938
- -2.14674402976613
- -0.11793972180663012
- 2.107859284333393
- 2.2126811277563
- 0.0
- 0.0
velocity:
- 0.1562599800137373
- -0.030095745285063893
- -0.012819197574708197
- 0.008936380578501163
- -0.11714998476650905
- 0.11930726582967306
- -0.021580664355492947
- 0.0
- 0.0
effort:
- 0.654301643371582
- -14.035921096801758
- 1.2666206359863281
- 22.403120040893555
- 0.31496018171310425
- 2.2432405948638916
- -0.272940993309021
- 0.0
- 0.0
---
header:
  stamp:
    sec: 1756277760
    nanosec: 680644073
  frame_id: ''
name:
- fr3_joint1
- fr3_joint2
- fr3_joint3
- fr3_joint4
- fr3_joint5
- fr3_joint6
- fr3_joint7
- fr3_finger_joint1
- fr3_finger_joint2
position:
- -1.1219278341625867
- -0.06561719983643478
- -1.0828080040017125
- -2.1462897011254416
- -0.1216594046836542
- 2.111532311618864
- 2.2119347405793404
- 0.0
- 0.0
velocity:
- 0.15935475206193664
- -0.028246399079643547
- -0.013862504181985895
- 0.016204697532444717
- -0.10833896245769879
- 0.10348290559568107
- -0.020840905212246127
- 0.0
- 0.0
effort:
- 0.781254768371582
- -14.035921096801758
- 1.4451484680175781
- 22.216657638549805
- 0.30855149030685425
- 2.2166903018951416
- -0.327872633934021
- 0.0
- 0.0
---
header:
  stamp:
    sec: 1756277760
    nanosec: 713849518
  frame_id: ''
name:
- fr3_joint1
- fr3_joint2
- fr3_joint3
- fr3_joint4
- fr3_joint5
- fr3_joint6
- fr3_joint7
- fr3_finger_joint1
- fr3_finger_joint2
position:
- -1.1163965712615216
- -0.06669438029000004
- -1.083560541829881
- -2.1457997931544615
- -0.12522657698188258
- 2.1148590226184485
- 2.211128055178546
- 0.0
- 0.0
velocity:
- 0.16715221228712368
- -0.03555371868933629
- -0.028230759324739545
- 0.01318077613178548
- -0.10899622584520655
- 0.09200395342792635
- -0.025510227131661022
- 0.0
- 0.0
effort:
- 1.241459846496582
- -13.805818557739258
- 1.9648628234863281
- 22.192853927612305
- 0.28291672468185425
- 2.1965487003326416
- -0.260123610496521
- 0.0
- 0.0
---
header:
  stamp:
    sec: 1756277760
    nanosec: 747247931
  frame_id: ''
name:
- fr3_joint1
- fr3_joint2
- fr3_joint3
- fr3_joint4
- fr3_joint5
- fr3_joint6
- fr3_joint7
- fr3_finger_joint1
- fr3_finger_joint2
position:
- -1.11137272640019
- -0.06786022151790867
- -1.0841587267419437
- -2.1454142746161238
- -0.128982240052991
- 2.117705094488108
- 2.210281605716806
- 0.0
- 0.0
velocity:
- 0.14947644557060477
- -0.035441989335441244
- -0.012081878237966037
- 0.009818719796692452
- -0.11391038095583324
- 0.08708944024507671
- -0.02796459655576807
- 0.0
- 0.0
effort:
- 0.654301643371582
- -13.655061721801758
- 1.4451484680175781
- 22.272199630737305
- 0.28291672468185425
- 2.2230989933013916
- -0.272940993309021
- 0.0
- 0.0
---
header:
  stamp:
    sec: 1756277760
    nanosec: 780550583
  frame_id: ''
name:
- fr3_joint1
- fr3_joint2
- fr3_joint3
- fr3_joint4
- fr3_joint5
- fr3_joint6
- fr3_joint7
- fr3_finger_joint1
- fr3_finger_joint2
position:
- -1.1062516810037162
- -0.0690310673831291
- -1.084502876993568
- -2.145066787514787
- -0.13282687980893473
- 2.120841331114009
- 2.209454880626468
- 0.0
- 0.0
velocity:
- 0.15942498301302854
- -0.03410134181194314
- -0.012675804356014434
- 0.008690961437809844
- -0.11390579592229066
- 0.09904784646036462
- -0.021719333673991058
- 0.0
- 0.0
effort:
- 0.49957752227783203
- -13.754243850708008
- 1.3181953430175781
- 22.323774337768555
- 0.29573410749435425
- 2.2304232120513916
- -0.260123610496521
- 0.0
- 0.0
---
header:
  stamp:
    sec: 1756277760
    nanosec: 813993536
  frame_id: ''
name:
- fr3_joint1
- fr3_joint2
- fr3_joint3
- fr3_joint4
- fr3_joint5
- fr3_joint6
- fr3_joint7
- fr3_finger_joint1
- fr3_finger_joint2
position:
- -1.1007994587862118
- -0.07021824675987776
- -1.084914955295273
- -2.1447863721994773
- -0.13664298227555502
- 2.1242309074345713
- 2.208790292175496
- 0.0
- 0.0
velocity:
- 0.1576784929041362
- -0.03460389993345105
- -0.010345718553812602
- 0.009168607268835803
- -0.11563993189715734
- 0.10211230723283825
- -0.017531490589203023
- 0.0
- 0.0
effort:
- 0.551152229309082
- -13.730440139770508
- 1.3935737609863281
- 22.375349044799805
- 0.30214279890060425
- 2.2496492862701416
- -0.327872633934021
- 0.0
- 0.0
---
header:
  stamp:
    sec: 1756277760
    nanosec: 847562941
  frame_id: ''
name:
- fr3_joint1
- fr3_joint2
- fr3_joint3
- fr3_joint4
- fr3_joint5
- fr3_joint6
- fr3_joint7
- fr3_finger_joint1
- fr3_finger_joint2
position:
- -1.0956645326248906
- -0.07132116472744618
- -1.0851572104593488
- -2.1445038504936536
- -0.14038578811537336
- 2.127866588382342
- 2.2080069737559955
- 0.0
- 0.0
velocity:
- 0.16338074245978737
- -0.03268967875419344
- -0.010470214032529509
- 0.009224651957971314
- -0.11210229207728772
- 0.1188856464425012
- -0.026715552745163837
- 0.0
- 0.0
effort:
- 0.654301643371582
- -13.805818557739258
- 1.4729194641113281
- 22.375349044799805
- 0.27650803327560425
- 2.2697908878326416
- -0.306815505027771
- 0.0
- 0.0
---
header:
  stamp:
    sec: 1756277760
    nanosec: 880593818
  frame_id: ''
name:
- fr3_joint1
- fr3_joint2
- fr3_joint3
- fr3_joint4
- fr3_joint5
- fr3_joint6
- fr3_joint7
- fr3_finger_joint1
- fr3_finger_joint2
position:
- -1.0901797844871877
- -0.07246622525130383
- -1.085791928633298
- -2.144135310401281
- -0.14418382293631496
- 2.1317749243219493
- 2.2070555157666303
- 0.0
- 0.0
velocity:
- 0.1682249926918478
- -0.03670930463980597
- -0.02717218343577602
- 0.01027581036196544
- -0.11532120485189769
- 0.10962105408330558
- -0.03050462691859337
- 0.0
- 0.0
effort:
- 1.241459846496582
- -13.754243850708008
- 2.171161651611328
- 22.351545333862305
- 0.30855149030685425
- 2.2633821964263916
- -0.293998122215271
- 0.0
- 0.0
---
header:
  stamp:
    sec: 1756277760
    nanosec: 914020225
  frame_id: ''
name:
- fr3_joint1
- fr3_joint2
- fr3_joint3
- fr3_joint4
- fr3_joint5
- fr3_joint6
- fr3_joint7
- fr3_finger_joint1
- fr3_finger_joint2
position:
- -1.0850162912455013
- -0.07375047952682119
- -1.0862764459213694
- -2.143743293869192
- -0.1482841309986875
- 2.1351267583884224
- 2.206011133166318
- 0.0
- 0.0
velocity:
- 0.1465094320195461
- -0.03666599103987224
- -0.007296758531948779
- 0.011665117223425052
- -0.12153959682764919
- 0.09528260036513025
- -0.026842810113724053
- 0.0
- 0.0
effort:
- 0.654301643371582
- -13.349580764770508
- 1.4967231750488281
- 22.375349044799805
- 0.30214279890060425
- 2.2633821964263916
- -0.260123610496521
- 0.0
- 0.0
---
header:
  stamp:
    sec: 1756277760
    nanosec: 947841694
  frame_id: ''
name:
- fr3_joint1
- fr3_joint2
- fr3_joint3
- fr3_joint4
- fr3_joint5
- fr3_joint6
- fr3_joint7
- fr3_finger_joint1
- fr3_finger_joint2
position:
- -1.0800112350649342
- -0.07486946191093607
- -1.0865758669305356
- -2.1432581686201155
- -0.15230157859287252
- 2.1381112053561067
- 2.2050377690469647
- 0.0
- 0.0
velocity:
- 0.1549727128450529
- -0.03274217125563271
- -0.007154800299156236
- 0.013287744803773514
- -0.12126078707964978
- 0.09467340597604289
- -0.03162539363213328
- 0.0
- 0.0
effort:
- 0.49957752227783203
- -13.452730178833008
- 1.3697700500488281
- 22.351545333862305
- 0.32228440046310425
- 2.2102816104888916
- -0.286673903465271
- 0.0
- 0.0
---
header:
  stamp:
    sec: 1756277760
    nanosec: 980611517
  frame_id: ''
name:
- fr3_joint1
- fr3_joint2
- fr3_joint3
- fr3_joint4
- fr3_joint5
- fr3_joint6
- fr3_joint7
- fr3_finger_joint1
- fr3_finger_joint2
position:
- -1.0746330236534674
- -0.07590399558732827
- -1.0869258154517645
- -2.1428228824579927
- -0.15614520207974045
- 2.1413628359671586
- 2.2038305408997494
- 0.0
- 0.0
velocity:
- 0.156264054381911
- -0.030842817178719957
- -0.010205920942267478
- 0.01130071962673646
- -0.11482766168015154
- 0.09806603376924047
- -0.03503805078991387
- 0.0
- 0.0
effort:
- 0.551152229309082
- -13.500337600708008
- 1.4729194641113281
- 22.403120040893555
- 0.30214279890060425
- 2.2761995792388916
- -0.334281325340271
- 0.0
- 0.0
---
header:
  stamp:
    sec: 1756277761
    nanosec: 14101052
  frame_id: ''
name:
- fr3_joint1
- fr3_joint2
- fr3_joint3
- fr3_joint4
- fr3_joint5
- fr3_joint6
- fr3_joint7
- fr3_finger_joint1
- fr3_finger_joint2
position:
- -1.0693919697561187
- -0.0768543854102686
- -1.08715821933731
- -2.1423901277906987
- -0.1599351724667952
- 2.1448189526062813
- 2.2025662327207045
- 0.0
- 0.0
velocity:
- 0.15989909207834108
- -0.02659653523537098
- -0.01279412628404988
- 0.013438532818631978
- -0.10920514271175495
- 0.10753855562957193
- -0.03539097402651038
- 0.0
- 0.0
effort:
- 0.729680061340332
- -13.678865432739258
- 1.7069892883300781
- 22.403120040893555
- 0.27650803327560425
- 2.2835237979888916
- -0.306815505027771
- 0.0
- 0.0
---
header:
  stamp:
    sec: 1756277761
    nanosec: 47382852
  frame_id: ''
name:
- fr3_joint1
- fr3_joint2
- fr3_joint3
- fr3_joint4
- fr3_joint5
- fr3_joint6
- fr3_joint7
- fr3_finger_joint1
- fr3_finger_joint2
position:
- -1.064254972450604
- -0.07782516668360395
- -1.0877785583170283
- -2.141971878360628
- -0.1634092359403904
- 2.148227884053519
- 2.2013803017507207
- 0.0
- 0.0
velocity:
- 0.16817477279992374
- -0.032355244349183285
- -0.027431765421975857
- 0.01362177765128383
- -0.10815903493334471
- 0.11102051894647917
- -0.03725789130089429
- 0.0
- 0.0
effort:
- 1.241459846496582
- -13.401155471801758
- 2.302082061767578
- 22.506269454956055
- 0.28291672468185425
- 2.2963411808013916
- -0.286673903465271
- 0.0
- 0.0
---
header:
  stamp:
    sec: 1756277761
    nanosec: 80770162
  frame_id: ''
name:
- fr3_joint1
- fr3_joint2
- fr3_joint3
- fr3_joint4
- fr3_joint5
- fr3_joint6
- fr3_joint7
- fr3_finger_joint1
- fr3_finger_joint2
position:
- -1.0589547913401456
- -0.07895004215799385
- -1.088385210533445
- -2.1414654068450876
- -0.16727686979226145
- 2.15182574504742
- 2.2001522462616956
- 0.0
- 0.0
velocity:
- 0.1480900181515005
- -0.032364690600601834
- -0.008166425048048938
- 0.014629097478847353
- -0.11366699505003787
- 0.10055215615449893
- -0.03687164486034398
- 0.0
- 0.0
effort:
- 0.626530647277832
- -13.476533889770508
- 1.5244941711425781
- 22.426923751831055
- 0.30214279890060425
- 2.2761995792388916
- -0.2189248651266098
- 0.0
- 0.0
---
header:
  stamp:
    sec: 1756277761
    nanosec: 113990436
  frame_id: ''
name:
- fr3_joint1
- fr3_joint2
- fr3_joint3
- fr3_joint4
- fr3_joint5
- fr3_joint6
- fr3_joint7
- fr3_finger_joint1
- fr3_finger_joint2
position:
- -1.0539739287536476
- -0.08001183805065537
- -1.0887018724517288
- -2.140936189463938
- -0.17088754239683054
- 2.1549727245271395
- 2.199174114596025
- 0.0
- 0.0
velocity:
- 0.1604050853577332
- -0.03334684803879305
- -0.011367650981889892
- 0.015039051159241576
- -0.11189824216858167
- 0.09092533555747064
- -0.027825815521296416
- 0.0
- 0.0
effort:
- 0.551152229309082
- -13.476533889770508
- 1.6038398742675781
- 22.351545333862305
- 0.29573410749435425
- 2.2697908878326416
- -0.260123610496521
- 0.0
- 0.0
---
header:
  stamp:
    sec: 1756277761
    nanosec: 147434042
  frame_id: ''
name:
- fr3_joint1
- fr3_joint2
- fr3_joint3
- fr3_joint4
- fr3_joint5
- fr3_joint6
- fr3_joint7
- fr3_finger_joint1
- fr3_finger_joint2
position:
- -1.048531416449078
- -0.0811589328917453
- -1.089101018109832
- -2.140442126677078
- -0.1747275973205017
- 2.157828555965194
- 2.1981968733909962
- 0.0
- 0.0
velocity:
- 0.15731722894710326
- -0.03302691989183772
- -0.01173869820287568
- 0.013808637216604606
- -0.11284438120639516
- 0.08536320969919177
- -0.024831894604445813
- 0.0
- 0.0
effort:
- 0.578923225402832
- -13.298006057739258
- 1.6038398742675781
- 22.426923751831055
- 0.30214279890060425
- 2.3036653995513916
- -0.314139723777771
- 0.0
- 0.0
---
header:
  stamp:
    sec: 1756277761
    nanosec: 180619470
  frame_id: ''
name:
- fr3_joint1
- fr3_joint2
- fr3_joint3
- fr3_joint4
- fr3_joint5
- fr3_joint6
- fr3_joint7
- fr3_finger_joint1
- fr3_finger_joint2
position:
- -1.0432442934522992
- -0.08223348027768577
- -1.089394111957217
- -2.14001349856518
- -0.17860403875246533
- 2.161042560830903
- 2.1973722123353108
- 0.0
- 0.0
velocity:
- 0.15971309792225372
- -0.031751343402927776
- -0.013481864533443893
- 0.011120279857213191
- -0.11147994267559642
- 0.10188105009414605
- -0.020904591004884728
- 0.0
- 0.0
effort:
- 0.729680061340332
- -13.349580764770508
- 1.8339424133300781
- 22.534040451049805
- 0.34151047468185425
- 2.2963411808013916
- -0.293998122215271
- 0.0
- 0.0
---
header:
  stamp:
    sec: 1756277761
    nanosec: 213897216
  frame_id: ''
name:
- fr3_joint1
- fr3_joint2
- fr3_joint3
- fr3_joint4
- fr3_joint5
- fr3_joint6
- fr3_joint7
- fr3_finger_joint1
- fr3_finger_joint2
position:
- -1.0377299678313574
- -0.08330613092166733
- -1.0901278020693157
- -2.1395711317502024
- -0.18236451468225137
- 2.1645986540269324
- 2.196585689256736
- 0.0
- 0.0
velocity:
- 0.1658079627257465
- -0.03464205219249699
- -0.02722593886614125
- 0.013581661364700471
- -0.11260101660710499
- 0.10978066539630156
- -0.024543692143166516
- 0.0
- 0.0
effort:
- 1.368412971496582
- -13.274202346801758
- 2.456806182861328
- 22.482465744018555
- 0.34151047468185425
- 2.3366243839263916
- -0.280265212059021
- 0.0
- 0.0
---
header:
  stamp:
    sec: 1756277761
    nanosec: 247434815
  frame_id: ''
name:
- fr3_joint1
- fr3_joint2
- fr3_joint3
- fr3_joint4
- fr3_joint5
- fr3_joint6
- fr3_joint7
- fr3_finger_joint1
- fr3_finger_joint2
position:
- -1.0327670252020964
- -0.08448508339614624
- -1.0906920055522764
- -2.139186611598121
- -0.18613480399994842
- 2.168394328030392
- 2.19587534769556
- 0.0
- 0.0
velocity:
- 0.1477060626674537
- -0.03616610951174827
- -0.011044868338450909
- 0.012783539402632741
- -0.11643054028320991
- 0.11633279592350117
- -0.01867004230270343
- 0.0
- 0.0
effort:
- 0.705876350402832
- -13.246431350708008
- 1.9132881164550781
- 22.637189865112305
- 0.30214279890060425
- 2.3503572940826416
- -0.293998122215271
- 0.0
- 0.0
---
header:
  stamp:
    sec: 1756277761
    nanosec: 280623593
  frame_id: ''
name:
- fr3_joint1
- fr3_joint2
- fr3_joint3
- fr3_joint4
- fr3_joint5
- fr3_joint6
- fr3_joint7
- fr3_finger_joint1
- fr3_finger_joint2
position:
- -1.0276324836915411
- -0.08569402901856694
- -1.0910046060382588
- -2.1386715908629896
- -0.19004942519647688
- 2.172136717756821
- 2.1950788144833
- 0.0
- 0.0
velocity:
- 0.1572950568971569
- -0.03731840829149933
- -0.007510184234822019
- 0.01825002663867415
- -0.11668259008869962
- 0.1034600163625198
- -0.024333302912888682
- 0.0
- 0.0
effort:
- 0.42419910430908203
- -13.321809768676758
- 1.6276435852050781
- 22.506269454956055
- 0.30855149030685425
- 2.3100740909576416
- -0.314139723777771
- 0.0
- 0.0
---
header:
  stamp:
    sec: 1756277761
    nanosec: 314281931
  frame_id: ''
name:
- fr3_joint1
- fr3_joint2
- fr3_joint3
- fr3_joint4
- fr3_joint5
- fr3_joint6
- fr3_joint7
- fr3_finger_joint1
- fr3_finger_joint2
position:
- -1.0227717284994078
- -0.0868583145975396
- -1.0913333874803637
- -2.1381925086220983
- -0.1935055844386017
- 2.1750198960278393
- 2.1944000150534526
- 0.0
- 0.0
velocity:
- 0.1611107732659782
- -0.04069254041884059
- -0.010627138405083078
- 0.017845181603888555
- -0.11361846046602907
- 0.0910693107571158
- -0.021205311117534573
- 0.0
- 0.0
effort:
- 0.527348518371582
- -12.968721389770508
- 1.7585639953613281
- 22.506269454956055
- 0.26277512311935425
- 2.3503572940826416
- -0.272940993309021
- 0.0
- 0.0
---
header:
  stamp:
    sec: 1756277761
    nanosec: 347310717
  frame_id: ''
name:
- fr3_joint1
- fr3_joint2
- fr3_joint3
- fr3_joint4
- fr3_joint5
- fr3_joint6
- fr3_joint7
- fr3_finger_joint1
- fr3_finger_joint2
position:
- -1.0173586017412184
- -0.08802858781191363
- -1.0915451294709273
- -2.137540015727749
- -0.19761538700742554
- 2.1781581483949064
- 2.1936817069470025
- 0.0
- 0.0
velocity:
- 0.15815917069886817
- -0.027062142569158662
- -0.011968825391094631
- 0.019329913416087377
- -0.11580425776114035
- 0.09258496832598526
- -0.02147686863691463
- 0.0
- 0.0
effort:
- 0.602726936340332
- -13.274202346801758
- 1.9370918273925781
- 22.534040451049805
- 0.34791916608810425
- 2.3503572940826416
- -0.272940993309021
- 0.0
- 0.0
---
header:
  stamp:
    sec: 1756277761
    nanosec: 380619464
  frame_id: ''
name:
- fr3_joint1
- fr3_joint2
- fr3_joint3
- fr3_joint4
- fr3_joint5
- fr3_joint6
- fr3_joint7
- fr3_finger_joint1
- fr3_finger_joint2
position:
- -1.0116671437017677
- -0.08916492713646695
- -1.0922836067232355
- -2.1368268085175037
- -0.20150039003238618
- 2.1814690717083205
- 2.1929630212649585
- 0.0
- 0.0
velocity:
- 0.16435332762565158
- -0.033137121817357174
- -0.02811577781233438
- 0.020814826816462986
- -0.10871411392447317
- 0.098201626126209
- -0.022428483960732288
- 0.0
- 0.0
effort:
- 1.340641975402832
- -12.940950393676758
- 2.611530303955078
- 22.426923751831055
- 0.33510178327560425
- 2.3503572940826416
- -0.252799391746521
- 0.0
- 0.0
---
header:
  stamp:
    sec: 1756277761
    nanosec: 414023902
  frame_id: ''
name:
- fr3_joint1
- fr3_joint2
- fr3_joint3
- fr3_joint4
- fr3_joint5
- fr3_joint6
- fr3_joint7
- fr3_finger_joint1
- fr3_finger_joint2
position:
- -1.006513073987846
- -0.0902664205990566
- -1.0929351918351484
- -2.1362271962312835
- -0.20519781973440623
- 2.185093849226762
- 2.192229489453175
- 0.0
- 0.0
velocity:
- 0.14798226343301032
- -0.03266167982466738
- -0.012367453745222528
- 0.017951146653565713
- -0.11225728897723776
- 0.114459676842815
- -0.024586436538318206
- 0.0
- 0.0
effort:
- 0.705876350402832
- -12.968721389770508
- 2.016437530517578
- 22.482465744018555
- 0.25636643171310425
- 2.3833162784576416
- -0.280265212059021
- 0.0
- 0.0
---
header:
  stamp:
    sec: 1756277761
    nanosec: 447278079
  frame_id: ''
name:
- fr3_joint1
- fr3_joint2
- fr3_joint3
- fr3_joint4
- fr3_joint5
- fr3_joint6
- fr3_joint7
- fr3_finger_joint1
- fr3_finger_joint2
position:
- -1.0015706323807827
- -0.09128426872214213
- -1.0932903985363855
- -2.135704714371474
- -0.20894902704765525
- 2.188835042976231
- 2.1914727159025698
- 0.0
- 0.0
velocity:
- 0.1576549277686469
- -0.02862016470489458
- -0.012859480869740527
- 0.017403864694268217
- -0.11522102103231666
- 0.1088981305528381
- -0.024838135721118988
- 0.0
- 0.0
effort:
- 0.602726936340332
- -12.992525100708008
- 1.8339424133300781
- 22.482465744018555
- 0.28291672468185425
- 2.3366243839263916
- -0.2189248651266098
- 0.0
- 0.0
---
header:
  stamp:
    sec: 1756277761
    nanosec: 480686170
  frame_id: ''
name:
- fr3_joint1
- fr3_joint2
- fr3_joint3
- fr3_joint4
- fr3_joint5
- fr3_joint6
- fr3_joint7
- fr3_finger_joint1
- fr3_finger_joint2
position:
- -0.9961182935249949
- -0.09236205250944926
- -1.0937326734880024
- -2.1351076137368694
- -0.21273326239844417
- 2.192192816726447
- 2.1905896097975788
- 0.0
- 0.0
velocity:
- 0.16048050456235546
- -0.03371574120633345
- -0.011612143636837777
- 0.01586208020269224
- -0.1126215942075385
- 0.09798846470719597
- -0.02979512012623107
- 0.0
- 0.0
effort:
- 0.47577381134033203
- -13.044099807739258
- 1.9132881164550781
- 22.585615158081055
- 0.26277512311935425
- 2.3366243839263916
- -0.2125161737203598
- 0.0
- 0.0
---
header:
  stamp:
    sec: 1756277761
    nanosec: 513965550
  frame_id: ''
name:
- fr3_joint1
- fr3_joint2
- fr3_joint3
- fr3_joint4
- fr3_joint5
- fr3_joint6
- fr3_joint7
- fr3_finger_joint1
- fr3_finger_joint2
position:
- -0.9907657694454223
- -0.09344586426965387
- -1.0940401054266684
- -2.1345755959374446
- -0.21654317425324335
- 2.195302127765594
- 2.1897463594095585
- 0.0
- 0.0
velocity:
- 0.16275311390600666
- -0.03206531050558484
- -0.015180235112800419
- 0.016535407654187206
- -0.11562834321953892
- 0.08846060211523156
- -0.02294293758114774
- 0.0
- 0.0
effort:
- 0.705876350402832
- -13.020296096801758
- 2.119586944580078
- 22.454694747924805
- 0.24995772540569305
- 2.3430330753326416
- -0.320548415184021
- 0.0
- 0.0
---
header:
  stamp:
    sec: 1756277761
    nanosec: 547309955
  frame_id: ''
name:
- fr3_joint1
- fr3_joint2
- fr3_joint3
- fr3_joint4
- fr3_joint5
- fr3_joint6
- fr3_joint7
- fr3_finger_joint1
- fr3_finger_joint2
position:
- -0.9854425573531304
- -0.09456071291438613
- -1.0947029158593846
- -2.134120313079398
- -0.22024841318500535
- 2.1981824430727697
- 2.1890299717393518
- 0.0
- 0.0
velocity:
- 0.16454112790682313
- -0.03763386636248176
- -0.02703335266373702
- 0.011231210945087512
- -0.11756528772618553
- 0.08831077338158003
- -0.01866122018046604
- 0.0
- 0.0
effort:
- 1.316838264465332
- -12.889375686645508
- 2.738483428955078
- 22.426923751831055
- 0.23714034259319305
- 2.4034578800201416
- -0.252799391746521
- 0.0
- 0.0
---
header:
  stamp:
    sec: 1756277761
    nanosec: 580857345
  frame_id: ''
name:
- fr3_joint1
- fr3_joint2
- fr3_joint3
- fr3_joint4
- fr3_joint5
- fr3_joint6
- fr3_joint7
- fr3_finger_joint1
- fr3_finger_joint2
position:
- -0.9802983168897823
- -0.09583040933137817
- -1.0952624915916136
- -2.133730569211176
- -0.2240820577726813
- 2.2014960955925704
- 2.1883573052871057
- 0.0
- 0.0
velocity:
- 0.14807390791875863
- -0.03671189615660939
- -0.00993262820680522
- 0.013402777342503022
- -0.1157193477974278
- 0.09812480873485659
- -0.021168392546227297
- 0.0
- 0.0
effort:
- 0.654301643371582
- -12.714815139770508
- 2.119586944580078
- 22.585615158081055
- 0.26277512311935425
- 2.4162752628326416
- -0.2463906854391098
- 0.0
- 0.0
---
header:
  stamp:
    sec: 1756277761
    nanosec: 613880161
  frame_id: ''
name:
- fr3_joint1
- fr3_joint2
- fr3_joint3
- fr3_joint4
- fr3_joint5
- fr3_joint6
- fr3_joint7
- fr3_finger_joint1
- fr3_finger_joint2
position:
- -0.975126565453935
- -0.09700337968200387
- -1.095570305742707
- -2.1332656181006975
- -0.2281481500396046
- 2.2050736264169384
- 2.187610991255323
- 0.0
- 0.0
velocity:
- 0.15579808105271017
- -0.036130822062929384
- -0.007061477313249815
- 0.012794282468297755
- -0.120003086456077
- 0.11413962635179692
- -0.02285239805580423
- 0.0
- 0.0
effort:
- 0.527348518371582
- -12.738618850708008
- 1.9886665344238281
- 22.585615158081055
- 0.25636643171310425
- 2.4034578800201416
- -0.293998122215271
- 0.0
- 0.0
---
header:
  stamp:
    sec: 1756277761
    nanosec: 647281231
  frame_id: ''
name:
- fr3_joint1
- fr3_joint2
- fr3_joint3
- fr3_joint4
- fr3_joint5
- fr3_joint6
- fr3_joint7
- fr3_finger_joint1
- fr3_finger_joint2
position:
- -0.9698860723407647
- -0.09810536701825474
- -1.0959604797530593
- -2.1328498360085706
- -0.2320411209193155
- 2.2089337325848497
- 2.186833891703565
- 0.0
- 0.0
velocity:
- 0.15755483272818363
- -0.03273044358826361
- -0.009183884665865078
- 0.013090670430628747
- -0.1167709826943346
- 0.11364617220454164
- -0.022012304847685706
- 0.0
- 0.0
effort:
- 0.654301643371582
- -12.663240432739258
- 2.119586944580078
- 22.557844161987305
- 0.27650803327560425
- 2.3833162784576416
- -0.327872633934021
- 0.0
- 0.0
---
header:
  stamp:
    sec: 1756277761
    nanosec: 680626190
  frame_id: ''
name:
- fr3_joint1
- fr3_joint2
- fr3_joint3
- fr3_joint4
- fr3_joint5
- fr3_joint6
- fr3_joint7
- fr3_finger_joint1
- fr3_finger_joint2
position:
- -0.9646510986937441
- -0.09922067111180394
- -1.0961965607233513
- -2.1323814744684833
- -0.235870746481865
- 2.212505774751652
- 2.1860799090382432
- 0.0
- 0.0
velocity:
- 0.16080814994230516
- -0.03508588724155949
- -0.012196704111102456
- 0.013969378278071678
- -0.11430166994586419
- 0.09921083521702899
- -0.02333800218749392
- 0.0
- 0.0
effort:
- 0.729680061340332
- -12.738618850708008
- 2.302082061767578
- 22.506269454956055
- 0.28932541608810425
- 2.3897249698638916
- -0.2390664666891098
- 0.0
- 0.0
---
header:
  stamp:
    sec: 1756277761
    nanosec: 713945543
  frame_id: ''
name:
- fr3_joint1
- fr3_joint2
- fr3_joint3
- fr3_joint4
- fr3_joint5
- fr3_joint6
- fr3_joint7
- fr3_finger_joint1
- fr3_finger_joint2
position:
- -0.9591202218998846
- -0.10041316983867662
- -1.0969379899724827
- -2.131950771416562
- -0.23959446129934842
- 2.2156448138779004
- 2.185178283261028
- 0.0
- 0.0
velocity:
- 0.16509691176876543
- -0.03438518294001006
- -0.027508178222844924
- 0.011128967506660694
- -0.11264110549749638
- 0.09145872297354736
- -0.03064161165760691
- 0.0
- 0.0
effort:
- 1.265263557434082
- -12.409334182739258
- 2.845600128173828
- 22.482465744018555
- 0.21699874103069305
- 2.4300081729888916
- -0.293998122215271
- 0.0
- 0.0
---
header:
  stamp:
    sec: 1756277761
    nanosec: 747770368
  frame_id: ''
name:
- fr3_joint1
- fr3_joint2
- fr3_joint3
- fr3_joint4
- fr3_joint5
- fr3_joint6
- fr3_joint7
- fr3_finger_joint1
- fr3_finger_joint2
position:
- -0.9541681768180663
- -0.10157263349264345
- -1.0975505072909664
- -2.131651647217651
- -0.24320934335698222
- 2.218683860430561
- 2.184181077802542
- 0.0
- 0.0
velocity:
- 0.1453571335116643
- -0.03324025299346366
- -0.01270103265649276
- 0.007854968157422306
- -0.11111845939591393
- 0.095277254006134
- -0.03258600523859845
- 0.0
- 0.0
effort:
- 0.654301643371582
- -12.484712600708008
- 2.274311065673828
- 22.637189865112305
- 0.23714034259319305
- 2.4364168643951416
- -0.266532301902771
- 0.0
- 0.0
---
header:
  stamp:
    sec: 1756277761
    nanosec: 780674755
  frame_id: ''
name:
- fr3_joint1
- fr3_joint2
- fr3_joint3
- fr3_joint4
- fr3_joint5
- fr3_joint6
- fr3_joint7
- fr3_finger_joint1
- fr3_finger_joint2
position:
- -0.9491042885305383
- -0.10261902616000192
- -1.0979169976906518
- -2.1313407961987925
- -0.24698440204814945
- 2.2220165706267245
- 2.1830170402564386
- 0.0
- 0.0
velocity:
- 0.1573055499911032
- -0.031076667361278596
- -0.011668969873998535
- 0.00950296314650535
- -0.11126812838450958
- 0.1018342699121085
- -0.03628269150906642
- 0.0
- 0.0
effort:
- 0.626530647277832
- -12.433137893676758
- 2.250507354736328
- 22.716535568237305
- 0.24354903399944305
- 2.4565584659576416
- -0.354422926902771
- 0.0
- 0.0
---
header:
  stamp:
    sec: 1756277761
    nanosec: 814394581
  frame_id: ''
name:
- fr3_joint1
- fr3_joint2
- fr3_joint3
- fr3_joint4
- fr3_joint5
- fr3_joint6
- fr3_joint7
- fr3_finger_joint1
- fr3_finger_joint2
position:
- -0.9436633475670343
- -0.10364505168276014
- -1.0983887372082022
- -2.1309838560198058
- -0.2506914221983294
- 2.225498384528723
- 2.181737442544726
- 0.0
- 0.0
velocity:
- 0.1566763956837049
- -0.03090561332856075
- -0.011376521603699818
- 0.011090428233751929
- -0.11014858937103217
- 0.10860828497520443
- -0.03777229193074744
- 0.0
- 0.0
effort:
- 0.626530647277832
- -12.433137893676758
- 2.353656768798828
- 22.716535568237305
- 0.20418135821819305
- 2.4565584659576416
- -0.272940993309021
- 0.0
- 0.0
---
header:
  stamp:
    sec: 1756277761
    nanosec: 848703837
  frame_id: ''
name:
- fr3_joint1
- fr3_joint2
- fr3_joint3
- fr3_joint4
- fr3_joint5
- fr3_joint6
- fr3_joint7
- fr3_finger_joint1
- fr3_finger_joint2
position:
- -0.9385311703794459
- -0.1045846665890941
- -1.0986893791934427
- -2.1305670597044295
- -0.25440380023128734
- 2.229025094380287
- 2.1805118092056275
- 0.0
- 0.0
velocity:
- 0.1601162665792782
- -0.0289146214729924
- -0.012163042369974567
- 0.014575839033889544
- -0.11424819050633933
- 0.10320498178497668
- -0.03764334030776424
- 0.0
- 0.0
effort:
- 0.781254768371582
- -12.484712600708008
- 2.429035186767578
- 22.585615158081055
- 0.23714034259319305
- 2.4098665714263916
- -0.2189248651266098
- 0.0
- 0.0
---
header:
  stamp:
    sec: 1756277761
    nanosec: 881057239
  frame_id: ''
name:
- fr3_joint1
- fr3_joint2
- fr3_joint3
- fr3_joint4
- fr3_joint5
- fr3_joint6
- fr3_joint7
- fr3_finger_joint1
- fr3_finger_joint2
position:
- -0.9332494199859327
- -0.10555787546929225
- -1.0993004468037797
- -2.130073200672394
- -0.2579735297187857
- 2.232251832863771
- 2.1794353386193226
- 0.0
- 0.0
velocity:
- 0.16679663244765383
- -0.033801887257268744
- -0.024760420035690744
- 0.01644652753633833
- -0.10729014295494603
- 0.09640639324906303
- -0.03244196183736196
- 0.0
- 0.0
effort:
- 1.340641975402832
- -12.329988479614258
- 3.000324249267578
- 22.557844161987305
- 0.22340743243694305
- 2.4364168643951416
- -0.280265212059021
- 0.0
- 0.0
---
header:
  stamp:
    sec: 1756277761
    nanosec: 913960071
  frame_id: ''
name:
- fr3_joint1
- fr3_joint2
- fr3_joint3
- fr3_joint4
- fr3_joint5
- fr3_joint6
- fr3_joint7
- fr3_finger_joint1
- fr3_finger_joint2
position:
- -0.9278731179106638
- -0.10672460175152344
- -1.0998630174204451
- -2.1295764060718407
- -0.26193334547481645
- 2.235326397838444
- 2.178444255644584
- 0.0
- 0.0
velocity:
- 0.14905618719486666
- -0.03372506292808774
- -0.00833846537620691
- 0.012352023461719068
- -0.11354874904884042
- 0.08352759096654416
- -0.028487481325965767
- 0.0
- 0.0
effort:
- 0.626530647277832
- -12.306184768676758
- 2.405231475830078
- 22.716535568237305
- 0.22981612384319305
- 2.4428255558013916
- -0.2326577752828598
- 0.0
- 0.0
---
header:
  stamp:
    sec: 1756277761
    nanosec: 947243580
  frame_id: ''
name:
- fr3_joint1
- fr3_joint2
- fr3_joint3
- fr3_joint4
- fr3_joint5
- fr3_joint6
- fr3_joint7
- fr3_finger_joint1
- fr3_finger_joint2
position:
- -0.9228704906479159
- -0.10780084958247897
- -1.1001374385444036
- -2.129061051421726
- -0.2658569443509656
- 2.2382023621976943
- 2.1776364712358114
- 0.0
- 0.0
velocity:
- 0.15695589881787433
- -0.03380173811334618
- -0.00680617776495375
- 0.016059137491755332
- -0.12186239404638685
- 0.09507329233942509
- -0.025618545649195933
- 0.0
- 0.0
effort:
- 0.47577381134033203
- -12.329988479614258
- 2.274311065673828
- 22.744306564331055
- 0.23714034259319305
- 2.4895174503326416
- -0.354422926902771
- 0.0
- 0.0
---
header:
  stamp:
    sec: 1756277761
    nanosec: 980590798
  frame_id: ''
name:
- fr3_joint1
- fr3_joint2
- fr3_joint3
- fr3_joint4
- fr3_joint5
- fr3_joint6
- fr3_joint7
- fr3_finger_joint1
- fr3_finger_joint2
position:
- -0.9174578740859269
- -0.10888643644343173
- -1.1005095470554442
- -2.1285099777567056
- -0.2697992466790141
- 2.241640236509867
- 2.1767373869323796
- 0.0
- 0.0
velocity:
- 0.15788857006876855
- -0.03191194610836506
- -0.00829968132812545
- 0.01762487709957235
- -0.11625149916654452
- 0.10485031479023575
- -0.023810639463690095
- 0.0
- 0.0
effort:
- 0.602726936340332
- -12.282381057739258
- 2.405231475830078
- 22.637189865112305
- 0.22981612384319305
- 2.4767000675201416
- -0.286673903465271
- 0.0
- 0.0
---
header:
  stamp:
    sec: 1756277762
    nanosec: 14081500
  frame_id: ''
name:
- fr3_joint1
- fr3_joint2
- fr3_joint3
- fr3_joint4
- fr3_joint5
- fr3_joint6
- fr3_joint7
- fr3_finger_joint1
- fr3_finger_joint2
position:
- -0.9122119383472354
- -0.10992680513635242
- -1.1007563464513321
- -2.1279370741063883
- -0.27364280633795895
- 2.2455488035125306
- 2.1759148343558548
- 0.0
- 0.0
velocity:
- 0.15906430829788556
- -0.03148493859369233
- -0.012249870693869317
- 0.015306100804740609
- -0.11531888382144995
- 0.12259045872010471
- -0.02657459107282138
- 0.0
- 0.0
effort:
- 0.832829475402832
- -12.460908889770508
- 2.635334014892578
- 22.688764572143555
- 0.22340743243694305
- 2.4565584659576416
- -0.286673903465271
- 0.0
- 0.0
---
header:
  stamp:
    sec: 1756277762
    nanosec: 47285298
  frame_id: ''
name:
- fr3_joint1
- fr3_joint2
- fr3_joint3
- fr3_joint4
- fr3_joint5
- fr3_joint6
- fr3_joint7
- fr3_finger_joint1
- fr3_finger_joint2
position:
- -0.9069085333783763
- -0.11104130061801322
- -1.1014111874097403
- -2.127372670647341
- -0.277344337314546
- 2.2493468251247646
- 2.175052975563221
- 0.0
- 0.0
velocity:
- 0.1644258752089979
- -0.037348748834861244
- -0.026118802018552406
- 0.018597344949132694
- -0.10754971974193907
- 0.10786202063560334
- -0.026857447954538295
- 0.0
- 0.0
effort:
- 1.265263557434082
- -12.179231643676758
- 3.155048370361328
- 22.585615158081055
- 0.20418135821819305
- 2.4629671573638916
- -0.327872633934021
- 0.0
- 0.0
---
header:
  stamp:
    sec: 1756277762
    nanosec: 80584123
  frame_id: ''
name:
- fr3_joint1
- fr3_joint2
- fr3_joint3
- fr3_joint4
- fr3_joint5
- fr3_joint6
- fr3_joint7
- fr3_finger_joint1
- fr3_finger_joint2
position:
- -0.9024964828736493
- -0.1121540655637523
- -1.1019244055805504
- -2.1269023769819104
- -0.28056383309254646
- 2.2522379137548025
- 2.1743751277845673
- 0.0
- 0.0
velocity:
- 0.1492851344566497
- -0.03906582090171607
- -0.0109711782193278
- 0.01572672397471914
- -0.10753589637958716
- 0.09839498799360846
- -0.02147702521165434
- 0.0
- 0.0
effort:
- 0.935978889465332
- -12.179231643676758
- 2.738483428955078
- 22.688764572143555
- 0.27650803327560425
- 2.4364168643951416
- -0.327872633934021
- 0.0
- 0.0
---
header:
  stamp:
    sec: 1756277762
    nanosec: 114219834
  frame_id: ''
name:
- fr3_joint1
- fr3_joint2
- fr3_joint3
- fr3_joint4
- fr3_joint5
- fr3_joint6
- fr3_joint7
- fr3_finger_joint1
- fr3_finger_joint2
position:
- -0.8972266645291261
- -0.11339209207711705
- -1.1022454088659615
- -2.1263099013830438
- -0.2844544824169735
- 2.255400211793419
- 2.1735095098705948
- 0.0
- 0.0
velocity:
- 0.15770729464086786
- -0.03293126960785248
- -0.011555731010454394
- 0.018401439889284013
- -0.11401319473025391
- 0.08881712275500449
- -0.02213147555679213
- 0.0
- 0.0
effort:
- 0.678105354309082
- -12.000703811645508
- 2.583759307861328
- 22.426923751831055
- 0.21059004962444305
- 2.4895174503326416
- -0.2326577752828598
- 0.0
- 0.0
---
header:
  stamp:
    sec: 1756277762
    nanosec: 147590997
  frame_id: ''
name:
- fr3_joint1
- fr3_joint2
- fr3_joint3
- fr3_joint4
- fr3_joint5
- fr3_joint6
- fr3_joint7
- fr3_finger_joint1
- fr3_finger_joint2
position:
- -0.8913730051816138
- -0.11458195458008892
- -1.1027289711283799
- -2.1257462681216714
- -0.2885905045826524
- 2.258840330253832
- 2.17269655078393
- 0.0
- 0.0
velocity:
- 0.1581438276864245
- -0.03211996595420574
- -0.013128324932066969
- 0.01410840986106959
- -0.10930261581069341
- 0.1003750328428737
- -0.026164284827858618
- 0.0
- 0.0
effort:
- 0.654301643371582
- -12.052278518676758
- 2.559955596923828
- 22.637189865112305
- 0.17763106524944305
- 2.4767000675201416
- -0.252799391746521
- 0.0
- 0.0
---
header:
  stamp:
    sec: 1756277762
    nanosec: 180628350
  frame_id: ''
name:
- fr3_joint1
- fr3_joint2
- fr3_joint3
- fr3_joint4
- fr3_joint5
- fr3_joint6
- fr3_joint7
- fr3_finger_joint1
- fr3_finger_joint2
position:
- -0.8861047925470422
- -0.11562185962153741
- -1.1030249619613162
- -2.1252963997029366
- -0.2923300541253791
- 2.2622665467610665
- 2.1717663158489873
- 0.0
- 0.0
velocity:
- 0.15971290922093115
- -0.029628181739317833
- -0.010982552449425961
- 0.014186524131909252
- -0.11440913782774757
- 0.11243260760419424
- -0.029392517257963838
- 0.0
- 0.0
effort:
- 0.757451057434082
- -12.103853225708008
- 2.686908721923828
- 22.613386154174805
- 0.23714034259319305
- 2.4702913761138916
- -0.286673903465271
- 0.0
- 0.0
---
header:
  stamp:
    sec: 1756277762
    nanosec: 214064506
  frame_id: ''
name:
- fr3_joint1
- fr3_joint2
- fr3_joint3
- fr3_joint4
- fr3_joint5
- fr3_joint6
- fr3_joint7
- fr3_finger_joint1
- fr3_finger_joint2
position:
- -0.8806396352238255
- -0.11672759460563574
- -1.1037045782845758
- -2.124826728577566
- -0.29620947957743016
- 2.2660908879755755
- 2.1707818689045415
- 0.0
- 0.0
velocity:
- 0.1657530711054374
- -0.03385025260389332
- -0.028354589802015627
- 0.013405944494376392
- -0.11614337918840889
- 0.11822586120129454
- -0.03171225247728326
- 0.0
- 0.0
effort:
- 1.316838264465332
- -11.976900100708008
- 3.361347198486328
- 22.744306564331055
- 0.21059004962444305
- 2.4831087589263916
- -0.2390664666891098
- 0.0
- 0.0
---
header:
  stamp:
    sec: 1756277762
    nanosec: 247709302
  frame_id: ''
name:
- fr3_joint1
- fr3_joint2
- fr3_joint3
- fr3_joint4
- fr3_joint5
- fr3_joint6
- fr3_joint7
- fr3_finger_joint1
- fr3_finger_joint2
position:
- -0.8756317194606498
- -0.11784708230431251
- -1.1042749097723124
- -2.1243051927891967
- -0.29997273025659116
- 2.2694217961765126
- 2.1699240467442906
- 0.0
- 0.0
velocity:
- 0.149569783933656
- -0.03323784640477489
- -0.012813624245383296
- 0.016279633057351268
- -0.11167775366176898
- 0.09791848384837311
- -0.024372194910031935
- 0.0
- 0.0
effort:
- 0.757451057434082
- -11.873750686645508
- 2.790058135986328
- 22.637189865112305
- 0.21059004962444305
- 2.5160677433013916
- -0.2390664666891098
- 0.0
- 0.0
---
header:
  stamp:
    sec: 1756277762
    nanosec: 280729774
  frame_id: ''
name:
- fr3_joint1
- fr3_joint2
- fr3_joint3
- fr3_joint4
- fr3_joint5
- fr3_joint6
- fr3_joint7
- fr3_finger_joint1
- fr3_finger_joint2
position:
- -0.8704362256385042
- -0.11890536230178182
- -1.1045941064921858
- -2.1236535248200736
- -0.30388402484433175
- 2.2726456934870702
- 2.1691255755949213
- 0.0
- 0.0
velocity:
- 0.15926568550741324
- -0.03035924953358082
- -0.008222379093694646
- 0.019938536552119114
- -0.12014184931754117
- 0.09404931072370379
- -0.023644068611402586
- 0.0
- 0.0
effort:
- 0.42419910430908203
- -12.052278518676758
- 2.583759307861328
- 22.637189865112305
- 0.26918381452560425
- 2.4895174503326416
- -0.314139723777771
- 0.0
- 0.0
---
header:
  stamp:
    sec: 1756277762
    nanosec: 314165994
  frame_id: ''
name:
- fr3_joint1
- fr3_joint2
- fr3_joint3
- fr3_joint4
- fr3_joint5
- fr3_joint6
- fr3_joint7
- fr3_finger_joint1
- fr3_finger_joint2
position:
- -0.8649429670906887
- -0.12002424688129633
- -1.1049978305005197
- -2.1230511188413437
- -0.30788998285345714
- 2.2756288182488404
- 2.168123334746336
- 0.0
- 0.0
velocity:
- 0.15855767121780254
- -0.03527070700790243
- -0.0119150623839275
- 0.015586053745347708
- -0.11661094008748481
- 0.09108571516076393
- -0.033009098913737045
- 0.0
- 0.0
effort:
- 0.578923225402832
- -11.770601272583008
- 2.663105010986328
- 22.613386154174805
- 0.22340743243694305
- 2.5032503604888916
- -0.260123610496521
- 0.0
- 0.0
---
header:
  stamp:
    sec: 1756277762
    nanosec: 347263728
  frame_id: ''
name:
- fr3_joint1
- fr3_joint2
- fr3_joint3
- fr3_joint4
- fr3_joint5
- fr3_joint6
- fr3_joint7
- fr3_finger_joint1
- fr3_finger_joint2
position:
- -0.8598860272802967
- -0.12104807103127647
- -1.1052418578438676
- -2.1225612455173817
- -0.3116356024278129
- 2.278851087008218
- 2.167027682298441
- 0.0
- 0.0
velocity:
- 0.16037225211509423
- -0.030581362959780214
- -0.014099823637789876
- 0.015114107562233093
- -0.11285371804194705
- 0.10117128551332313
- -0.03290818757628018
- 0.0
- 0.0
effort:
- 0.781254768371582
- -12.028474807739258
- 2.869403839111328
- 22.637189865112305
- 0.22340743243694305
- 2.4895174503326416
- -0.252799391746521
- 0.0
- 0.0
---
header:
  stamp:
    sec: 1756277762
    nanosec: 380616575
  frame_id: ''
name:
- fr3_joint1
- fr3_joint2
- fr3_joint3
- fr3_joint4
- fr3_joint5
- fr3_joint6
- fr3_joint7
- fr3_finger_joint1
- fr3_finger_joint2
position:
- -0.8544324732838272
- -0.1221792718362644
- -1.105988288411364
- -2.122063023008976
- -0.31546598216490307
- 2.2822666134374514
- 2.1660094338237528
- 0.0
- 0.0
velocity:
- 0.16533261582762807
- -0.035289659794779646
- -0.029520761201691174
- 0.014362657608815235
- -0.11131852872965867
- 0.10525774530384557
- -0.0313755395207503
- 0.0
- 0.0
effort:
- 1.189885139465332
- -11.695222854614258
- 3.412921905517578
- 22.637189865112305
- 0.22340743243694305
- 2.5362093448638916
- -0.280265212059021
- 0.0
- 0.0
---
header:
  stamp:
    sec: 1756277762
    nanosec: 413885274
  frame_id: ''
name:
- fr3_joint1
- fr3_joint2
- fr3_joint3
- fr3_joint4
- fr3_joint5
- fr3_joint6
- fr3_joint7
- fr3_finger_joint1
- fr3_finger_joint2
position:
- -0.8492770300625603
- -0.12342078096737437
- -1.1066720809794708
- -2.1216730080543393
- -0.3192598812525507
- 2.2861003705321052
- 2.1648065689654667
- 0.0
- 0.0
velocity:
- 0.14525108233301415
- -0.034717937385397565
- -0.012548542576348876
- 0.010864671769911844
- -0.11410572526348006
- 0.11927687004091286
- -0.034449191671857025
- 0.0
- 0.0
effort:
- 0.578923225402832
- -11.770601272583008
- 2.766254425048828
- 22.819684982299805
- 0.24995772540569305
- 2.5160677433013916
- -0.2125161737203598
- 0.0
- 0.0
---
header:
  stamp:
    sec: 1756277762
    nanosec: 447719096
  frame_id: ''
name:
- fr3_joint1
- fr3_joint2
- fr3_joint3
- fr3_joint4
- fr3_joint5
- fr3_joint6
- fr3_joint7
- fr3_finger_joint1
- fr3_finger_joint2
position:
- -0.8443323911010339
- -0.12459109241649037
- -1.1070673226593932
- -2.121223073930615
- -0.32279961628330023
- 2.289625507466692
- 2.1636365351353963
- 0.0
- 0.0
velocity:
- 0.15626366020790788
- -0.03515766205621537
- -0.01226167238481504
- 0.012757561102412301
- -0.11039905348429166
- 0.1010129121868987
- -0.03804085644505376
- 0.0
- 0.0
effort:
- 0.602726936340332
- -11.695222854614258
- 2.766254425048828
- 22.819684982299805
- 0.21699874103069305
- 2.5435335636138916
- -0.2189248651266098
- 0.0
- 0.0
---
header:
  stamp:
    sec: 1756277762
    nanosec: 480658274
  frame_id: ''
name:
- fr3_joint1
- fr3_joint2
- fr3_joint3
- fr3_joint4
- fr3_joint5
- fr3_joint6
- fr3_joint7
- fr3_finger_joint1
- fr3_finger_joint2
position:
- -0.8389116777174552
- -0.12582958861907428
- -1.1075820475535945
- -2.120699361607079
- -0.3265525674850218
- 2.2928575049216975
- 2.162483524669875
- 0.0
- 0.0
velocity:
- 0.1574048370669397
- -0.0368473299877266
- -0.012617268283520187
- 0.01466257653712186
- -0.10754877268912999
- 0.08793975424070541
- -0.03773287389105677
- 0.0
- 0.0
effort:
- 0.602726936340332
- -11.568269729614258
- 2.817829132080078
- 22.613386154174805
- 0.23714034259319305
- 2.5233919620513916
- -0.2390664666891098
- 0.0
- 0.0
---
header:
  stamp:
    sec: 1756277762
    nanosec: 513998260
  frame_id: ''
name:
- fr3_joint1
- fr3_joint2
- fr3_joint3
- fr3_joint4
- fr3_joint5
- fr3_joint6
- fr3_joint7
- fr3_finger_joint1
- fr3_finger_joint2
position:
- -0.833639802473297
- -0.12693876686809136
- -1.1079494353022985
- -2.120176378354951
- -0.33039412815141495
- 2.2959841361795874
- 2.1612604090258074
- 0.0
- 0.0
velocity:
- 0.15810477576422255
- -0.029028717214917163
- -0.013811800536677797
- 0.015590277287109091
- -0.11947590179199609
- 0.09571804622388841
- -0.03798876741202156
- 0.0
- 0.0
effort:
- 0.856633186340332
- -11.722993850708008
- 3.127277374267578
- 22.613386154174805
- 0.26918381452560425
- 2.5563509464263916
- -0.252799391746521
- 0.0
- 0.0
---
header:
  stamp:
    sec: 1756277762
    nanosec: 547709012
  frame_id: ''
name:
- fr3_joint1
- fr3_joint2
- fr3_joint3
- fr3_joint4
- fr3_joint5
- fr3_joint6
- fr3_joint7
- fr3_finger_joint1
- fr3_finger_joint2
position:
- -0.828379815436796
- -0.12797046550871133
- -1.1086713627566986
- -2.119697967494385
- -0.3340900476947387
- 2.2992044267022558
- 2.1601223594778425
- 0.0
- 0.0
velocity:
- 0.16310606510513617
- -0.033457139939668035
- -0.029326016735697333
- 0.012253248732518655
- -0.11328663533857254
- 0.09931056896182153
- -0.03184725527188106
- 0.0
- 0.0
effort:
- 1.392216682434082
- -11.441316604614258
- 3.773944854736328
- 22.613386154174805
- 0.20418135821819305
- 2.5499422550201416
- -0.260123610496521
- 0.0
- 0.0
---
header:
  stamp:
    sec: 1756277762
    nanosec: 580819502
  frame_id: ''
name:
- fr3_joint1
- fr3_joint2
- fr3_joint3
- fr3_joint4
- fr3_joint5
- fr3_joint6
- fr3_joint7
- fr3_finger_joint1
- fr3_finger_joint2
position:
- -0.8232765105827478
- -0.12909169844994126
- -1.1092467906845829
- -2.1193025813293374
- -0.3377382157235268
- 2.302589072648003
- 2.1590300232284556
- 0.0
- 0.0
velocity:
- 0.14712586682242815
- -0.03120383644764766
- -0.010717621893404512
- 0.008907126795284822
- -0.11060052715228964
- 0.1011455673563683
- -0.029072423579078095
- 0.0
- 0.0
effort:
- 0.781254768371582
- -11.441316604614258
- 3.103473663330078
- 22.688764572143555
- 0.20418135821819305
- 2.5435335636138916
- -0.286673903465271
- 0.0
- 0.0
---
header:
  stamp:
    sec: 1756277762
    nanosec: 614103344
  frame_id: ''
name:
- fr3_joint1
- fr3_joint2
- fr3_joint3
- fr3_joint4
- fr3_joint5
- fr3_joint6
- fr3_joint7
- fr3_finger_joint1
- fr3_finger_joint2
position:
- -0.8180817633638325
- -0.13013844855528078
- -1.1095680346996335
- -2.118954521427889
- -0.34164370482921574
- 2.3063452816756005
- 2.158090888961959
- 0.0
- 0.0
velocity:
- 0.1567034474748571
- -0.030953743003546814
- -0.007218502390409125
- 0.01062499556895462
- -0.12114481345567736
- 0.10583834915426404
- -0.022584325022207856
- 0.0
- 0.0
effort:
- 0.527348518371582
- -11.492891311645508
- 2.920978546142578
- 22.664960861206055
- 0.21699874103069305
- 2.5096590518951416
- -0.334281325340271
- 0.0
- 0.0
---
header:
  stamp:
    sec: 1756277762
    nanosec: 647370880
  frame_id: ''
name:
- fr3_joint1
- fr3_joint2
- fr3_joint3
- fr3_joint4
- fr3_joint5
- fr3_joint6
- fr3_joint7
- fr3_finger_joint1
- fr3_finger_joint2
position:
- -0.8127878552797521
- -0.13110842902422576
- -1.109941639018798
- -2.118616895389096
- -0.3455865925003621
- 2.309687808777831
- 2.157269619629361
- 0.0
- 0.0
velocity:
- 0.15777054453263342
- -0.030142283791948943
- -0.010138365625892319
- 0.009329163619604917
- -0.1172423905525449
- 0.10201165262988951
- -0.025164060635123935
- 0.0
- 0.0
effort:
- 0.705876350402832
- -11.417512893676758
- 3.024127960205078
- 22.716535568237305
- 0.22981612384319305
- 2.5362093448638916
- -0.2189248651266098
- 0.0
- 0.0
---
header:
  stamp:
    sec: 1756277762
    nanosec: 680682296
  frame_id: ''
name:
- fr3_joint1
- fr3_joint2
- fr3_joint3
- fr3_joint4
- fr3_joint5
- fr3_joint6
- fr3_joint7
- fr3_finger_joint1
- fr3_finger_joint2
position:
- -0.8075325556401685
- -0.13203787732820485
- -1.1101673259050875
- -2.1182636098972987
- -0.3495762689227355
- 2.3128154619272356
- 2.1565622463308367
- 0.0
- 0.0
velocity:
- 0.15948494493236237
- -0.02597007681334532
- -0.012145600918338266
- 0.012312990112488164
- -0.1174351420709941
- 0.08477120336929864
- -0.021670081683485748
- 0.0
- 0.0
effort:
- 0.757451057434082
- -11.643648147583008
- 3.206623077392578
- 22.637189865112305
- 0.30214279890060425
- 2.5298006534576416
- -0.266532301902771
- 0.0
- 0.0
---
header:
  stamp:
    sec: 1756277762
    nanosec: 714006004
  frame_id: ''
name:
- fr3_joint1
- fr3_joint2
- fr3_joint3
- fr3_joint4
- fr3_joint5
- fr3_joint6
- fr3_joint7
- fr3_finger_joint1
- fr3_finger_joint2
position:
- -0.8019696752674227
- -0.13310234743136884
- -1.1108664493735068
- -2.1178913422940577
- -0.3535324401450253
- 2.3157335767694756
- 2.1558595822552573
- 0.0
- 0.0
velocity:
- 0.16718119470969553
- -0.031015544227608906
- -0.027330414297003978
- 0.011024611354545178
- -0.11851984410756608
- 0.09098842642131963
- -0.020066774724204855
- 0.0
- 0.0
effort:
- 1.138310432434082
- -11.417512893676758
- 3.670795440673828
- 22.637189865112305
- 0.25636643171310425
- 2.5563509464263916
- -0.334281325340271
- 0.0
- 0.0
---
header:
  stamp:
    sec: 1756277762
    nanosec: 747678973
  frame_id: ''
name:
- fr3_joint1
- fr3_joint2
- fr3_joint3
- fr3_joint4
- fr3_joint5
- fr3_joint6
- fr3_joint7
- fr3_finger_joint1
- fr3_finger_joint2
position:
- -0.7969916696438075
- -0.13418957566725132
- -1.1114249514468415
- -2.117612080240804
- -0.3571860750090857
- 2.3189029148742932
- 2.155205600462503
- 0.0
- 0.0
velocity:
- 0.1470087109538064
- -0.03254886646429602
- -0.008706402760101838
- 0.009374345281205279
- -0.11158407958161537
- 0.1018601047664669
- -0.021038029059758306
- 0.0
- 0.0
effort:
- 0.551152229309082
- -11.441316604614258
- 3.075702667236328
- 22.716535568237305
- 0.22981612384319305
- 2.5627596378326416
- -0.334281325340271
- 0.0
- 0.0
---
header:
  stamp:
    sec: 1756277762
    nanosec: 780578146
  frame_id: ''
name:
- fr3_joint1
- fr3_joint2
- fr3_joint3
- fr3_joint4
- fr3_joint5
- fr3_joint6
- fr3_joint7
- fr3_finger_joint1
- fr3_finger_joint2
position:
- -0.7918785139306004
- -0.13522827089437248
- -1.1117704483479525
- -2.11724570181979
- -0.36084841331959794
- 2.322525920439969
- 2.1546364788994268
- 0.0
- 0.0
velocity:
- 0.15633561469469662
- -0.03007696046022506
- -0.011173880797397553
- 0.012512900109092066
- -0.10799431829162597
- 0.11613140137672633
- -0.015920908857046716
- 0.0
- 0.0
effort:
- 0.626530647277832
- -11.365938186645508
- 3.178852081298828
- 22.819684982299805
- 0.21699874103069305
- 2.5700838565826416
- -0.300406813621521
- 0.0
- 0.0
---
header:
  stamp:
    sec: 1756277762
    nanosec: 813902413
  frame_id: ''
name:
- fr3_joint1
- fr3_joint2
- fr3_joint3
- fr3_joint4
- fr3_joint5
- fr3_joint6
- fr3_joint7
- fr3_finger_joint1
- fr3_finger_joint2
position:
- -0.7864615401076175
- -0.13630569284140878
- -1.1122110579169753
- -2.1168115089172916
- -0.36472753126484664
- 2.326517805376206
- 2.1540045326912787
- 0.0
- 0.0
velocity:
- 0.15590058330239523
- -0.03276217555095608
- -0.010292407438897441
- 0.012282411995011906
- -0.11471908545413441
- 0.11609645241784862
- -0.01579566403815765
- 0.0
- 0.0
effort:
- 0.705876350402832
- -11.389741897583008
- 3.282001495361328
- 22.819684982299805
- 0.22340743243694305
- 2.5499422550201416
- -0.266532301902771
- 0.0
- 0.0
---
header:
  stamp:
    sec: 1756277762
    nanosec: 847684099
  frame_id: ''
name:
- fr3_joint1
- fr3_joint2
- fr3_joint3
- fr3_joint4
- fr3_joint5
- fr3_joint6
- fr3_joint7
- fr3_finger_joint1
- fr3_finger_joint2
position:
- -0.7813400690075333
- -0.13740494334722972
- -1.112471955969866
- -2.1163693941813917
- -0.36839136524886745
- 2.3300225012207565
- 2.153449271316303
- 0.0
- 0.0
velocity:
- 0.1629742361416086
- -0.0363472143196649
- -0.010164747425705407
- 0.015125955503212631
- -0.11359698712083995
- 0.10268205756117631
- -0.015551819604760016
- 0.0
- 0.0
effort:
- 0.757451057434082
- -11.389741897583008
- 3.309772491455078
- 22.716535568237305
- 0.26277512311935425
- 2.5764925479888916
- -0.280265212059021
- 0.0
- 0.0
---
header:
  stamp:
    sec: 1756277762
    nanosec: 880641620
  frame_id: ''
name:
- fr3_joint1
- fr3_joint2
- fr3_joint3
- fr3_joint4
- fr3_joint5
- fr3_joint6
- fr3_joint7
- fr3_finger_joint1
- fr3_finger_joint2
position:
- -0.7758359745349892
- -0.13869063530494347
- -1.113091130084305
- -2.115825934283472
- -0.3722163966277455
- 2.3330602949330306
- 2.1528342180306956
- 0.0
- 0.0
velocity:
- 0.16729173182120982
- -0.04141517921228567
- -0.024053093801756485
- 0.016199619052802556
- -0.11632643234249379
- 0.08852732147516759
- -0.019479699893434177
- 0.0
- 0.0
effort:
- 1.189885139465332
- -11.262788772583008
- 3.801715850830078
- 22.744306564331055
- 0.25636643171310425
- 2.5829012393951416
- -0.272940993309021
- 0.0
- 0.0
---
header:
  stamp:
    sec: 1756277762
    nanosec: 914039889
  frame_id: ''
name:
- fr3_joint1
- fr3_joint2
- fr3_joint3
- fr3_joint4
- fr3_joint5
- fr3_joint6
- fr3_joint7
- fr3_finger_joint1
- fr3_finger_joint2
position:
- -0.7707122388058754
- -0.14004090758993243
- -1.113568424100265
- -2.1153267332852104
- -0.3762322752995758
- 2.3361589600330053
- 2.1521690636381843
- 0.0
- 0.0
velocity:
- 0.14672910851310014
- -0.03587240215247447
- -0.006353301619474322
- 0.014344867025680106
- -0.11827151767467549
- 0.0938945738774325
- -0.020184950348530215
- 0.0
- 0.0
effort:
- 0.626530647277832
- -11.084260940551758
- 3.206623077392578
- 22.744306564331055
- 0.26918381452560425
- 2.5764925479888916
- -0.327872633934021
- 0.0
- 0.0
---
header:
  stamp:
    sec: 1756277762
    nanosec: 947696351
  frame_id: ''
name:
- fr3_joint1
- fr3_joint2
- fr3_joint3
- fr3_joint4
- fr3_joint5
- fr3_joint6
- fr3_joint7
- fr3_finger_joint1
- fr3_finger_joint2
position:
- -0.765768197863603
- -0.1411422899398648
- -1.1138739641869717
- -2.114809372736527
- -0.3800016387267527
- 2.3393846780141727
- 2.151444982187353
- 0.0
- 0.0
velocity:
- 0.1524260167572582
- -0.03073620428456379
- -0.00734896690400895
- 0.015990868497212887
- -0.11366800278654883
- 0.10368677517005351
- -0.022314514621094385
- 0.0
- 0.0
effort:
- 0.578923225402832
- -11.060457229614258
- 3.155048370361328
- 22.637189865112305
- 0.26277512311935425
- 2.5627596378326416
- -0.272940993309021
- 0.0
- 0.0
---
header:
  stamp:
    sec: 1756277762
    nanosec: 980632253
  frame_id: ''
name:
- fr3_joint1
- fr3_joint2
- fr3_joint3
- fr3_joint4
- fr3_joint5
- fr3_joint6
- fr3_joint7
- fr3_finger_joint1
- fr3_finger_joint2
position:
- -0.7604295541954512
- -0.14220107962302236
- -1.114297898332288
- -2.1143387996721104
- -0.3838965573200747
- 2.343102425512909
- 2.150687516727055
- 0.0
- 0.0
velocity:
- 0.1548405168680813
- -0.03112370231529503
- -0.010599080086998483
- 0.01481152175718818
- -0.11073945482574316
- 0.11530079741301048
- -0.02028891496845445
- 0.0
- 0.0
effort:
- 0.781254768371582
- -11.135835647583008
- 3.412921905517578
- 22.664960861206055
- 0.21699874103069305
- 2.5700838565826416
- -0.293998122215271
- 0.0
- 0.0
---
header:
  stamp:
    sec: 1756277763
    nanosec: 13907760
  frame_id: ''
name:
- fr3_joint1
- fr3_joint2
- fr3_joint3
- fr3_joint4
- fr3_joint5
- fr3_joint6
- fr3_joint7
- fr3_finger_joint1
- fr3_finger_joint2
position:
- -0.7552355762718197
- -0.14321918063147543
- -1.114567371726246
- -2.113927192785114
- -0.3878766352475182
- 2.3469384161288795
- 2.1499931850515153
- 0.0
- 0.0
velocity:
- 0.15674657776396733
- -0.028764384683265063
- -0.01301280478266923
- 0.012948809023801328
- -0.1180463025032127
- 0.10435526072688454
- -0.019570842004873308
- 0.0
- 0.0
effort:
- 1.011357307434082
- -11.187410354614258
- 3.619220733642578
- 22.795881271362305
- 0.29573410749435425
- 2.5902254581451416
- -0.293998122215271
- 0.0
- 0.0
---
header:
  stamp:
    sec: 1756277763
    nanosec: 47287808
  frame_id: ''
name:
- fr3_joint1
- fr3_joint2
- fr3_joint3
- fr3_joint4
- fr3_joint5
