header:
  stamp:
    sec: 1756277395
    nanosec: 931653244
  frame_id: ''
name:
- fr3_joint1
- fr3_joint2
- fr3_joint3
- fr3_joint4
- fr3_joint5
- fr3_joint6
- fr3_joint7
- fr3_finger_joint1
- fr3_finger_joint2
position:
- 1.7995849695319566
- -0.3815989044255185
- -0.3021673853839068
- -2.239701246008436
- -0.722502575251474
- 3.683860176730157
- -1.1192059127392968
- 0.0
- 0.0
velocity:
- -0.06202306868826661
- -0.03863428067971607
- 0.010395857636353815
- 0.1557195745396914
- 0.0035802641082791123
- -0.24083295556027678
- 0.20913291730420744
- 0.0
- 0.0
effort:
- -0.44066905975341797
- -16.654329299926758
- 2.250507354736328
- 21.538251876831055
- 2.790546178817749
- 0.8910067677497864
- 0.398140549659729
- 0.0
- 0.0
---
header:
  stamp:
    sec: 1756277395
    nanosec: 964912142
  frame_id: ''
name:
- fr3_joint1
- fr3_joint2
- fr3_joint3
- fr3_joint4
- fr3_joint5
- fr3_joint6
- fr3_joint7
- fr3_finger_joint1
- fr3_finger_joint2
position:
- 1.7975243061233594
- -0.3829676232604805
- -0.30189138982336355
- -2.2342826280526986
- -0.7222822281057986
- 3.6756554688365193
- -1.1113794047388017
- 0.0
- 0.0
velocity:
- -0.05917854811759261
- -0.044083022088254716
- 0.007244948158942627
- 0.15517128582795658
- 0.008768790762204012
- -0.25412050621656934
- 0.24609392784312054
- 0.0
- 0.0
effort:
- -0.34148693084716797
- -16.451997756958008
- 2.353656768798828
- 21.510480880737305
- 2.803363561630249
- 0.8305819630622864
- 0.384407639503479
- 0.0
- 0.0
---
header:
  stamp:
    sec: 1756277395
    nanosec: 998134434
  frame_id: ''
name:
- fr3_joint1
- fr3_joint2
- fr3_joint3
- fr3_joint4
- fr3_joint5
- fr3_joint6
- fr3_joint7
- fr3_finger_joint1
- fr3_finger_joint2
position:
- 1.7955441260557976
- -0.3845230143572873
- -0.3016869956112158
- -2.2290162427674636
- -0.7220752307599361
- 3.6669432545104117
- -1.1032663070949704
- 0.0
- 0.0
velocity:
- -0.058329169178763914
- -0.04466946234784861
- 0.007323855323264113
- 0.1528222269787174
- 0.008880925307390613
- -0.24029213293646046
- 0.2267060695008895
- 0.0
- 0.0
effort:
- -0.39306163787841797
- -16.682100296020508
- 2.353656768798828
- 22.113508224487305
- 2.823505163192749
- 0.9843905568122864
- 0.370674729347229
- 0.0
- 0.0
---
header:
  stamp:
    sec: 1756277396
    nanosec: 31487265
  frame_id: ''
name:
- fr3_joint1
- fr3_joint2
- fr3_joint3
- fr3_joint4
- fr3_joint5
- fr3_joint6
- fr3_joint7
- fr3_finger_joint1
- fr3_finger_joint2
position:
- 1.7936901971504742
- -0.38593292525671635
- -0.30156124300308235
- -2.2239288277014775
- -0.7219370887812869
- 3.6592905741656656
- -1.0963426583518228
- 0.0
- 0.0
velocity:
- -0.053980624912353864
- -0.04435761643542141
- 0.0022937366896059463
- 0.15842166050616738
- 0.004237085727391139
- -0.23886298018939436
- 0.21125390046150122
- 0.0
- 0.0
effort:
- -0.21453380584716797
- -16.729707717895508
- 2.583759307861328
- 21.903242111206055
- 2.803363561630249
- 0.9102328419685364
- 0.418282151222229
- 0.0
- 0.0
---
header:
  stamp:
    sec: 1756277396
    nanosec: 64807045
  frame_id: ''
name:
- fr3_joint1
- fr3_joint2
- fr3_joint3
- fr3_joint4
- fr3_joint5
- fr3_joint6
- fr3_joint7
- fr3_finger_joint1
- fr3_finger_joint2
position:
- 1.792016613525422
- -0.3876969993079858
- -0.30148772406228813
- -2.2187706130886125
- -0.7217005329668812
- 3.650500276824838
- -1.0886046629737125
- 0.0
- 0.0
velocity:
- -0.04825609134420895
- -0.05415126600621193
- 0.0031768578166157897
- 0.15088444278936225
- 0.0028032605018319303
- -0.26957550634032873
- 0.24084545755578904
- 0.0
- 0.0
effort:
- -0.23833751678466797
- -16.297273635864258
- 2.508380889892578
- 21.931013107299805
- 2.836322546005249
- 0.9505160450935364
- 0.363350510597229
- 0.0
- 0.0
---
header:
  stamp:
    sec: 1756277396
    nanosec: 98617666
  frame_id: ''
name:
- fr3_joint1
- fr3_joint2
- fr3_joint3
- fr3_joint4
- fr3_joint5
- fr3_joint6
- fr3_joint7
- fr3_finger_joint1
- fr3_finger_joint2
position:
- 1.7903609421103366
- -0.3893373378274366
- -0.30131055911350485
- -2.213588184995053
- -0.7215237809988897
- 3.642369712043147
- -1.0812793101487634
- 0.0
- 0.0
velocity:
- -0.04966643395667596
- -0.04567304351128599
- 0.005625389302769962
- 0.16104818082244907
- 0.003961132500480595
- -0.23590626065152276
- 0.2126947312105511
- 0.0
- 0.0
effort:
- -0.21453380584716797
- -16.400423049926758
- 2.583759307861328
- 21.800092697143555
- 2.796954870223999
- 0.8443148732185364
- 0.323067307472229
- 0.0
- 0.0
---
header:
  stamp:
    sec: 1756277396
    nanosec: 131504627
  frame_id: ''
name:
- fr3_joint1
- fr3_joint2
- fr3_joint3
- fr3_joint4
- fr3_joint5
- fr3_joint6
- fr3_joint7
- fr3_finger_joint1
- fr3_finger_joint2
position:
- 1.7888438827962918
- -0.3908694640841777
- -0.30114701487089046
- -2.2081398138761577
- -0.7213128218978446
- 3.634194810560247
- -1.073956458512879
- 0.0
- 0.0
velocity:
- -0.044955324920070476
- -0.04913126663756928
- 0.0040193386686090595
- 0.16397832642093077
- 0.007937926534123474
- -0.25751917247532635
- 0.23309018930831946
- 0.0
- 0.0
effort:
- -0.26214122772216797
- -16.071138381958008
- 2.611530303955078
- 21.300214767456055
- 2.738361120223999
- 0.8836825489997864
- 0.384407639503479
- 0.0
- 0.0
---
header:
  stamp:
    sec: 1756277396
    nanosec: 164955456
  frame_id: ''
name:
- fr3_joint1
- fr3_joint2
- fr3_joint3
- fr3_joint4
- fr3_joint5
- fr3_joint6
- fr3_joint7
- fr3_finger_joint1
- fr3_finger_joint2
position:
- 1.7871565773804197
- -0.39243958829066655
- -0.3008749808992147
- -2.2026738985753136
- -0.7211089950964484
- 3.6258417461793804
- -1.0655592541604553
- 0.0
- 0.0
velocity:
- -0.052982110790927024
- -0.041011971250050315
- 0.00789550494288847
- 0.15671224031234582
- 0.004966361291169133
- -0.2376367499897503
- 0.2317509654728443
- 0.0
- 0.0
effort:
- -0.36529064178466797
- -16.019563674926758
- 2.456806182861328
- 21.982587814331055
- 2.823505163192749
- 0.9376986622810364
- 0.444832444190979
- 0.0
- 0.0
---
header:
  stamp:
    sec: 1756277396
    nanosec: 198105114
  frame_id: ''
name:
- fr3_joint1
- fr3_joint2
- fr3_joint3
- fr3_joint4
- fr3_joint5
- fr3_joint6
- fr3_joint7
- fr3_finger_joint1
- fr3_finger_joint2
position:
- 1.7852469638004285
- -0.3937026131354164
- -0.30056168511301595
- -2.1972993361538573
- -0.7209835412479213
- 3.617994197076486
- -1.058756196699294
- 0.0
- 0.0
velocity:
- -0.05959352987143444
- -0.038120864490884636
- 0.008272949911401253
- 0.15941056886763916
- 0.004649226243651812
- -0.24028525578704368
- 0.2029242790464783
- 0.0
- 0.0
effort:
- -0.31371593475341797
- -16.198091506958008
- 2.456806182861328
- 21.617597579956055
- 2.796954870223999
- 0.8443148732185364
- 0.390816330909729
- 0.0
- 0.0
---
header:
  stamp:
    sec: 1756277396
    nanosec: 231559021
  frame_id: ''
name:
- fr3_joint1
- fr3_joint2
- fr3_joint3
- fr3_joint4
- fr3_joint5
- fr3_joint6
- fr3_joint7
- fr3_finger_joint1
- fr3_finger_joint2
position:
- 1.7834414279961346
- -0.39510959182910577
- -0.30033716491447937
- -2.192369112226231
- -0.7208222431797519
- 3.6096510024138486
- -1.05152245452398
- 0.0
- 0.0
velocity:
- -0.0564146124301345
- -0.04464961272415928
- 0.005990562792591208
- 0.1494184595518232
- 0.002509188770335509
- -0.2550616650671462
- 0.2322007005097987
- 0.0
- 0.0
effort:
- -0.39306163787841797
- -16.043367385864258
- 2.508380889892578
- 21.669172286987305
- 2.796954870223999
- 0.9102328419685364
- 0.323067307472229
- 0.0
- 0.0
---
header:
  stamp:
    sec: 1756277396
    nanosec: 265020376
  frame_id: ''
name:
- fr3_joint1
- fr3_joint2
- fr3_joint3
- fr3_joint4
- fr3_joint5
- fr3_joint6
- fr3_joint7
- fr3_finger_joint1
- fr3_finger_joint2
position:
- 1.7815289486938577
- -0.39646820079997175
- -0.3001397287233183
- -2.187224725054634
- -0.7206800762594515
- 3.601353930304662
- -1.0437258357559531
- 0.0
- 0.0
velocity:
- -0.0572476674222566
- -0.037373500997430614
- 0.005179731566042131
- 0.15928213309134912
- 0.006007460560907268
- -0.24377359917475527
- 0.21590118298309458
- 0.0
- 0.0
effort:
- -0.44066905975341797
- -16.400423049926758
- 2.508380889892578
- 21.772321701049805
- 2.803363561630249
- 0.9239657521247864
- 0.329475998878479
- 0.0
- 0.0
---
header:
  stamp:
    sec: 1756277396
    nanosec: 298618138
  frame_id: ''
name:
- fr3_joint1
- fr3_joint2
- fr3_joint3
- fr3_joint4
- fr3_joint5
- fr3_joint6
- fr3_joint7
- fr3_finger_joint1
- fr3_finger_joint2
position:
- 1.7797597362872342
- -0.3979452748136506
- -0.2999800316051851
- -2.1818830682617936
- -0.7204651754552698
- 3.592760260030143
- -1.036402547249005
- 0.0
- 0.0
velocity:
- -0.04924247578222274
- -0.050016272924962905
- 0.0018286460331912971
- 0.15111606325363475
- 0.006919410740346896
- -0.26825173420302684
- 0.23308703868105796
- 0.0
- 0.0
effort:
- -0.39306163787841797
- -16.071138381958008
- 2.583759307861328
- 21.772321701049805
- 2.817096471786499
- 0.9038241505622864
- 0.384407639503479
- 0.0
- 0.0
---
header:
  stamp:
    sec: 1756277396
    nanosec: 331515315
  frame_id: ''
name:
- fr3_joint1
- fr3_joint2
- fr3_joint3
- fr3_joint4
- fr3_joint5
- fr3_joint6
- fr3_joint7
- fr3_finger_joint1
- fr3_finger_joint2
position:
- 1.7780136327271459
- -0.3995420564530361
- -0.2997803377028691
- -2.1768010243205835
- -0.7203246791621072
- 3.5848307136704274
- -1.0283881118491398
- 0.0
- 0.0
velocity:
- -0.05699198910667073
- -0.048000869521089895
- 0.004679592774679006
- 0.15186877318196745
- 0.005141058594038902
- -0.2292218920842509
- 0.24070573543205143
- 0.0
- 0.0
effort:
- -0.28991222381591797
- -16.348848342895508
- 2.583759307861328
- 22.323774337768555
- 2.856464147567749
- 0.9376986622810364
- 0.343208909034729
- 0.0
- 0.0
---
header:
  stamp:
    sec: 1756277396
    nanosec: 364940599
  frame_id: ''
name:
- fr3_joint1
- fr3_joint2
- fr3_joint3
- fr3_joint4
- fr3_joint5
- fr3_joint6
- fr3_joint7
- fr3_finger_joint1
- fr3_finger_joint2
position:
- 1.7761802302939946
- -0.4011865440499593
- -0.2995633145974815
- -2.1715107047909075
- -0.720209518628505
- 3.5765854463082793
- -1.0209398646510661
- 0.0
- 0.0
velocity:
- -0.053413513664677
- -0.05012832628322515
- 0.006163661331729391
- 0.16001754233439053
- 0.003879547565211314
- -0.25548838195188467
- 0.2090862154385279
- 0.0
- 0.0
effort:
- -0.28991222381591797
- -16.043367385864258
- 2.663105010986328
- 21.982587814331055
- 2.836322546005249
- 0.8644564747810364
- 0.363350510597229
- 0.0
- 0.0
---
header:
  stamp:
    sec: 1756277396
    nanosec: 398251037
  frame_id: ''
name:
- fr3_joint1
- fr3_joint2
- fr3_joint3
- fr3_joint4
- fr3_joint5
- fr3_joint6
- fr3_joint7
- fr3_finger_joint1
- fr3_finger_joint2
position:
- 1.7743952337439002
- -0.40297432937395644
- -0.299316056785182
- -2.166361601908163
- -0.7199972240061937
- 3.5678930631108816
- -1.013731740424044
- 0.0
- 0.0
velocity:
- -0.0569370767502852
- -0.05256719336685846
- 0.009281223966267087
- 0.1532207990519552
- 0.004353168788876307
- -0.244005732120752
- 0.22022178361126776
- 0.0
- 0.0
effort:
- -0.41686534881591797
- -15.765657424926758
- 2.429035186767578
- 21.823896408081055
- 2.823505163192749
- 0.9303744435310364
- 0.452156662940979
- 0.0
- 0.0
---
header:
  stamp:
    sec: 1756277396
    nanosec: 431690296
  frame_id: ''
name:
- fr3_joint1
- fr3_joint2
- fr3_joint3
- fr3_joint4
- fr3_joint5
- fr3_joint6
- fr3_joint7
- fr3_finger_joint1
- fr3_finger_joint2
position:
- 1.772356772906861
- -0.40452049870566037
- -0.29899885914045454
- -2.161311058206911
- -0.7198707570644843
- 3.5601123127206895
- -1.0062874766948589
- 0.0
- 0.0
velocity:
- -0.06470858137824766
- -0.04500763643625845
- 0.011175669372734827
- 0.16216245506685262
- 0.005445917556475204
- -0.24335477099944194
- 0.21399205573790578
- 0.0
- 0.0
effort:
- -0.39306163787841797
- -15.714082717895508
- 2.456806182861328
- 21.851667404174805
- 2.803363561630249
- 0.8708651661872864
- 0.356941819190979
- 0.0
- 0.0
---
header:
  stamp:
    sec: 1756277396
    nanosec: 464986776
  frame_id: ''
name:
- fr3_joint1
- fr3_joint2
- fr3_joint3
- fr3_joint4
- fr3_joint5
- fr3_joint6
- fr3_joint7
- fr3_finger_joint1
- fr3_finger_joint2
position:
- 1.7702363735997446
- -0.4060322606557439
- -0.29874753825695677
- -2.1556582001003965
- -0.7196492144401815
- 3.5515159308303357
- -0.9990745481204089
- 0.0
- 0.0
velocity:
- -0.062332786586122305
- -0.04573292388851325
- 0.006078754650602921
- 0.16154593435667336
- 0.009165063291599421
- -0.24576545958126852
- 0.22002670825350776
- 0.0
- 0.0
effort:
- -0.31371593475341797
- -15.587129592895508
- 2.559955596923828
- 21.510480880737305
- 2.790546178817749
- 0.8974154591560364
- 0.370674729347229
- 0.0
- 0.0
---
header:
  stamp:
    sec: 1756277396
    nanosec: 498659966
  frame_id: ''
name:
- fr3_joint1
- fr3_joint2
- fr3_joint3
- fr3_joint4
- fr3_joint5
- fr3_joint6
- fr3_joint7
- fr3_finger_joint1
- fr3_finger_joint2
position:
- 1.7681881607596701
- -0.4075248188681625
- -0.29856760187762604
- -2.150392335775231
- -0.7194720078580636
- 3.543600027981833
- -0.99111720527556
- 0.0
- 0.0
velocity:
- -0.057581190675052345
- -0.04182101163749144
- 0.004115186843845297
- 0.15312457362356363
- 0.0021460273582369852
- -0.23387960147466266
- 0.2519649830275085
- 0.0
- 0.0
effort:
- -0.21453380584716797
- -15.737886428833008
- 2.714679718017578
- 22.192853927612305
- 2.882098913192749
- 0.8644564747810364
- 0.438423752784729
- 0.0
- 0.0
---
header:
  stamp:
    sec: 1756277396
    nanosec: 531511904
  frame_id: ''
name:
- fr3_joint1
- fr3_joint2
- fr3_joint3
- fr3_joint4
- fr3_joint5
- fr3_joint6
- fr3_joint7
- fr3_finger_joint1
- fr3_finger_joint2
position:
- 1.7665161416091137
- -0.40887372952773327
- -0.2985350391488642
- -2.145215243951354
- -0.7192967666460731
- 3.535546751777086
- -0.9836357972461189
- 0.0
- 0.0
velocity:
- -0.049247199014118045
- -0.044782201874472204
- 0.0018397729199004093
- 0.16078853457184736
- 0.006861378842324402
- -0.26325965797168777
- 0.2052758551091431
- 0.0
- 0.0
effort:
- -0.18676280975341797
- -15.690279006958008
- 2.845600128173828
- 21.823896408081055
- 2.796954870223999
- 0.9038241505622864
- 0.377083420753479
- 0.0
- 0.0
---
header:
  stamp:
    sec: 1756277396
    nanosec: 565018579
  frame_id: ''
name:
- fr3_joint1
- fr3_joint2
- fr3_joint3
- fr3_joint4
- fr3_joint5
- fr3_joint6
- fr3_joint7
- fr3_finger_joint1
- fr3_finger_joint2
position:
- 1.7648504784111712
- -0.41040916041295916
- -0.29838960057896147
- -2.1400419810733733
- -0.7190514578414758
- 3.5269973827795686
- -0.9764411868928504
- 0.0
- 0.0
velocity:
- -0.05035579348119579
- -0.045378221185495955
- 0.006691038014238669
- 0.14876281801434446
- 0.0037908813720351152
- -0.24295223814335357
- 0.2256081849060316
- 0.0
- 0.0
effort:
- -0.16295909881591797
- -15.610933303833008
- 2.817829132080078
- 21.903242111206055
- 2.817096471786499
- 0.9239657521247864
- 0.424690842628479
- 0.0
- 0.0
---
header:
  stamp:
    sec: 1756277396
    nanosec: 598574452
  frame_id: ''
name:
- fr3_joint1
- fr3_joint2
- fr3_joint3
- fr3_joint4
- fr3_joint5
- fr3_joint6
- fr3_joint7
- fr3_finger_joint1
- fr3_finger_joint2
position:
- 1.7632878542777655
- -0.4119152067418709
- -0.2982047497033251
- -2.135019755874698
- -0.7188753023693899
- 3.5188519023387
- -0.9686934193337918
- 0.0
- 0.0
velocity:
- -0.04601937783920789
- -0.045010987510056576
- 0.004748582871298887
- 0.15733250150106237
- 0.0037705969839628398
- -0.2515675729576678
- 0.23682771457355703
- 0.0
- 0.0
effort:
- -0.16295909881591797
- -15.789461135864258
- 2.817829132080078
- 22.034162521362305
- 2.823505163192749
- 0.8507235646247864
- 0.343208909034729
- 0.0
- 0.0
---
header:
  stamp:
    sec: 1756277396
    nanosec: 631469504
  frame_id: ''
name:
- fr3_joint1
- fr3_joint2
- fr3_joint3
- fr3_joint4
- fr3_joint5
- fr3_joint6
- fr3_joint7
- fr3_finger_joint1
- fr3_finger_joint2
position:
- 1.7618267562877752
- -0.41348484973584804
- -0.29794225586536527
- -2.1297094982357234
- -0.7186809808012589
- 3.510355706763954
- -0.9616523570669097
- 0.0
- 0.0
velocity:
- -0.046101353387657806
- -0.05214939666771207
- 0.009527771123464836
- 0.1572918440486765
- 0.005603979502634225
- -0.24303872879521715
- 0.21488433809038374
- 0.0
- 0.0
effort:
- -0.36529064178466797
- -15.483980178833008
- 2.686908721923828
- 21.641401290893555
- 2.777728796005249
- 0.9239657521247864
- 0.350533127784729
- 0.0
- 0.0
---
header:
  stamp:
    sec: 1756277396
    nanosec: 664763367
  frame_id: ''
name:
- fr3_joint1
- fr3_joint2
- fr3_joint3
- fr3_joint4
- fr3_joint5
- fr3_joint6
- fr3_joint7
- fr3_finger_joint1
- fr3_finger_joint2
position:
- 1.7600206465985286
- -0.41514566682257575
- -0.29757017909342587
- -2.124358405638006
- -0.7185078770980129
- 3.5024574083265185
- -0.9536670267477935
- 0.0
- 0.0
velocity:
- -0.05589793817047082
- -0.047710459851000836
- 0.009193252642771566
- 0.1551834399384841
- 0.0037709725490757363
- -0.23573982824157158
- 0.25193197274219575
- 0.0
- 0.0
effort:
- -0.39306163787841797
- -15.511751174926758
- 2.663105010986328
- 22.085737228393555
- 2.842731237411499
- 0.8910067677497864
- 0.384407639503479
- 0.0
- 0.0
---
header:
  stamp:
    sec: 1756277396
    nanosec: 698114290
  frame_id: ''
name:
- fr3_joint1
- fr3_joint2
- fr3_joint3
- fr3_joint4
- fr3_joint5
- fr3_joint6
- fr3_joint7
- fr3_finger_joint1
- fr3_finger_joint2
position:
- 1.7581275634430646
- -0.41664012033830344
- -0.29723508054699754
- -2.1190012541283294
- -0.7184036716356008
- 3.493982716836589
- -0.9458865653973497
- 0.0
- 0.0
velocity:
- -0.05537524948168443
- -0.0449385219535664
- 0.008338665769448857
- 0.16341895503044962
- 0.0038469702341545216
- -0.2681141479082729
- 0.21494826995268024
- 0.0
- 0.0
effort:
- -0.36529064178466797
- -15.230073928833008
- 2.635334014892578
- 21.931013107299805
- 2.836322546005249
- 0.8772738575935364
- 0.458565354347229
- 0.0
- 0.0
---
header:
  stamp:
    sec: 1756277396
    nanosec: 731438971
  frame_id: ''
name:
- fr3_joint1
- fr3_joint2
- fr3_joint3
- fr3_joint4
- fr3_joint5
- fr3_joint6
- fr3_joint7
- fr3_finger_joint1
- fr3_finger_joint2
position:
- 1.756212273367976
- -0.41806772141768256
- -0.29697981594988004
- -2.1139381718412387
- -0.7182272896441393
- 3.4859806418921835
- -0.9390735013912095
- 0.0
- 0.0
velocity:
- -0.05843083096627943
- -0.04368031366186497
- 0.006169490639073221
- 0.15272925990815772
- 0.002574713957366849
- -0.23953699276623625
- 0.21114095045771464
- 0.0
- 0.0
effort:
- -0.39306163787841797
- -15.206270217895508
- 2.611530303955078
- 21.772321701049805
- 2.823505163192749
- 0.8443148732185364
- 0.424690842628479
- 0.0
- 0.0
---
header:
  stamp:
    sec: 1756277396
    nanosec: 764846265
  frame_id: ''
name:
- fr3_joint1
- fr3_joint2
- fr3_joint3
- fr3_joint4
- fr3_joint5
- fr3_joint6
- fr3_joint7
- fr3_finger_joint1
- fr3_finger_joint2
position:
- 1.7542733405632749
- -0.41944485385493635
- -0.29681258187659043
- -2.108706783001353
- -0.7181005116063511
- 3.4774635429509138
- -0.9312158060722161
- 0.0
- 0.0
velocity:
- -0.05496034366104889
- -0.03776051585489326
- 0.002871425000232715
- 0.1590383218686929
- 0.0011808578035955395
- -0.26037841734750333
- 0.24170001886851394
- 0.0
- 0.0
effort:
- -0.28991222381591797
- -15.305452346801758
- 2.766254425048828
- 21.879438400268555
- 2.803363561630249
- 0.8910067677497864
- 0.458565354347229
- 0.0
- 0.0
---
header:
  stamp:
    sec: 1756277396
    nanosec: 798604706
  frame_id: ''
name:
- fr3_joint1
- fr3_joint2
- fr3_joint3
- fr3_joint4
- fr3_joint5
- fr3_joint6
- fr3_joint7
- fr3_finger_joint1
- fr3_finger_joint2
position:
- 1.7525324447210078
- -0.42080848549622685
- -0.2966792115853727
- -2.103316555130172
- -0.717924374085704
- 3.469158518602929
- -0.9238047557786062
- 0.0
- 0.0
velocity:
- -0.05234230021954805
- -0.04290146316284477
- 0.005347987600818631
- 0.1527536555412303
- 0.0073233112886509355
- -0.2369295778207363
- 0.2162344506082788
- 0.0
- 0.0
effort:
- -0.21453380584716797
- -15.051546096801758
- 2.790058135986328
- 21.931013107299805
- 2.842731237411499
- 0.9239657521247864
- 0.418282151222229
- 0.0
- 0.0
---
header:
  stamp:
    sec: 1756277396
    nanosec: 831502647
  frame_id: ''
name:
- fr3_joint1
- fr3_joint2
- fr3_joint3
- fr3_joint4
- fr3_joint5
- fr3_joint6
- fr3_joint7
- fr3_finger_joint1
- fr3_finger_joint2
position:
- 1.7508134377237854
- -0.42217633550207784
- -0.29649356678581235
- -2.0982211356702978
- -0.7177200883368636
- 3.4614499020696954
- -0.9163786186635866
- 0.0
- 0.0
velocity:
- -0.05161472442281853
- -0.0407560360104485
- 0.007378127936526423
- 0.1533600914540497
- 0.0012970222722327803
- -0.24031574432084207
- 0.23258804321406248
- 0.0
- 0.0
effort:
- -0.36529064178466797
- -15.281648635864258
- 2.790058135986328
- 22.244428634643555
- 2.829913854598999
- 0.9102328419685364
- 0.424690842628479
- 0.0
- 0.0
---
header:
  stamp:
    sec: 1756277396
    nanosec: 864919188
  frame_id: ''
name:
- fr3_joint1
- fr3_joint2
- fr3_joint3
- fr3_joint4
- fr3_joint5
- fr3_joint6
- fr3_joint7
- fr3_finger_joint1
- fr3_finger_joint2
position:
- 1.749008248935154
- -0.42358739257063044
- -0.2962538910435553
- -2.0928359394705507
- -0.7176017936154396
- 3.4527096427034216
- -0.9080462646433619
- 0.0
- 0.0
velocity:
- -0.056121167754633106
- -0.04275335708896422
- 0.008248250995142783
- 0.15908472256676298
- 0.0035350712394722605
- -0.2541650838145089
- 0.22722490365177717
- 0.0
- 0.0
effort:
- -0.39306163787841797
- -15.408601760864258
- 2.714679718017578
- 21.748517990112305
- 2.796954870223999
- 0.9102328419685364
- 0.323067307472229
- 0.0
- 0.0
---
header:
  stamp:
    sec: 1756277396
    nanosec: 898135665
  frame_id: ''
name:
- fr3_joint1
- fr3_joint2
- fr3_joint3
- fr3_joint4
- fr3_joint5
- fr3_joint6
- fr3_joint7
- fr3_finger_joint1
- fr3_finger_joint2
position:
- 1.747035597867397
- -0.42516545843324777
- -0.29591503729943663
- -2.08776613562756
- -0.7174355010360844
- 3.444578822112422
- -0.9012538565711535
- 0.0
- 0.0
velocity:
- -0.05867624673081004
- -0.04772717131728081
- 0.009195748964330161
- 0.15176898118055598
- 0.003996509227870548
- -0.2454804253182338
- 0.20792810070345466
- 0.0
- 0.0
effort:
- -0.49224376678466797
- -15.206270217895508
- 2.583759307861328
- 21.903242111206055
- 2.803363561630249
- 0.9303744435310364
- 0.438423752784729
- 0.0
- 0.0
---
header:
  stamp:
    sec: 1756277396
    nanosec: 931468767
  frame_id: ''
name:
- fr3_joint1
- fr3_joint2
- fr3_joint3
- fr3_joint4
- fr3_joint5
- fr3_joint6
- fr3_joint7
- fr3_finger_joint1
- fr3_finger_joint2
position:
- 1.7450866104998186
- -0.4267547123999264
- -0.2956230406395991
- -2.082810019065057
- -0.7173700920990367
- 3.436242132662752
- -0.8939319377077143
- 0.0
- 0.0
velocity:
- -0.05633063605357073
- -0.04947621005775234
- 0.006687924854332212
- 0.15967133571824926
- 0.001968075314732219
- -0.27182852953878994
- 0.22733114247049324
- 0.0
- 0.0
effort:
- -0.39306163787841797
- -15.206270217895508
- 2.686908721923828
- 22.113508224487305
- 2.817096471786499
- 0.9770663380622864
- 0.418282151222229
- 0.0
- 0.0
---
header:
  stamp:
    sec: 1756277396
    nanosec: 964992746
  frame_id: ''
name:
- fr3_joint1
- fr3_joint2
- fr3_joint3
- fr3_joint4
- fr3_joint5
- fr3_joint6
- fr3_joint7
- fr3_finger_joint1
- fr3_finger_joint2
position:
- 1.7430709847568033
- -0.42844586683273067
- -0.2953879440327325
- -2.077329854469151
- -0.7171305920692234
- 3.427955679242711
- -0.8861630450260752
- 0.0
- 0.0
velocity:
- -0.05928204262338112
- -0.05453106794206324
- 0.008234641384177382
- 0.15936675992793278
- 0.008029812459550593
- -0.22935804120965264
- 0.21430158192470355
- 0.0
- 0.0
effort:
- -0.39306163787841797
- -14.976167678833008
- 2.635334014892578
- 21.486677169799805
- 2.777728796005249
- 0.8571322560310364
- 0.336800217628479
- 0.0
- 0.0
---
header:
  stamp:
    sec: 1756277397
    nanosec: 131587045
  frame_id: ''
name:
- fr3_joint1
- fr3_joint2
- fr3_joint3
- fr3_joint4
- fr3_joint5
- fr3_joint6
- fr3_joint7
- fr3_finger_joint1
- fr3_finger_joint2
position:
- 1.7347124063882722
- -0.4359005824172906
- -0.29448795427738766
- -2.0511731807939197
- -0.7161395696133948
- 3.3870288454513897
- -0.8484362236511735
- 0.0
- 0.0
velocity:
- -0.0541145294906061
- -0.04362423673816516
- 0.011579746331192962
- 0.15952544415673536
- 0.007624688651316776
- -0.22963374943990197
- 0.21575721229932224
- 0.0
- 0.0
effort:
- -0.41686534881591797
- -14.595308303833008
- 2.817829132080078
- 21.589826583862305
- 2.757587194442749
- 0.8443148732185364
- 0.370674729347229
- 0.0
- 0.0
---
header:
  stamp:
    sec: 1756277397
    nanosec: 164976746
  frame_id: ''
name:
- fr3_joint1
- fr3_joint2
- fr3_joint3
- fr3_joint4
- fr3_joint5
- fr3_joint6
- fr3_joint7
- fr3_finger_joint1
- fr3_finger_joint2
position:
- 1.7327654977006524
- -0.4374365491885788
- -0.2940735469378913
- -2.045865885936794
- -0.716019077968304
- 3.378683718621661
- -0.8410178806366694
- 0.0
- 0.0
velocity:
- -0.056755014691343274
- -0.04614621578582014
- 0.011409024402778703
- 0.1533770264517277
- 0.0027012020594072593
- -0.26022864468596874
- 0.22539342264444331
- 0.0
- 0.0
effort:
- -0.28991222381591797
- -14.670686721801758
- 2.869403839111328
- 22.216657638549805
- 2.796954870223999
- 0.8974154591560364
- 0.370674729347229
- 0.0
- 0.0
---
header:
  stamp:
    sec: 1756277397
    nanosec: 198496891
  frame_id: ''
name:
- fr3_joint1
- fr3_joint2
- fr3_joint3
- fr3_joint4
- fr3_joint5
- fr3_joint6
- fr3_joint7
- fr3_finger_joint1
- fr3_finger_joint2
position:
- 1.730951707888941
- -0.4389553828767055
- -0.29377869874041984
- -2.0405876563828502
- -0.7159310254052272
- 3.3702299119448837
- -0.8329742022862422
- 0.0
- 0.0
velocity:
- -0.055505484847924835
- -0.04586776757696229
- 0.005965164521669818
- 0.159757952070043
- 0.003607675761810798
- -0.2445176076323008
- 0.2517990143781806
- 0.0
- 0.0
effort:
- -0.31371593475341797
- -14.825410842895508
- 2.972553253173828
- 21.692975997924805
- 2.725543737411499
- 0.9303744435310364
- 0.410957932472229
- 0.0
- 0.0
---
header:
  stamp:
    sec: 1756277397
    nanosec: 231642427
  frame_id: ''
name:
- fr3_joint1
- fr3_joint2
- fr3_joint3
- fr3_joint4
- fr3_joint5
- fr3_joint6
- fr3_joint7
- fr3_finger_joint1
- fr3_finger_joint2
position:
- 1.7291058168692015
- -0.4405708411410769
- -0.29347348510950944
- -2.03561633497291
- -0.7156883985052098
- 3.3623151625062326
- -0.8258876146935223
- 0.0
- 0.0
velocity:
- -0.05734884146890347
- -0.05045015110702862
- 0.00904033582890262
- 0.1517358133830497
- 0.0035631787371745625
- -0.24573659475993562
- 0.196504587668498
- 0.0
- 0.0
effort:
- -0.36529064178466797
- -14.392976760864258
- 2.845600128173828
- 21.851667404174805
- 2.784137487411499
- 0.7902987599372864
- 0.336800217628479
- 0.0
- 0.0
---
header:
  stamp:
    sec: 1756277397
    nanosec: 265692516
  frame_id: ''
name:
- fr3_joint1
- fr3_joint2
- fr3_joint3
- fr3_joint4
- fr3_joint5
- fr3_joint6
- fr3_joint7
- fr3_finger_joint1
- fr3_finger_joint2
position:
- 1.7272800800126216
- -0.4422170395439568
- -0.2932197865554003
- -2.0303680443523544
- -0.7155616059876374
- 3.353514874545199
- -0.8187419617707107
- 0.0
- 0.0
velocity:
- -0.05441443849192172
- -0.04390531179986461
- 0.006725944170881204
- 0.16054241388439464
- 0.00202956140727439
- -0.2450507823894327
- 0.22321475411094818
- 0.0
- 0.0
effort:
- -0.31371593475341797
- -14.289827346801758
- 2.920978546142578
- 21.931013107299805
- 2.777728796005249
- 0.9239657521247864
- 0.410957932472229
- 0.0
- 0.0
---
header:
  stamp:
    sec: 1756277397
    nanosec: 298167622
  frame_id: ''
name:
- fr3_joint1
- fr3_joint2
- fr3_joint3
- fr3_joint4
- fr3_joint5
- fr3_joint6
- fr3_joint7
- fr3_finger_joint1
- fr3_finger_joint2
position:
- 1.725497820049266
- -0.44369176948967837
- -0.292995560129307
- -2.0248621932137048
- -0.7153083648819344
- 3.345743794698378
- -0.8109566463903781
- 0.0
- 0.0
velocity:
- -0.05434377560609267
- -0.046924108390633074
- 0.0069860707207103695
- 0.158911143427139
- 0.00996231257567032
- -0.23066854696236994
- 0.23144332677468965
- 0.0
- 0.0
effort:
- -0.34148693084716797
- -14.035921096801758
- 2.869403839111328
- 21.355756759643555
- 2.738361120223999
- 0.8708651661872864
- 0.424690842628479
- 0.0
- 0.0
---
header:
  stamp:
    sec: 1756277397
    nanosec: 331549969
  frame_id: ''
name:
- fr3_joint1
- fr3_joint2
- fr3_joint3
- fr3_joint4
- fr3_joint5
- fr3_joint6
- fr3_joint7
- fr3_finger_joint1
- fr3_finger_joint2
position:
- 1.7237443831334838
- -0.4451796702036273
- -0.2927595250899396
- -2.019639950257085
- -0.7151773075451957
- 3.3375798864132182
- -0.8040120364970009
- 0.0
- 0.0
velocity:
- -0.05277963300692823
- -0.04612215147728733
- 0.005779734353675735
- 0.15592849307270096
- 0.003344581165431103
- -0.2643999240893055
- 0.21390742055352707
- 0.0
- 0.0
effort:
- -0.23833751678466797
- -13.754243850708008
- 2.972553253173828
- 21.772321701049805
- 2.757587194442749
- 0.8772738575935364
- 0.390816330909729
- 0.0
- 0.0
---
header:
  stamp:
    sec: 1756277397
    nanosec: 364985481
  frame_id: ''
name:
- fr3_joint1
- fr3_joint2
- fr3_joint3
- fr3_joint4
- fr3_joint5
- fr3_joint6
- fr3_joint7
- fr3_finger_joint1
- fr3_finger_joint2
position:
- 1.7218883847815034
- -0.4465123038845333
- -0.29251950840532187
- -2.0142005679523667
- -0.7150274968481237
- 3.329114063857036
- -0.7959037490571628
- 0.0
- 0.0
velocity:
- -0.059603358202270154
- -0.03709649536661333
- 0.006708599355122852
- 0.16012415936570845
- 0.004582406699367886
- -0.2372475631120895
- 0.24994477481775104
- 0.0
- 0.0
effort:
- -0.34148693084716797
- -14.162874221801758
- 2.948749542236328
- 21.589826583862305
- 2.751178503036499
- 0.8369906544685364
- 0.363350510597229
- 0.0
- 0.0
---
header:
  stamp:
    sec: 1756277397
    nanosec: 398181959
  frame_id: ''
name:
- fr3_joint1
- fr3_joint2
- fr3_joint3
- fr3_joint4
- fr3_joint5
- fr3_joint6
- fr3_joint7
- fr3_finger_joint1
- fr3_finger_joint2
position:
- 1.719778008514715
- -0.44790762948919
- -0.29215824103905647
- -2.0091250095676774
- -0.714853269615892
- 3.320776985182715
- -0.7881626204898882
- 0.0
- 0.0
velocity:
- -0.06310925465985653
- -0.041736120646838785
- 0.007834908224774681
- 0.1512277190067234
- 0.004101851728491542
- -0.25570747471361394
- 0.2171669500248946
- 0.0
- 0.0
effort:
- -0.41686534881591797
- -13.960542678833008
- 2.897174835205078
- 21.431135177612305
- 2.711810827255249
- 0.8644564747810364
- 0.398140549659729
- 0.0
- 0.0
---
header:
  stamp:
    sec: 1756277397
    nanosec: 431691693
  frame_id: ''
name:
- fr3_joint1
- fr3_joint2
- fr3_joint3
- fr3_joint4
- fr3_joint5
- fr3_joint6
- fr3_joint7
- fr3_finger_joint1
- fr3_finger_joint2
position:
- 1.7179942731710325
- -0.44909385669097523
- -0.2919136304555152
- -2.004771659729709
- -0.7147367578037458
- 3.313539117557856
- -0.7820288204956503
- 0.0
- 0.0
velocity:
- -0.06312405873674962
- -0.04100708313623908
- 0.008811686096161033
- 0.15402276588577657
- 0.005245407485537492
- -0.24539150010803942
- 0.21565148129180403
- 0.0
- 0.0
effort:
- -0.39306163787841797
- -14.162874221801758
- 2.869403839111328
- 21.669172286987305
- 2.744769811630249
- 0.9038241505622864
- 0.329475998878479
- 0.0
- 0.0
---
header:
  stamp:
    sec: 1756277397
    nanosec: 464893890
  frame_id: ''
name:
- fr3_joint1
- fr3_joint2
- fr3_joint3
- fr3_joint4
- fr3_joint5
- fr3_joint6
- fr3_joint7
- fr3_finger_joint1
- fr3_finger_joint2
position:
- 1.715749653172623
- -0.45067546342513726
- -0.2917127594589232
- -1.998824804270343
- -0.7145030841836153
- 3.304696434828756
- -0.7734277854712556
- 0.0
- 0.0
velocity:
- -0.05858360908254314
- -0.04769765079463417
- 0.005897418640435622
- 0.1549552223117542
- 0.006600708439615898
- -0.23879174171746267
- 0.23885112167362316
- 0.0
- 0.0
effort:
- -0.21453380584716797
- -13.857393264770508
- 3.000324249267578
- 21.431135177612305
- 2.705402135848999
- 0.8836825489997864
- 0.390816330909729
- 0.0
- 0.0
---
header:
  stamp:
    sec: 1756277397
    nanosec: 498557109
  frame_id: ''
name:
- fr3_joint1
- fr3_joint2
- fr3_joint3
- fr3_joint4
- fr3_joint5
- fr3_joint6
- fr3_joint7
- fr3_finger_joint1
- fr3_finger_joint2
position:
- 1.7140753260710084
- -0.4523975615787404
- -0.29165071705978396
- -1.9935223849161203
- -0.7143482155429532
- 3.296041519202267
- -0.7659416226704404
- 0.0
- 0.0
velocity:
- -0.04795863799830578
- -0.050157118159851424
- 0.001150022987847331
- 0.1516343651672309
- 0.003521126716580331
- -0.25640931650979776
- 0.22041511526135635
- 0.0
- 0.0
effort:
- -0.18676280975341797
- -14.139070510864258
- 3.230426788330078
- 22.113508224487305
- 2.763995885848999
- 0.9376986622810364
- 0.356941819190979
- 0.0
- 0.0
---
header:
  stamp:
    sec: 1756277397
    nanosec: 531530658
  frame_id: ''
name:
- fr3_joint1
- fr3_joint2
- fr3_joint3
- fr3_joint4
- fr3_joint5
- fr3_joint6
- fr3_joint7
- fr3_finger_joint1
- fr3_finger_joint2
position:
- 1.7125201365401117
- -0.45401208019643174
- -0.2915198204162183
- -1.9883613077883515
- -0.7142047418688753
- 3.2879466797684764
- -0.758401573434066
- 0.0
- 0.0
velocity:
- -0.04973956439711671
- -0.04903329179730407
- 0.005761178435357011
- 0.1606190906327238
- 0.006966713735992338
- -0.2455318650898735
- 0.24757746871345873
- 0.0
- 0.0
effort:
- -0.26214122772216797
- -13.805818557739258
- 3.075702667236328
- 21.486677169799805
- 2.718219518661499
- 0.8910067677497864
- 0.289192795753479
- 0.0
- 0.0
---
header:
  stamp:
    sec: 1756277397
    nanosec: 564725341
  frame_id: ''
name:
- fr3_joint1
- fr3_joint2
- fr3_joint3
- fr3_joint4
- fr3_joint5
- fr3_joint6
- fr3_joint7
- fr3_finger_joint1
- fr3_finger_joint2
position:
- 1.7109263203641976
- -0.4558524604778897
- -0.29132372695230363
- -1.9830602066583063
- -0.7139915474884224
- 3.2793287343164055
- -0.7502073633122636
- 0.0
- 0.0
velocity:
- -0.044389713472693715
- -0.052400455064890786
- 0.004236308651637541
- 0.1528755480678946
- 0.00482010388362841
- -0.2680445926824957
- 0.2161143712181737
- 0.0
- 0.0
effort:
- -0.23833751678466797
- -13.298006057739258
- 3.127277374267578
- 21.327985763549805
- 2.672443151473999
- 0.9175570607185364
- 0.398140549659729
- 0.0
- 0.0
---
header:
  stamp:
    sec: 1756277397
    nanosec: 598578473
  frame_id: ''
name:
- fr3_joint1
- fr3_joint2
- fr3_joint3
- fr3_joint4
- fr3_joint5
- fr3_joint6
- fr3_joint7
- fr3_finger_joint1
- fr3_finger_joint2
position:
- 1.7093334147531434
- -0.45745972071522406
- -0.29110719679707625
- -1.9778127201490137
- -0.7138153883903092
- 3.2712379731718366
- -0.7434742506074401
- 0.0
- 0.0
velocity:
- -0.05072217477495776
- -0.044700880719711254
- 0.007589609468962856
- 0.16414147861887773
- 0.004534101334817558
- -0.2303729821361528
- 0.20534500695166213
- 0.0
- 0.0
effort:
- -0.31371593475341797
- -13.373384475708008
- 3.103473663330078
- 21.538251876831055
- 2.711810827255249
- 0.8708651661872864
- 0.424690842628479
- 0.0
- 0.0
---
header:
  stamp:
    sec: 1756277397
    nanosec: 631517764
  frame_id: ''
name:
- fr3_joint1
- fr3_joint2
- fr3_joint3
- fr3_joint4
- fr3_joint5
- fr3_joint6
- fr3_joint7
- fr3_finger_joint1
- fr3_finger_joint2
position:
- 1.7075394907645125
- -0.4589091720146376
- -0.2908290809575061
- -1.9724215042129762
- -0.7135674305175057
- 3.2636027169813344
- -0.7361015028126241
- 0.0
- 0.0
velocity:
- -0.05701893970315828
- -0.04728471652031757
- 0.007575122252947155
- 0.16192828349309052
- 0.009657198968505476
- -0.24489383885791438
- 0.2339919926380417
- 0.0
- 0.0
effort:
- -0.36529064178466797
- -13.095674514770508
- 3.024127960205078
- 20.959028244018555
- 2.653217077255249
- 0.8104403614997864
- 0.390816330909729
- 0.0
- 0.0
---
header:
  stamp:
    sec: 1756277397
    nanosec: 664970037
  frame_id: ''
name:
- fr3_joint1
- fr3_joint2
- fr3_joint3
- fr3_joint4
- fr3_joint5
- fr3_joint6
- fr3_joint7
- fr3_finger_joint1
- fr3_finger_joint2
position:
- 1.7056063645145545
- -0.4604825160929267
- -0.2905171363907984
- -1.9670362119699503
- -0.7133809978602149
- 3.25476856243834
- -0.7283708735573863
- 0.0
- 0.0
velocity:
- -0.05666254780177025
- -0.042998077443171995
- 0.007399904778843139
- 0.15339769211004167
- 0.005949084641858032
- -0.25533517778371306
- 0.20884764877668296
- 0.0
- 0.0
effort:
- -0.31371593475341797
- -13.194856643676758
- 3.051898956298828
- 21.458906173706055
- 2.692584753036499
- 0.9843905568122864
- 0.356941819190979
- 0.0
- 0.0
---
header:
  stamp:
    sec: 1756277397
    nanosec: 698157864
  frame_id: ''
name:
- fr3_joint1
- fr3_joint2
- fr3_joint3
- fr3_joint4
- fr3_joint5
- fr3_joint6
- fr3_joint7
- fr3_finger_joint1
- fr3_finger_joint2
position:
- 1.7036396349902434
- -0.4618310607003815
- -0.290271503507681
- -1.9617985539895708
- -0.7131911999661313
- 3.246622532028827
- -0.7210366992268205
- 0.0
- 0.0
velocity:
- -0.05736607201747188
- -0.041779575633046816
- 0.006747591384167692
- 0.1574561098983652
- 0.007117182899539265
- -0.24900955944484593
- 0.2396786131342342
- 0.0
- 0.0
effort:
- -0.36529064178466797
- -13.222627639770508
- 3.075702667236328
- 21.458906173706055
- 2.692584753036499
- 0.9239657521247864
- 0.384407639503479
- 0.0
- 0.0
---
header:
  stamp:
    sec: 1756277397
    nanosec: 731459643
  frame_id: ''
name:
- fr3_joint1
- fr3_joint2
- fr3_joint3
- fr3_joint4
- fr3_joint5
- fr3_joint6
- fr3_joint7
- fr3_finger_joint1
- fr3_finger_joint2
position:
- 1.7017941271253072
- -0.46327459158809614
- -0.29003831721340356
- -1.956861595039451
- -0.7130111414938702
- 3.2383908746394137
- -0.7131082178073959
- 0.0
- 0.0
velocity:
- -0.05165328306435692
- -0.045911596613913044
- 0.006425115060019952
- 0.15177888445839724
- 0.006812666447980172
- -0.25309825818646675
- 0.23103752099188637
- 0.0
- 0.0
effort:
- -0.28991222381591797
- -13.246431350708008
- 3.178852081298828
- 21.248640060424805
- 2.640399694442749
- 0.9642489552497864
- 0.370674729347229
- 0.0
- 0.0
---
header:
  stamp:
    sec: 1756277397
    nanosec: 764762199
  frame_id: ''
name:
- fr3_joint1
- fr3_joint2
- fr3_joint3
- fr3_joint4
- fr3_joint5
- fr3_joint6
- fr3_joint7
- fr3_finger_joint1
- fr3_finger_joint2
position:
- 1.7000760229120873
- -0.4647324421093512
- -0.28987216802589466
- -1.9518528343783978
- -0.712842147808249
- 3.2302273335196636
- -0.7058404095663717
- 0.0
- 0.0
velocity:
- -0.05054469063471049
- -0.040294602711630954
- 0.005029087102569967
- 0.1564068260009877
- 0.006121923738113753
- -0.23549440494502732
- 0.21297843501192845
- 0.0
- 0.0
effort:
- -0.23833751678466797
- -13.373384475708008
- 3.258197784423828
- 21.248640060424805
- 2.607440710067749
- 0.9303744435310364
- 0.329475998878479
- 0.0
- 0.0
---
header:
  stamp:
    sec: 1756277397
    nanosec: 798214476
  frame_id: ''
name:
- fr3_joint1
- fr3_joint2
- fr3_joint3
- fr3_joint4
- fr3_joint5
- fr3_joint6
- fr3_joint7
- fr3_finger_joint1
- fr3_finger_joint2
position:
- 1.6983122656648388
- -0.46629906118627534
- -0.289607560574973
- -1.9464182809433468
- -0.7126117763595268
- 3.221922854119738
- -0.6984143139596521
- 0.0
- 0.0
velocity:
- -0.05572966698525201
- -0.052376777212638684
- 0.010048731058325815
- 0.157200754673259
- 0.007596867938109331
- -0.25940780089717713
- 0.2363098458966602
- 0.0
- 0.0
effort:
- -0.26214122772216797
- -12.865571975708008
- 3.103473663330078
- 20.986799240112305
- 2.633075475692749
- 0.8708651661872864
- 0.302925705909729
- 0.0
- 0.0
---
header:
  stamp:
    sec: 1756277397
    nanosec: 831510389
  frame_id: ''
name:
- fr3_joint1
- fr3_joint2
- fr3_joint3
- fr3_joint4
- fr3_joint5
- fr3_joint6
- fr3_joint7
- fr3_finger_joint1
- fr3_finger_joint2
position:
- 1.696604373786141
- -0.46793599386717094
- -0.28931598353924465
- -1.9411692119719242
- -0.7124655708906358
- 3.2137316418367963
- -0.6908619281630379
- 0.0
- 0.0
velocity:
- -0.054168223869005175
- -0.04866917220490816
- 0.008642740077432985
- 0.15923990411911748
- 0.005233468403982966
- -0.24542161753826403
- 0.21254651872516747
- 0.0
- 0.0
effort:
- -0.36529064178466797
- -12.889375686645508
- 3.103473663330078
- 21.538251876831055
- 2.646808385848999
- 0.9505160450935364
- 0.418282151222229
- 0.0
- 0.0
---
header:
  stamp:
    sec: 1756277397
    nanosec: 864931778
  frame_id: ''
name:
- fr3_joint1
- fr3_joint2
- fr3_joint3
- fr3_joint4
- fr3_joint5
- fr3_joint6
- fr3_joint7
- fr3_finger_joint1
- fr3_finger_joint2
position:
- 1.6945892692724152
- -0.46942666054084603
- -0.28897069744888965
- -1.9357217802503157
- -0.7122867188270533
- 3.205477512639843
- -0.68335793468553
- 0.0
- 0.0
velocity:
- -0.061261780802071585
- -0.04540865154381845
- 0.013622228661860228
- 0.1618127381596611
- 0.006846193368990351
- -0.2413740187736092
- 0.23004427957838763
- 0.0
- 0.0
effort:
- -0.543818473815918
- -12.714815139770508
- 2.920978546142578
- 21.038373947143555
- 2.601032018661499
- 0.7976229786872864
- 0.363350510597229
- 0.0
- 0.0
---
header:
  stamp:
    sec: 1756277397
    nanosec: 898226184
  frame_id: ''
name:
- fr3_joint1
- fr3_joint2
- fr3_joint3
- fr3_joint4
- fr3_joint5
- fr3_joint6
- fr3_joint7
- fr3_finger_joint1
- fr3_finger_joint2
position:
- 1.6925831478018232
- -0.4709745132838431
- -0.2886973878103925
- -1.9305340025109945
- -0.7121233454934482
- 3.1969157274415347
- -0.6752632394895092
- 0.0
- 0.0
velocity:
- -0.05708072354244912
- -0.04545368689089512
- 0.006534746832316044
- 0.15442490175677281
- 0.006228535640333321
- -0.24605698745491839
- 0.24642553386210397
- 0.0
- 0.0
effort:
- -0.41686534881591797
- -12.433137893676758
- 3.051898956298828
- 20.883649826049805
- 2.547931432723999
- 0.8974154591560364
- 0.363350510597229
- 0.0
- 0.0
---
header:
  stamp:
    sec: 1756277397
    nanosec: 931853736
  frame_id: ''
name:
- fr3_joint1
- fr3_joint2
- fr3_joint3
- fr3_joint4
- fr3_joint5
- fr3_joint6
- fr3_joint7
- fr3_finger_joint1
- fr3_finger_joint2
position:
- 1.6907365365617215
- -0.4722411640935813
- -0.2885679009141418
- -1.9257498919805576
- -0.7119933478256653
- 3.189651410506432
- -0.6686159922081222
- 0.0
- 0.0
velocity:
- -0.05935184784655854
- -0.03728496303624864
- 0.004638398652564992
- 0.15990361128792546
- 0.0036833473181362387
- -0.2344993849814066
- 0.19701103560485886
- 0.0
- 0.0
effort:
- -0.46844005584716797
- -12.687044143676758
- 3.127277374267578
- 21.145490646362305
- 2.593707799911499
- 0.9038241505622864
- 0.370674729347229
- 0.0
- 0.0
---
header:
  stamp:
    sec: 1756277397
    nanosec: 964728015
  frame_id: ''
name:
- fr3_joint1
- fr3_joint2
- fr3_joint3
- fr3_joint4
- fr3_joint5
- fr3_joint6
- fr3_joint7
- fr3_finger_joint1
- fr3_finger_joint2
position:
- 1.6887479695782899
- -0.4736915659046958
- -0.288465716542222
- -1.919957849556993
- -0.7117690645911412
- 3.180773709894043
- -0.6610491898242397
- 0.0
- 0.0
velocity:
- -0.05268264725252022
- -0.04680800998461139
- 0.001764488939500306
- 0.15895378742387206
- 0.0071482358471791005
- -0.26096719997875906
- 0.2274572114603101
- 0.0
- 0.0
effort:
- -0.13518810272216797
- -12.155427932739258
- 3.282001495361328
- 20.752729415893555
- 2.561664342880249
- 0.8443148732185364
- 0.329475998878479
- 0.0
- 0.0
---
header:
  stamp:
    sec: 1756277397
    nanosec: 998110480
  frame_id: ''
name:
- fr3_joint1
- fr3_joint2
- fr3_joint3
- fr3_joint4
- fr3_joint5
- fr3_joint6
- fr3_joint7
- fr3_finger_joint1
- fr3_finger_joint2
position:
- 1.6871215114010085
- -0.4752260378536218
- -0.28840107303388185
- -1.9147142078468962
- -0.711588971994194
- 3.1723663776669517
- -0.6532640179029227
- 0.0
- 0.0
velocity:
- -0.048813584761460756
- -0.045364787768204545
- 0.0035473697229587227
- 0.15289748080467003
- 0.0027918977752932404
- -0.23727588701917063
- 0.23297419982358555
- 0.0
- 0.0
effort:
- -0.13518810272216797
- -12.381563186645508
- 3.361347198486328
- 21.224836349487305
- 2.613849401473999
- 0.8974154591560364
- 0.398140549659729
- 0.0
- 0.0
---
header:
  stamp:
    sec: 1756277398
    nanosec: 31498845
  frame_id: ''
name:
- fr3_joint1
- fr3_joint2
- fr3_joint3
- fr3_joint4
- fr3_joint5
- fr3_joint6
- fr3_joint7
- fr3_finger_joint1
- fr3_finger_joint2
position:
- 1.6855326973775482
- -0.4766039707081807
- -0.28826903863029707
- -1.909625976705259
- -0.7114495942888801
- 3.1642024380699074
- -0.6463095948561249
- 0.0
- 0.0
velocity:
- -0.050203835345287565
- -0.04199198064021781
- 0.006393760239023935
- 0.15698656944199244
- 0.007157507883923307
- -0.25649853996912614
- 0.21770379783400465
- 0.0
- 0.0
effort:
- -0.26214122772216797
- -12.484712600708008
- 3.309772491455078
- 21.093915939331055
- 2.555255651473999
- 0.8974154591560364
- 0.377083420753479
- 0.0
- 0.0
---
header:
  stamp:
    sec: 1756277398
    nanosec: 64937018
  frame_id: ''
name:
- fr3_joint1
- fr3_joint2
- fr3_joint3
- fr3_joint4
- fr3_joint5
- fr3_joint6
- fr3_joint7
- fr3_finger_joint1
- fr3_finger_joint2
position:
- 1.6839731909403635
- -0.47822448224695585
- -0.28810154372012126
- -1.9044548141358941
- -0.7112787984289327
- 3.1556912781297166
- -0.6380797996534501
- 0.0
- 0.0
velocity:
- -0.04571009153253402
- -0.04903773885406864
- 0.005423168295600028
- 0.14886156624901387
- 0.004733978574559952
- -0.24503824402506624
- 0.24481271537698623
- 0.0
- 0.0
effort:
- -0.28991222381591797
- -12.306184768676758
- 3.361347198486328
- 21.014570236206055
- 2.555255651473999
- 0.9505160450935364
- 0.404549241065979
- 0.0
- 0.0
---
header:
  stamp:
    sec: 1756277398
    nanosec: 98672030
  frame_id: ''
name:
- fr3_joint1
- fr3_joint2
- fr3_joint3
- fr3_joint4
- fr3_joint5
- fr3_joint6
- fr3_joint7
- fr3_finger_joint1
- fr3_finger_joint2
position:
- 1.6823107462020201
- -0.479789854162433
- -0.2878520890652329
- -1.8994226398389864
- -0.711174204124502
- 3.147794857816823
- -0.6305191554657513
- 0.0
- 0.0
velocity:
- -0.05316560828184398
- -0.04694305485617362
- 0.009443703515842623
- 0.1573727767159023
- 0.002421473409573071
- -0.23715242942110348
- 0.21374650668761672
- 0.0
- 0.0
effort:
- -0.46844005584716797
- -12.306184768676758
- 3.155048370361328
- 20.907453536987305
- 2.547931432723999
- 0.8836825489997864
- 0.356941819190979
- 0.0
- 0.0
---
header:
  stamp:
    sec: 1756277398
    nanosec: 131644495
  frame_id: ''
name:
- fr3_joint1
- fr3_joint2
- fr3_joint3
- fr3_joint4
- fr3_joint5
- fr3_joint6
- fr3_joint7
- fr3_finger_joint1
- fr3_finger_joint2
position:
- 1.680420454052613
- -0.4813606537719123
- -0.28748630514915574
- -1.8940774698725107
- -0.7109960540012704
- 3.1395403811419427
- -0.6235682697334393
- 0.0
- 0.0
velocity:
- -0.05675084924680142
- -0.05137888382245454
- 0.009975997800470628
- 0.16160533919282605
- 0.006448676953506833
- -0.25060149609747545
- 0.21602345942860013
- 0.0
- 0.0
effort:
- -0.31371593475341797
- -11.849946975708008
- 3.206623077392578
- 20.252851486206055
- 2.476520299911499
- 0.8836825489997864
- 0.336800217628479
- 0.0
- 0.0
---
header:
  stamp:
    sec: 1756277398
    nanosec: 165066295
  frame_id: ''
name:
- fr3_joint1
- fr3_joint2
- fr3_joint3
- fr3_joint4
- fr3_joint5
- fr3_joint6
- fr3_joint7
- fr3_finger_joint1
- fr3_finger_joint2
position:
- 1.6785276912748932
- -0.48308302349234866
- -0.2871943847408575
- -1.8886688166889252
- -0.7108499452809972
- 3.1312030821866808
- -0.6154460901167726
- 0.0
- 0.0
velocity:
- -0.055314714567077955
- -0.047874105054506025
- 0.005676494889294856
- 0.15972057123379638
- 0.0026602580999794535
- -0.2416215030299413
- 0.24070271423523137
- 0.0
- 0.0
effort:
- -0.44066905975341797
- -11.849946975708008
- 3.282001495361328
- 21.169294357299805
- 2.574481725692749
- 0.9175570607185364
- 0.269051194190979
- 0.0
- 0.0
---
header:
  stamp:
    sec: 1756277398
    nanosec: 198693049
  frame_id: ''
name:
- fr3_joint1
- fr3_joint2
- fr3_joint3
- fr3_joint4
- fr3_joint5
- fr3_joint6
- fr3_joint7
- fr3_finger_joint1
- fr3_finger_joint2
position:
- 1.676626213615407
- -0.484505863274898
- -0.28693036696632535
- -1.8832130981292725
- -0.7107179199006379
- 3.1227663617866606
- -0.6081030142453567
- 0.0
- 0.0
velocity:
- -0.05650722808883863
- -0.043555992088038314
- 0.008806848628914727
- 0.16341320173592064
- 0.00709998549191986
- -0.26961321591377807
- 0.22062198664144417
- 0.0
- 0.0
effort:
- -0.41686534881591797
- -11.643648147583008
- 3.155048370361328
- 20.621809005737305
- 2.508563756942749
- 0.9175570607185364
- 0.343208909034729
- 0.0
- 0.0
---
header:
  stamp:
    sec: 1756277398
    nanosec: 231942049
  frame_id: ''
name:
- fr3_joint1
- fr3_joint2
- fr3_joint3
- fr3_joint4
- fr3_joint5
- fr3_joint6
- fr3_joint7
- fr3_finger_joint1
- fr3_finger_joint2
position:
- 1.6748686692750814
- -0.48598111545217854
- -0.2867160941166006
- -1.8781608847108129
- -0.7105062821819742
- 3.1147602573234003
- -0.6005396142730132
- 0.0
- 0.0
velocity:
- -0.053478878159895674
- -0.04393638518845163
- 0.007232836738900734
- 0.1512345539717497
- 0.004403465629950727
- -0.23282659346441417
- 0.24057196183527968
- 0.0
- 0.0
effort:
- -0.44066905975341797
- -11.671419143676758
- 3.282001495361328
- 20.463117599487305
- 2.495746374130249
- 0.9102328419685364
- 0.404549241065979
- 0.0
- 0.0
---
header:
  stamp:
    sec: 1756277398
    nanosec: 264938958
  frame_id: ''
name:
- fr3_joint1
- fr3_joint2
- fr3_joint3
- fr3_joint4
- fr3_joint5
- fr3_joint6
- fr3_joint7
- fr3_finger_joint1
- fr3_finger_joint2
position:
- 1.6730102205081079
- -0.48737815472658713
- -0.286520613071383
- -1.8729993902102189
- -0.7103277958699089
- 3.106699580560088
- -0.5926025799042928
- 0.0
- 0.0
velocity:
- -0.052657034745537276
- -0.039142567646784344
- 0.006105144290197953
- 0.16173974503704108
- 0.004626501806247685
- -0.247029547280252
- 0.20511561611651005
- 0.0
- 0.0
effort:
- -0.34148693084716797
- -11.746797561645508
- 3.333576202392578
- 20.621809005737305
- 2.495746374130249
- 0.8708651661872864
- 0.363350510597229
- 0.0
- 0.0
---
header:
  stamp:
    sec: 1756277398
    nanosec: 298701942
  frame_id: ''
name:
- fr3_joint1
- fr3_joint2
- fr3_joint3
- fr3_joint4
- fr3_joint5
- fr3_joint6
- fr3_joint7
- fr3_finger_joint1
- fr3_finger_joint2
position:
- 1.6712256208491534
- -0.48881677124454503
- -0.28628814716497325
- -1.8675983058084409
- -0.7100902467625589
- 3.098020957232874
- -0.5859551070718666
- 0.0
- 0.0
velocity:
- -0.05203400086405827
- -0.04983767551911018
- 0.006638902870864224
- 0.1534123945984134
- 0.006750111371806138
- -0.2554440945667125
- 0.21211244305078653
- 0.0
- 0.0
effort:
- -0.31371593475341797
- -11.314363479614258
- 3.309772491455078
- 20.304426193237305
- 2.476520299911499
- 0.9770663380622864
- 0.363350510597229
- 0.0
- 0.0
---
header:
  stamp:
    sec: 1756277398
    nanosec: 331614632
  frame_id: ''
name:
- fr3_joint1
- fr3_joint2
- fr3_joint3
- fr3_joint4
- fr3_joint5
- fr3_joint6
- fr3_joint7
- fr3_finger_joint1
- fr3_finger_joint2
position:
- 1.6694456608281951
- -0.4903465339444932
- -0.28604669081601297
- -1.8625537791459508
- -0.7099690140365125
- 3.090046843952118
- -0.5785222128378861
- 0.0
- 0.0
velocity:
- -0.05624977065780031
- -0.04680365626524723
- 0.006369880161367659
- 0.1512114513794366
- -0.00026533336628884667
- -0.24991313804627419
- 0.23994258875249017
- 0.0
- 0.0
effort:
- -0.39306163787841797
- -11.596040725708008
- 3.333576202392578
- 20.907453536987305
- 2.495746374130249
- 0.9770663380622864
- 0.350533127784729
- 0.0
- 0.0
---
header:
  stamp:
    sec: 1756277398
    nanosec: 364911941
  frame_id: ''
name:
- fr3_joint1
- fr3_joint2
- fr3_joint3
- fr3_joint4
- fr3_joint5
- fr3_joint6
- fr3_joint7
- fr3_finger_joint1
- fr3_finger_joint2
position:
- 1.6673212443299013
- -0.49187174978388454
- -0.2857059967925971
- -1.8572200145733437
- -0.7098189291498693
- 3.0813957009574326
- -0.5707975088631606
- 0.0
- 0.0
velocity:
- -0.0601227152052832
- -0.044329463620147586
- 0.008024165191542965
- 0.15941769847464046
- 0.006186906356721708
- -0.24779667295355248
- 0.21210998790227203
- 0.0
- 0.0
effort:
- -0.39306163787841797
- -11.770601272583008
- 3.206623077392578
- 20.566267013549805
- 2.449970006942749
- 0.9770663380622864
- 0.350533127784729
- 0.0
- 0.0
---
header:
  stamp:
    sec: 1756277398
    nanosec: 398228731
  frame_id: ''
name:
- fr3_joint1
- fr3_joint2
- fr3_joint3
- fr3_joint4
- fr3_joint5
- fr3_joint6
- fr3_joint7
- fr3_finger_joint1
- fr3_finger_joint2
position:
- 1.6652542959155137
- -0.4934872443311568
- -0.28544201699394617
- -1.8521275331115707
- -0.7096722104892559
- 3.073364371020142
- -0.5631808338377954
- 0.0
- 0.0
velocity:
- -0.06291025237218718
- -0.04626599190176277
- 0.0063650025766365075
- 0.15243715697431534
- 0.004386515324735823
- -0.23220205844995692
- 0.24691043492435943
- 0.0
- 0.0
effort:
- -0.31371593475341797
- -11.187410354614258
- 3.282001495361328
- 20.542463302612305
- 2.456378698348999
- 0.9441073536872864
- 0.343208909034729
- 0.0
- 0.0
---
header:
  stamp:
    sec: 1756277398
    nanosec: 431468609
  frame_id: ''
name:
- fr3_joint1
- fr3_joint2
- fr3_joint3
- fr3_joint4
- fr3_joint5
- fr3_joint6
- fr3_joint7
- fr3_finger_joint1
- fr3_finger_joint2
position:
- 1.66332000389967
- -0.4949723196956632
- -0.2852674695243672
- -1.847072506291731
- -0.7095243249856397
- 3.0654461642294635
- -0.5553537689928004
- 0.0
- 0.0
velocity:
- -0.05510151349262589
- -0.04324566414179642
- 0.004737672435793401
- 0.1620910163844332
- 0.003709450148552863
- -0.2543102035014651
- 0.22681897034696108
- 0.0
- 0.0
effort:
- -0.26214122772216797
- -11.163606643676758
- 3.412921905517578
- 20.252851486206055
- 2.410602331161499
- 0.8836825489997864
- 0.329475998878479
- 0.0
- 0.0
---
header:
  stamp:
    sec: 1756277398
    nanosec: 464805255
  frame_id: ''
name:
- fr3_joint1
- fr3_joint2
- fr3_joint3
- fr3_joint4
- fr3_joint5
- fr3_joint6
- fr3_joint7
- fr3_finger_joint1
- fr3_finger_joint2
position:
- 1.6616413089450648
- -0.4965532494186608
- -0.2852089374770075
- -1.8414610342634754
- -0.7093118987675865
- 3.0568664397976777
- -0.5481335109292278
- 0.0
- 0.0
velocity:
- -0.04755134643756545
- -0.04953587829893858
- 0.000738435302384752
- 0.16022799847004962
- 0.009294269348379045
- -0.24608728558032714
- 0.20755848334512628
- 0.0
- 0.0
effort:
- -0.23833751678466797
- -10.703401565551758
- 3.543842315673828
- 19.756940841674805
- 2.371234655380249
- 0.9239657521247864
- 0.438423752784729
- 0.0
- 0.0
---
header:
  stamp:
    sec: 1756277398
    nanosec: 498643932
  frame_id: ''
name:
- fr3_joint1
- fr3_joint2
- fr3_joint3
- fr3_joint4
- fr3_joint5
- fr3_joint6
- fr3_joint7
- fr3_finger_joint1
- fr3_finger_joint2
position:
- 1.6600509251929427
- -0.49812943349897204
- -0.28507546347926327
- -1.8361319957445197
- -0.7091481606334784
- 3.048770916120843
- -0.540673685202357
- 0.0
- 0.0
velocity:
- -0.047860973582976946
- -0.04429585196003504
- 0.004651816300465358
- 0.15798433265854853
- 0.004685615501370823
- -0.24040169936648376
- 0.23830121026810921
- 0.0
- 0.0
effort:
- -0.23833751678466797
- -10.552644729614258
- 3.595417022705078
- 20.621809005737305
- 2.430743932723999
- 0.9038241505622864
- 0.418282151222229
- 0.0
- 0.0
---
header:
  stamp:
    sec: 1756277398
    nanosec: 535181376
  frame_id: ''
name:
- fr3_joint1
- fr3_joint2
- fr3_joint3
- fr3_joint4
- fr3_joint5
- fr3_joint6
- fr3_joint7
- fr3_finger_joint1
- fr3_finger_joint2
position:
- 1.6585299536514941
- -0.4994685819231422
- -0.2848885307302657
- -1.8308477659319968
- -0.7089917140247303
- 3.0402996053537445
- -0.5331093631888274
- 0.0
- 0.0
velocity:
- -0.04514783166963267
- -0.04129403690007709
- 0.004865381419904196
- 0.1606378085496562
- 0.004966705214102237
- -0.2528579281368556
- 0.21166984558045648
- 0.0
- 0.0
effort:
- -0.21453380584716797
- -10.679597854614258
- 3.516071319580078
- 20.201276779174805
- 2.404193639755249
- 1.0036166906356812
- 0.336800217628479
- 0.0
- 0.0
---
header:
  stamp:
    sec: 1756277398
    nanosec: 564984267
  frame_id: ''
name:
- fr3_joint1
- fr3_joint2
- fr3_joint3
- fr3_joint4
- fr3_joint5
- fr3_joint6
- fr3_joint7
- fr3_finger_joint1
- fr3_finger_joint2
position:
- 1.6569608513699234
- -0.5009339282724105
- -0.28467268235086357
- -1.8256837536612514
- -0.7087884638585619
- 3.0323771563335664
- -0.525592977132128
- 0.0
- 0.0
velocity:
- -0.04725100965748768
- -0.041455654578622304
- 0.007356600554554433
- 0.14774785641758678
- 0.0050946993597667896
- -0.23380033237882486
- 0.23090479178211787
- 0.0
- 0.0
effort:
- -0.39306163787841797
- -10.679597854614258
- 3.492267608642578
- 19.887861251831055
- 2.331866979598999
- 0.8974154591560364
- 0.356941819190979
- 0.0
- 0.0
---
header:
  stamp:
    sec: 1756277398
    nanosec: 598179040
  frame_id: ''
name:
- fr3_joint1
- fr3_joint2
- fr3_joint3
- fr3_joint4
- fr3_joint5
- fr3_joint6
- fr3_joint7
- fr3_finger_joint1
- fr3_finger_joint2
position:
- 1.6551360399991821
- -0.502337444877049
- -0.28432254987920674
- -1.820598973449798
- -0.708647555429378
- 3.0240165322474057
- -0.5175004346507521
- 0.0
- 0.0
velocity:
- -0.0590018179989053
- -0.04071924262346838
- 0.010958037055156761
- 0.1591256381037167
- 0.0039011665833518965
- -0.2617612475190098
- 0.24552439710024937
- 0.0
- 0.0
effort:
- -0.520014762878418
- -10.651826858520508
- 3.282001495361328
- 20.018781661987305
- 2.377643346786499
- 0.8910067677497864
- 0.316658616065979
- 0.0
- 0.0
---
header:
  stamp:
    sec: 1756277398
    nanosec: 631483978
  frame_id: ''
name:
- fr3_joint1
- fr3_joint2
- fr3_joint3
- fr3_joint4
- fr3_joint5
- fr3_joint6
- fr3_joint7
- fr3_finger_joint1
- fr3_finger_joint2
position:
- 1.6532992356575191
- -0.503783769834291
- -0.2840148961623775
- -1.8153688599385782
- -0.7084656805096674
- 3.0158105833641162
- -0.5107114320176953
- 0.0
- 0.0
velocity:
- -0.05479339802688962
- -0.047992177335306405
- 0.008065424440118062
- 0.153300473580986
- 0.007154575051802061
- -0.23218531224696812
- 0.19869848522375677
- 0.0
- 0.0
effort:
- -0.44066905975341797
- -10.425691604614258
- 3.385150909423828
- 19.808515548706055
- 2.331866979598999
- 0.8974154591560364
- 0.343208909034729
- 0.0
- 0.0
---
header:
  stamp:
    sec: 1756277398
    nanosec: 664756119
  frame_id: ''
name:
- fr3_joint1
- fr3_joint2
- fr3_joint3
- fr3_joint4
- fr3_joint5
- fr3_joint6
- fr3_joint7
- fr3_finger_joint1
- fr3_finger_joint2
position:
- 1.6513337328599376
- -0.5055041643156535
- -0.2837301178915511
- -1.8101245653711728
- -0.7083281803570832
- 3.0072959024651045
- -0.5032838697423857
- 0.0
- 0.0
velocity:
- -0.05650271289950994
- -0.05093149992635427
- 0.009598664625898244
- 0.15169673410450632
- 0.005871965710080922
- -0.2565009484502659
- 0.230629959924912
- 0.0
- 0.0
effort:
- -0.46844005584716797
- -10.397920608520508
- 3.361347198486328
- 20.332197189331055
- 2.364825963973999
- 0.9770663380622864
- 0.363350510597229
- 0.0
- 0.0
---
header:
  stamp:
    sec: 1756277398
    nanosec: 698978421
  frame_id: ''
name:
- fr3_joint1
- fr3_joint2
- fr3_joint3
- fr3_joint4
- fr3_joint5
- fr3_joint6
- fr3_joint7
- fr3_finger_joint1
- fr3_finger_joint2
position:
- 1.649615236656791
- -0.5069341606134847
- -0.2835284029956722
- -1.805416479464715
- -0.7082170090196223
- 2.9997521278437116
- -0.49604455672742137
- 0.0
- 0.0
velocity:
- -0.05461474553127636
- -0.04760991454521816
- 0.004308110766910824
- 0.16125843819357627
- 0.002830782469060869
- -0.24647998546391975
- 0.23633916730463553
- 0.0
- 0.0
effort:
- -0.26214122772216797
- -10.374116897583008
- 3.543842315673828
- 19.967206954956055
- 2.319049596786499
- 0.9907992482185364
- 0.350533127784729
- 0.0
- 0.0
---
header:
  stamp:
    sec: 1756277398
    nanosec: 731554265
  frame_id: ''
name:
- fr3_joint1
- fr3_joint2
- fr3_joint3
- fr3_joint4
- fr3_joint5
- fr3_joint6
- fr3_joint7
- fr3_finger_joint1
- fr3_finger_joint2
position:
- 1.6477903679925845
- -0.5087238729571728
- -0.28337811532249474
- -1.7998419828695924
- -0.7080012960847092
- 2.991305124060774
- -0.4881751474042385
- 0.0
- 0.0
velocity:
- -0.05201976683957523
- -0.0486547327612887
- 0.0044356438924808604
- 0.1540814913555724
- 0.003944697479848014
- -0.24016573823129198
- 0.2244730464076005
- 0.0
- 0.0
effort:
- -0.28991222381591797
- -9.913911819458008
- 3.492267608642578
- 19.967206954956055
- 2.325458288192749
- 0.9569247364997864
- 0.343208909034729
- 0.0
- 0.0
---
header:
  stamp:
    sec: 1756277398
    nanosec: 764745684
  frame_id: ''
name:
- fr3_joint1
- fr3_joint2
- fr3_joint3
- fr3_joint4
- fr3_joint5
- fr3_joint6
- fr3_joint7
- fr3_finger_joint1
- fr3_finger_joint2
position:
- 1.6459941410017167
- -0.5102888108319265
- -0.2831306885681319
