header:
  stamp:
    sec: 1756282218
    nanosec: 852751912
  frame_id: ''
name:
- fr3_joint1
- fr3_joint2
- fr3_joint3
- fr3_joint4
- fr3_joint5
- fr3_joint6
- fr3_joint7
- fr3_finger_joint1
- fr3_finger_joint2
position:
- 0.20178490649311573
- -0.19070385014248295
- -0.18840453624282819
- -2.093547765095057
- -0.037284964717700396
- 1.9053977513259728
- 0.029775189046073326
- 0.0
- 0.0
velocity:
- -0.0014326580134592323
- 0.0014102935953161787
- -3.7093834086769154e-05
- -0.0001387383219262632
- -4.939529545846188e-05
- -0.0005775495960617918
- -0.0011473401541366478
- 0.0
- 0.0
effort:
- 0.22186756134033203
- -24.513521194458008
- 0.8500557541847229
- 23.006147384643555
- 0.5511662364006042
- 2.3366243839263916
- 0.0722128301858902
- 0.0
- 0.0
---
header:
  stamp:
    sec: 1756282218
    nanosec: 886560093
  frame_id: ''
name:
- fr3_joint1
- fr3_joint2
- fr3_joint3
- fr3_joint4
- fr3_joint5
- fr3_joint6
- fr3_joint7
- fr3_finger_joint1
- fr3_finger_joint2
position:
- 0.20178550417482838
- -0.1907079460055106
- -0.1884133402782224
- -2.093543426299878
- -0.03728891732837638
- 1.9053969937078856
- 0.029777812654480297
- 0.0
- 0.0
velocity:
- 0.00012412390165588723
- 0.00022285126348492847
- 0.0003452970586507937
- -0.00013786624213473994
- -8.78169936395077e-05
- 0.0007985204349875146
- -0.0014934081496666585
- 0.0
- 0.0
effort:
- 0.22186756134033203
- -24.489717483520508
- 0.9294014573097229
- 22.978376388549805
- 0.5575749278068542
- 2.3430330753326416
- 0.0859457403421402
- 0.0
- 0.0
---
header:
  stamp:
    sec: 1756282218
    nanosec: 919560110
  frame_id: ''
name:
- fr3_joint1
- fr3_joint2
- fr3_joint3
- fr3_joint4
- fr3_joint5
- fr3_joint6
- fr3_joint7
- fr3_finger_joint1
- fr3_finger_joint2
position:
- 0.2017888491936269
- -0.19071172488155524
- -0.18840674736292765
- -2.0935455439071067
- -0.037288162635096364
- 1.9053993791745596
- 0.029782588693901994
- 0.0
- 0.0
velocity:
- 0.0002729744074327147
- -0.0015430347063569295
- 0.00023142480014937524
- -0.0014150268546381387
- 0.00042710050019371785
- 0.0007829623189046639
- -0.0005351950158693342
- 0.0
- 0.0
effort:
- 0.14252185821533203
- -24.438142776489258
- 0.8778267502784729
- 23.006147384643555
- 0.5511662364006042
- 2.3228914737701416
- 0.0456625372171402
- 0.0
- 0.0
---
header:
  stamp:
    sec: 1756282218
    nanosec: 952846208
  frame_id: ''
name:
- fr3_joint1
- fr3_joint2
- fr3_joint3
- fr3_joint4
- fr3_joint5
- fr3_joint6
- fr3_joint7
- fr3_finger_joint1
- fr3_finger_joint2
position:
- 0.20178337123500426
- -0.1907099861605641
- -0.18841957404114662
- -2.093547326602677
- -0.03728719827186646
- 1.9053969879176198
- 0.02978247417969682
- 0.0
- 0.0
velocity:
- -0.000782481498805492
- -0.001171161383080367
- -0.00031877645447169205
- -0.0006693363343189199
- 0.0016359496807035693
- -4.265529288509308e-05
- 0.0013505216769495764
- 0.0
- 0.0
effort:
- 0.22186756134033203
- -24.461946487426758
- 1.0087471008300781
- 23.029951095581055
- 0.5703923106193542
- 2.3430330753326416
- 0.0456625372171402
- 0.0
- 0.0
---
header:
  stamp:
    sec: 1756282218
    nanosec: 986504692
  frame_id: ''
name:
- fr3_joint1
- fr3_joint2
- fr3_joint3
- fr3_joint4
- fr3_joint5
- fr3_joint6
- fr3_joint7
- fr3_finger_joint1
- fr3_finger_joint2
position:
- 0.2017862186851535
- -0.19070973741758834
- -0.18841161273754053
- -2.0935416316887316
- -0.03728800333760657
- 1.9054004856241031
- 0.029775433736649332
- 0.0
- 0.0
velocity:
- 0.0006905080800392064
- 0.0006486672153322533
- 0.0008927291432518803
- 0.0007130962106716499
- 0.0010646387952476886
- 0.0009298793540826052
- -0.002018962214168824
- 0.0
- 0.0
effort:
- 0.17029285430908203
- -24.461946487426758
- 0.9016304612159729
- 22.950605392456055
- 0.5511662364006042
- 2.3164827823638916
- 0.0658041387796402
- 0.0
- 0.0
---
header:
  stamp:
    sec: 1756282219
    nanosec: 19494291
  frame_id: ''
name:
- fr3_joint1
- fr3_joint2
- fr3_joint3
- fr3_joint4
- fr3_joint5
- fr3_joint6
- fr3_joint7
- fr3_finger_joint1
- fr3_finger_joint2
position:
- 0.20179111108697295
- -0.19071243390037274
- -0.18840456358720742
- -2.0935434637750476
- -0.03728835409772287
- 1.9053993747933053
- 0.02977514009338201
- 0.0
- 0.0
velocity:
- -0.0003356430173805863
- -0.0014186540566983833
- -0.0019988971691378885
- 0.00012646147419263993
- -0.001746606043951983
- -5.189239470411661e-06
- -0.002974958611307101
- 0.0
- 0.0
effort:
- 0.17029285430908203
- -24.438142776489258
- 0.8500557541847229
- 22.978376388549805
- 0.5511662364006042
- 2.3228914737701416
- 0.0996786504983902
- 0.0
- 0.0
---
header:
  stamp:
    sec: 1756282219
    nanosec: 52803867
  frame_id: ''
name:
- fr3_joint1
- fr3_joint2
- fr3_joint3
- fr3_joint4
- fr3_joint5
- fr3_joint6
- fr3_joint7
- fr3_finger_joint1
- fr3_finger_joint2
position:
- 0.2017869031041886
- -0.1907080136076234
- -0.18840455380388868
- -2.093542788882963
- -0.03728812167324165
- 1.9053980533639632
- 0.02977624172413285
- 0.0
- 0.0
velocity:
- -0.000614202018083752
- 0.0003981212548745934
- -0.0008470307751905876
- 0.0008244476016243962
- 0.001163959566166463
- 0.00030666629246543613
- -0.0007383683235176986
- 0.0
- 0.0
effort:
- 0.19409656524658203
- -24.489717483520508
- 0.8500557541847229
- 23.006147384643555
- 0.5511662364006042
- 2.3430330753326416
- 0.0722128301858902
- 0.0
- 0.0
---
header:
  stamp:
    sec: 1756282219
    nanosec: 86409056
  frame_id: ''
name:
- fr3_joint1
- fr3_joint2
- fr3_joint3
- fr3_joint4
- fr3_joint5
- fr3_joint6
- fr3_joint7
- fr3_finger_joint1
- fr3_finger_joint2
position:
- 0.20178253525002687
- -0.19070777758956745
- -0.1884125845312418
- -2.0935456147172413
- -0.037285059538874205
- 1.9053977513259834
- 0.029776695386897433
- 0.0
- 0.0
velocity:
- -0.0015537225702688198
- 0.00041269037711890355
- -0.0007426974188804025
- 0.0003603887504359535
- 0.00027530589115661995
- -0.0003974822220693726
- 0.0005118532161936001
- 0.0
- 0.0
effort:
- 0.22186756134033203
- -24.489717483520508
- 0.9571724534034729
- 23.006147384643555
- 0.5639836192131042
- 2.3366243839263916
- 0.0584799200296402
- 0.0
- 0.0
---
header:
  stamp:
    sec: 1756282219
    nanosec: 119595256
  frame_id: ''
name:
- fr3_joint1
- fr3_joint2
- fr3_joint3
- fr3_joint4
- fr3_joint5
- fr3_joint6
- fr3_joint7
- fr3_finger_joint1
- fr3_finger_joint2
position:
- 0.20178390799667525
- -0.19070551135793531
- -0.18841684836771305
- -2.0935433886834676
- -0.037287855776696466
- 1.9053969937139412
- 0.029777470760081852
- 0.0
- 0.0
velocity:
- 0.0014729478230128875
- 0.0021187495426607554
- 0.001433648213092627
- 0.00032052090357245614
- -0.0008413668089426304
- -1.8326239616823928e-05
- -0.0015931193453358416
- 0.0
- 0.0
effort:
- 0.24567127227783203
- -24.513521194458008
- 0.9809761643409729
- 22.978376388549805
- 0.5575749278068542
- 2.3430330753326416
- 0.0859457403421402
- 0.0
- 0.0
---
header:
  stamp:
    sec: 1756282219
    nanosec: 153126193
  frame_id: ''
name:
- fr3_joint1
- fr3_joint2
- fr3_joint3
- fr3_joint4
- fr3_joint5
- fr3_joint6
- fr3_joint7
- fr3_finger_joint1
- fr3_finger_joint2
position:
- 0.20178458876540173
- -0.1907117193941446
- -0.18840317902856954
- -2.093544189590803
- -0.03728887300338426
- 1.9053993747933051
- 0.029785069089631386
- 0.0
- 0.0
velocity:
- -0.0007842849768628065
- -0.0006374146002148156
- -5.2833477248884035e-05
- -0.0002889953511932172
- -0.0010252702702059644
- -0.0004132753873197371
- 0.0029458287091198893
- 0.0
- 0.0
effort:
- 0.22186756134033203
- -24.438142776489258
- 0.7984810471534729
- 22.978376388549805
- 0.5575749278068542
- 2.3228914737701416
- 0.024605408310890198
- 0.0
- 0.0
---
header:
  stamp:
    sec: 1756282219
    nanosec: 186108994
  frame_id: ''
name:
- fr3_joint1
- fr3_joint2
- fr3_joint3
- fr3_joint4
- fr3_joint5
- fr3_joint6
- fr3_joint7
- fr3_finger_joint1
- fr3_finger_joint2
position:
- 0.20179110301218708
- -0.19071156673716166
- -0.18840456261049235
- -2.0935434641966997
- -0.03728804467458316
- 1.9053977513259737
- 0.029782180556906995
- 0.0
- 0.0
velocity:
- 0.0006756990320674372
- 5.190920982299648e-05
- -0.0003865880698845118
- -0.0005354179865159567
- 0.00012038290661512722
- 0.00042655768820359593
- 0.0007655925645686331
- 0.0
- 0.0
effort:
- 0.14252185821533203
- -24.438142776489258
- 0.8500557541847229
- 22.978376388549805
- 0.5511662364006042
- 2.3366243839263916
- 0.0456625372171402
- 0.0
- 0.0
---
header:
  stamp:
    sec: 1756282219
    nanosec: 219563769
  frame_id: ''
name:
- fr3_joint1
- fr3_joint2
- fr3_joint3
- fr3_joint4
- fr3_joint5
- fr3_joint6
- fr3_joint7
- fr3_finger_joint1
- fr3_finger_joint2
position:
- 0.20178390506014274
- -0.1907100123842002
- -0.18840479885989408
- -2.093539213267743
- -0.037288159718310385
- 1.9053977519753194
- 0.029776445356034586
- 0.0
- 0.0
velocity:
- 4.961261830676341e-05
- -0.0021223467112670012
- -9.209053077461932e-05
- 0.0017377957140895925
- -0.0008655332923003958
- -0.0014260502731267347
- -0.0010907218372730276
- 0.0
- 0.0
effort:
- 0.24567127227783203
- -24.461946487426758
- 0.8500557541847229
- 22.950605392456055
- 0.5511662364006042
- 2.3366243839263916
- 0.0584799200296402
- 0.0
- 0.0
---
header:
  stamp:
    sec: 1756282219
    nanosec: 252719234
  frame_id: ''
name:
- fr3_joint1
- fr3_joint2
- fr3_joint3
- fr3_joint4
- fr3_joint5
- fr3_joint6
- fr3_joint7
- fr3_finger_joint1
- fr3_finger_joint2
position:
- 0.20178455360145234
- -0.1907093008203797
- -0.18841050479857194
- -2.093545000721801
- -0.03728963695549106
- 1.9053988109461226
- 0.02977730256820986
- 0.0
- 0.0
velocity:
- -0.0007001487836986499
- 0.0005877119656112322
- 0.0003566368227944336
- 0.0004265486259983504
- -0.0009149560721692031
- -6.99138984715797e-05
- -0.0009205222236069743
- 0.0
- 0.0
effort:
- 0.22186756134033203
- -24.461946487426758
- 0.9294014573097229
- 22.978376388549805
- 0.5639836192131042
- 2.3366243839263916
- 0.0859457403421402
- 0.0
- 0.0
---
header:
  stamp:
    sec: 1756282219
    nanosec: 286142630
  frame_id: ''
name:
- fr3_joint1
- fr3_joint2
- fr3_joint3
- fr3_joint4
- fr3_joint5
- fr3_joint6
- fr3_joint7
- fr3_finger_joint1
- fr3_finger_joint2
position:
- 0.20178269328705334
- -0.19070977517808788
- -0.18841345697830877
- -2.0935463543356816
- -0.03728886179944785
- 1.9053997280057196
- 0.029769427010897482
- 0.0
- 0.0
velocity:
- -0.0006958600676544695
- -0.0008256446128649397
- -4.4387234707529054e-05
- -0.0003434074654747716
- 0.0012667757873189925
- 0.00018751414729967886
- -0.0020405721501512764
- 0.0
- 0.0
effort:
- 0.22186756134033203
- -24.461946487426758
- 0.9294014573097229
- 22.978376388549805
- 0.5575749278068542
- 2.3228914737701416
- 0.1198202520608902
- 0.0
- 0.0
---
header:
  stamp:
    sec: 1756282219
    nanosec: 319497522
  frame_id: ''
name:
- fr3_joint1
- fr3_joint2
- fr3_joint3
- fr3_joint4
- fr3_joint5
- fr3_joint6
- fr3_joint7
- fr3_finger_joint1
- fr3_finger_joint2
position:
- 0.20178680197139465
- -0.19070706563378564
- -0.18840384289373968
- -2.0935448551889726
- -0.037290074502485566
- 1.905401687876395
- 0.029769387478532583
- 0.0
- 0.0
velocity:
- -0.0009485879196710107
- -8.898813233961298e-05
- 0.0005045779385344656
- 0.00019982849480151534
- -0.0016230282419120376
- 0.00026794788383568616
- -0.0024870583186427228
- 0.0
- 0.0
effort:
- 0.19409656524658203
- -24.489717483520508
- 0.8262520432472229
- 23.006147384643555
- 0.5703923106193542
- 2.3302156925201416
- 0.1198202520608902
- 0.0
- 0.0
---
header:
  stamp:
    sec: 1756282219
    nanosec: 353532955
  frame_id: ''
name:
- fr3_joint1
- fr3_joint2
- fr3_joint3
- fr3_joint4
- fr3_joint5
- fr3_joint6
- fr3_joint7
- fr3_finger_joint1
- fr3_finger_joint2
position:
- 0.20178347694877002
- -0.19070727647842606
- -0.1884006441291203
- -2.0935442046667956
- -0.03728890353337278
- 1.9053977513259739
- 0.02977305557663206
- 0.0
- 0.0
velocity:
- -0.001354023440495331
- 0.00016735777187387772
- 0.0015490083661553829
- -0.000141181455151031
- -0.0002810967545072466
- -0.00013275918904502853
- -0.003668712092269493
- 0.0
- 0.0
effort:
- 0.22186756134033203
- -24.489717483520508
- 0.8262520432472229
- 22.978376388549805
- 0.5575749278068542
- 2.3366243839263916
- 0.1262289434671402
- 0.0
- 0.0
---
header:
  stamp:
    sec: 1756282219
    nanosec: 386455680
  frame_id: ''
name:
- fr3_joint1
- fr3_joint2
- fr3_joint3
- fr3_joint4
- fr3_joint5
- fr3_joint6
- fr3_joint7
- fr3_finger_joint1
- fr3_finger_joint2
position:
- 0.20178534471863216
- -0.19070995995850373
- -0.1884086738649214
- -2.093543463936196
- -0.03728967488233829
- 1.9053973981847654
- 0.029783339787926848
- 0.0
- 0.0
velocity:
- 3.6524805802651375e-05
- -0.0011992797289135312
- -0.0008328539813457122
- -0.0004659680507410102
- 0.0013461500418276164
- -0.0009906271241945984
- 0.001369256987388701
- 0.0
- 0.0
effort:
- 0.22186756134033203
- -24.461946487426758
- 0.9016304612159729
- 22.978376388549805
- 0.5639836192131042
- 2.3366243839263916
- 0.0383383184671402
- 0.0
- 0.0
---
header:
  stamp:
    sec: 1756282219
    nanosec: 419544226
  frame_id: ''
name:
- fr3_joint1
- fr3_joint2
- fr3_joint3
- fr3_joint4
- fr3_joint5
- fr3_joint6
- fr3_joint7
- fr3_finger_joint1
- fr3_finger_joint2
position:
- 0.20178562006336961
- -0.19071395607613803
- -0.1884166068143805
- -2.093543361212657
- -0.037288918795175145
- 1.9053969937078867
- 0.029775398301230743
- 0.0
- 0.0
velocity:
- 0.00048746972199423656
- -0.002835664496999332
- -0.0023210962792536167
- 0.000466953830432885
- 0.00011656326730610244
- -0.0013743704195865705
- -0.001033763514568659
- 0.0
- 0.0
effort:
- 0.22186756134033203
- -24.410371780395508
- 0.9809761643409729
- 22.978376388549805
- 0.5575749278068542
- 2.3430330753326416
- 0.0795370489358902
- 0.0
- 0.0
---
header:
  stamp:
    sec: 1756282219
    nanosec: 452775263
  frame_id: ''
name:
- fr3_joint1
- fr3_joint2
- fr3_joint3
- fr3_joint4
- fr3_joint5
- fr3_joint6
- fr3_joint7
- fr3_finger_joint1
- fr3_finger_joint2
position:
- 0.20178514065404118
- -0.1907079885124946
- -0.18841121340735376
- -2.093543460097503
- -0.037287093743343006
- 1.905396784566767
- 0.029780297705480956
- 0.0
- 0.0
velocity:
- -0.000554843560440899
- -0.0003316065970591253
- -0.00024756795467788294
- -4.7475101407596786e-05
- -3.6059466789684286e-05
- -0.00039941437445994505
- 0.0013083607031170769
- 0.0
- 0.0
effort:
- 0.19409656524658203
- -24.489717483520508
- 0.9294014573097229
- 22.978376388549805
- 0.5511662364006042
- 2.3228914737701416
- 0.0520712286233902
- 0.0
- 0.0
---
header:
  stamp:
    sec: 1756282219
    nanosec: 486377132
  frame_id: ''
name:
- fr3_joint1
- fr3_joint2
- fr3_joint3
- fr3_joint4
- fr3_joint5
- fr3_joint6
- fr3_joint7
- fr3_finger_joint1
- fr3_finger_joint2
position:
- 0.2017845332064813
- -0.1907080147965141
- -0.18840456358339738
- -2.0935455714300506
- -0.0372866439201221
- 1.905402007805611
- 0.029785704051190014
- 0.0
- 0.0
velocity:
- -0.0018114508729156836
- -0.000789288027744191
- 0.001285009767838595
- -0.0004083405778403313
- 0.000675100030251451
- 0.0008593613341567019
- 0.0002678235353181167
- 0.0
- 0.0
effort:
- 0.19409656524658203
- -24.489717483520508
- 0.8500557541847229
- 23.006147384643555
- 0.5383488535881042
- 2.3366243839263916
- 0.018196716904640198
- 0.0
- 0.0
---
header:
  stamp:
    sec: 1756282219
    nanosec: 519696582
  frame_id: ''
name:
- fr3_joint1
- fr3_joint2
- fr3_joint3
- fr3_joint4
- fr3_joint5
- fr3_joint6
- fr3_joint7
- fr3_finger_joint1
- fr3_finger_joint2
position:
- 0.20178490811659378
- -0.19070587907170303
- -0.18840937281335196
- -2.093542778060503
- -0.03728861531335322
- 1.9053993857754634
- 0.029773067216120476
- 0.0
- 0.0
velocity:
- 0.0007448612799782317
- 0.0014362462016789446
- -0.0005360480784500491
- -0.00016671665382855471
- 0.0007889710182005551
- 0.0007769139327801016
- -0.0024569473781908572
- 0.0
- 0.0
effort:
- 0.22186756134033203
- -24.489717483520508
- 0.9016304612159729
- 22.978376388549805
- 0.5639836192131042
- 2.3228914737701416
- 0.1262289434671402
- 0.0
- 0.0
---
header:
  stamp:
    sec: 1756282219
    nanosec: 552778026
  frame_id: ''
name:
- fr3_joint1
- fr3_joint2
- fr3_joint3
- fr3_joint4
- fr3_joint5
- fr3_joint6
- fr3_joint7
- fr3_finger_joint1
- fr3_finger_joint2
position:
- 0.2017851933760357
- -0.19070998643759698
- -0.18840908334054315
- -2.0935434776245736
- -0.03728735977089458
- 1.9053979202562121
- 0.029777012276232355
- 0.0
- 0.0
velocity:
- 0.00024331622873846836
- -0.00017216710672119276
- -0.0003879687353278736
- 0.0002434992828505763
- 0.0013086666991861495
- -0.00024306717770787537
- -0.002403152854461027
- 0.0
- 0.0
effort:
- 0.19409656524658203
- -24.461946487426758
- 0.8778267502784729
- 23.006147384643555
- 0.5447575449943542
- 2.3302156925201416
- 0.0658041387796402
- 0.0
- 0.0
---
header:
  stamp:
    sec: 1756282219
    nanosec: 586489955
  frame_id: ''
name:
- fr3_joint1
- fr3_joint2
- fr3_joint3
- fr3_joint4
- fr3_joint5
- fr3_joint6
- fr3_joint7
- fr3_finger_joint1
- fr3_finger_joint2
position:
- 0.20178752710169096
- -0.19071001287683445
- -0.18841045202292572
- -2.093547326543619
- -0.037289657415823026
- 1.9053935127734567
- 0.029784215098049585
- 0.0
- 0.0
velocity:
- 0.0004337952848639577
- 2.6927211122840993e-05
- -0.00022589676952552122
- -0.0009547696213018824
- -0.0007611982615883824
- -0.0030377932836716404
- -0.0005042607328297978
- 0.0
- 0.0
effort:
- 0.19409656524658203
- -24.461946487426758
- 0.9294014573097229
- 23.029951095581055
- 0.5639836192131042
- 2.3366243839263916
- 0.0319296270608902
- 0.0
- 0.0
---
header:
  stamp:
    sec: 1756282219
    nanosec: 619450221
  frame_id: ''
name:
- fr3_joint1
- fr3_joint2
- fr3_joint3
- fr3_joint4
- fr3_joint5
- fr3_joint6
- fr3_joint7
- fr3_finger_joint1
- fr3_finger_joint2
position:
- 0.2017849081167432
- -0.19071000695522614
- -0.18841471335857937
- -2.0935436228675166
- -0.037289521497227966
- 1.9053985147044277
- 0.029777654013841737
- 0.0
- 0.0
velocity:
- -0.0006968674534455461
- -0.0002740583803341373
- -0.0002603947486430169
- 0.00032343790066032235
- -0.0009284263654978412
- 0.00014219068341022256
- -0.0015133910569526414
- 0.0
- 0.0
effort:
- 0.22186756134033203
- -24.461946487426758
- 0.9571724534034729
- 23.006147384643555
- 0.5639836192131042
- 2.3302156925201416
- 0.0859457403421402
- 0.0
- 0.0
---
header:
  stamp:
    sec: 1756282219
    nanosec: 968733251
  frame_id: ''
name:
- fr3_joint1
- fr3_joint2
- fr3_joint3
- fr3_joint4
- fr3_joint5
- fr3_joint6
- fr3_joint7
- fr3_finger_joint1
- fr3_finger_joint2
position:
- 0.20178753994668047
- -0.1907097751654355
- -0.18840467634240965
- -2.0935455441044577
- -0.037288866187060885
- 1.9053985089431758
- 0.029781075908321377
- 0.0
- 0.0
velocity:
- 0.0019276059631685824
- -0.0010218243174958518
- 0.0013560629694602366
- -0.0003440250271787955
- -0.00045879205426023245
- -0.0006471347252868681
- 0.002539186994228934
- 0.0
- 0.0
effort:
- 0.19409656524658203
- -24.461946487426758
- 0.8500557541847229
- 23.006147384643555
- 0.5575749278068542
- 2.3302156925201416
- 0.0584799200296402
- 0.0
- 0.0
---
header:
  stamp:
    sec: 1756282219
    nanosec: 986190553
  frame_id: ''
name:
- fr3_joint1
- fr3_joint2
- fr3_joint3
- fr3_joint4
- fr3_joint5
- fr3_joint6
- fr3_joint7
- fr3_finger_joint1
- fr3_finger_joint2
position:
- 0.2017884030287845
- -0.19070628970796222
- -0.1884056407398931
- -2.0935473256580766
- -0.03729041811969726
- 1.9053993747933025
- 0.02978345894204392
- 0.0
- 0.0
velocity:
- -0.0005035303235756176
- 0.00027605764117016017
- 0.0007727693796863883
- -0.0013582489324318028
- -0.002193350809827952
- 0.0004186336289054056
- -0.00022436745809872774
- 0.0
- 0.0
effort:
- 0.09491443634033203
- -24.513521194458008
- 0.8262520432472229
- 23.029951095581055
- 0.5703923106193542
- 2.3228914737701416
- 0.0383383184671402
- 0.0
- 0.0
---
header:
  stamp:
    sec: 1756282220
    nanosec: 19572107
  frame_id: ''
name:
- fr3_joint1
- fr3_joint2
- fr3_joint3
- fr3_joint4
- fr3_joint5
- fr3_joint6
- fr3_joint7
- fr3_finger_joint1
- fr3_finger_joint2
position:
- 0.20178035048039997
- -0.19070842584310488
- -0.1884063013280633
- -2.0935413979023463
- -0.03721005936682341
- 1.9053883871929074
- 0.029785012098628317
- 0.0
- 0.0
velocity:
- -0.0021083606626032384
- -0.0008344930417023412
- 0.0008530054252495184
- 0.000592572272205341
- 0.01026135137407665
- -0.0017600654086524935
- 0.0016575451959461543
- 0.0
- 0.0
effort:
- 0.24567127227783203
- -24.438142776489258
- 0.9571724534034729
- 22.978376388549805
- 0.8001896739006042
- 2.2963411808013916
- 0.011788025498390198
- 0.0
- 0.0
---
header:
  stamp:
    sec: 1756282220
    nanosec: 52717310
  frame_id: ''
name:
- fr3_joint1
- fr3_joint2
- fr3_joint3
- fr3_joint4
- fr3_joint5
- fr3_joint6
- fr3_joint7
- fr3_finger_joint1
- fr3_finger_joint2
position:
- 0.2017790491572084
- -0.19071388001850412
- -0.1883754901313384
- -2.0935259052117994
- -0.035741493760506705
- 1.9046648567887166
- 0.02974085800500574
- 0.0
- 0.0
velocity:
- -0.0022477734793639784
- -0.0014901560009531656
- 0.002847320614393899
- -0.0012609912158438057
- 0.053124800760357783
- -0.029165675893241982
- 0.00023533805076857844
- 0.0
- 0.0
effort:
- 0.47577381134033203
- -24.156465530395508
- 1.3181953430175781
- 22.744306564331055
- 0.8981510996818542
- 2.2835237979888916
- -0.0696939080953598
- 0.0
- 0.0
---
header:
  stamp:
    sec: 1756282220
    nanosec: 86099915
  frame_id: ''
name:
- fr3_joint1
- fr3_joint2
- fr3_joint3
- fr3_joint4
- fr3_joint5
- fr3_joint6
- fr3_joint7
- fr3_finger_joint1
- fr3_finger_joint2
position:
- 0.2018162754683306
- -0.19064872928773438
- -0.18803945533840072
- -2.0935362345228934
- -0.033458236433217055
- 1.9036133821548986
- 0.0290235852393265
- 0.0
- 0.0
velocity:
- 0.005072314651528055
- 0.003262787318098816
- 0.013968490139105607
- 0.0005244898888777344
- 0.08519490891569208
- -0.03172372268338609
- -0.03472310910604032
- 0.0
- 0.0
effort:
- 0.884404182434082
- -24.132661819458008
- 1.6038398742675781
- 22.795881271362305
- 1.1334415674209595
- 2.1965487003326416
- -0.0431436151266098
- 0.0
- 0.0
---
header:
  stamp:
    sec: 1756282220
    nanosec: 119491460
  frame_id: ''
name:
- fr3_joint1
- fr3_joint2
- fr3_joint3
- fr3_joint4
- fr3_joint5
- fr3_joint6
- fr3_joint7
- fr3_finger_joint1
- fr3_finger_joint2
position:
- 0.20219126272378016
- -0.19044530479561134
- -0.18748858262928964
- -2.0935376245706707
- -0.03016070669887992
- 1.9021475910627232
- 0.02749827198168073
- 0.0
- 0.0
velocity:
- 0.013668275133627061
- 0.00861729655626514
- 0.02117833974496128
- -0.0011078520958408605
- 0.1127799690767684
- -0.04733815699707997
- -0.05771938590874121
- 0.0
- 0.0
effort:
- 1.213688850402832
- -23.902559280395508
- 1.9370918273925781
- 22.768110275268555
- 1.2909122705459595
- 2.1562654972076416
- -0.0495523065328598
- 0.0
- 0.0
---
header:
  stamp:
    sec: 1756282220
    nanosec: 152768193
  frame_id: ''
name:
- fr3_joint1
- fr3_joint2
- fr3_joint3
- fr3_joint4
- fr3_joint5
- fr3_joint6
- fr3_joint7
- fr3_finger_joint1
- fr3_finger_joint2
position:
- 0.20295197006515067
- -0.19002776552111167
- -0.1866627088983647
- -2.0935402976229907
- -0.025340352111287916
- 1.9001397305277181
- 0.025150691783555133
- 0.0
- 0.0
velocity:
- 0.02930511551223899
- 0.015312917476876868
- 0.028537448100972335
- -0.0007325507628797163
- 0.1637269486552777
- -0.06450656574676282
- -0.07589901526593631
- 0.0
- 0.0
effort:
- 1.443791389465332
- -23.648653030395508
- 2.068012237548828
- 22.613386154174805
- 1.3238712549209595
- 2.1498568058013916
- -0.0696939080953598
- 0.0
- 0.0
---
header:
  stamp:
    sec: 1756282220
    nanosec: 186100593
  frame_id: ''
name:
- fr3_joint1
- fr3_joint2
- fr3_joint3
- fr3_joint4
- fr3_joint5
- fr3_joint6
- fr3_joint7
- fr3_finger_joint1
- fr3_finger_joint2
position:
- 0.20416182131415328
- -0.18938417087363224
- -0.1855522126033825
- -2.093548229062378
- -0.019287420440115433
- 1.8978052338477687
- 0.021924113687718197
- 0.0
- 0.0
velocity:
- 0.04413326032346078
- 0.023090397901233076
- 0.03769478036655919
- 0.0003323661077720575
- 0.19277726729174616
- -0.0779876821137559
- -0.11057425094917378
- 0.0
- 0.0
effort:
- 1.673893928527832
- -23.545503616333008
- 2.302082061767578
- 22.403120040893555
- 1.3174625635147095
- 2.1434481143951416
- -0.0770181268453598
- 0.0
- 0.0
---
header:
  stamp:
    sec: 1756282220
    nanosec: 219929431
  frame_id: ''
name:
- fr3_joint1
- fr3_joint2
- fr3_joint3
- fr3_joint4
- fr3_joint5
- fr3_joint6
- fr3_joint7
- fr3_finger_joint1
- fr3_finger_joint2
position:
- 0.20587871325739504
- -0.18844196825554174
- -0.18387929115494936
- -2.0936422534204926
- -0.011848175913303014
- 1.8948135447167842
- 0.01789735504853744
- 0.0
- 0.0
velocity:
- 0.053164649821472634
- 0.029885026310579522
- 0.05474160238991974
- -0.006889527071408261
- 0.22796010255489757
- -0.0878437638644209
- -0.11081910811573781
- 0.0
- 0.0
effort:
- 1.392216682434082
- -23.497896194458008
- 1.8617134094238281
- 22.375349044799805
- 1.2652775049209595
- 2.1104891300201416
- -0.0019448846578598022
- 0.0
- 0.0
---
header:
  stamp:
    sec: 1756282220
    nanosec: 252752240
  frame_id: ''
name:
- fr3_joint1
- fr3_joint2
- fr3_joint3
- fr3_joint4
- fr3_joint5
- fr3_joint6
- fr3_joint7
- fr3_finger_joint1
- fr3_finger_joint2
position:
- 0.20778452960652752
- -0.18735627657161721
- -0.1819256492693563
- -2.0938491459703243
- -0.0047078661500500885
- 1.891908000877265
- 0.014310686296132672
- 0.0
- 0.0
velocity:
- 0.05950337526418332
- 0.03415175225358739
- 0.0635816557157173
- -0.00760727880928954
- 0.21393803055220076
- -0.08757001673206141
- -0.11347348085779398
- 0.0
- 0.0
effort:
- 1.086735725402832
- -23.597078323364258
- 1.5760688781738281
- 22.351545333862305
- 1.2387272119522095
- 2.1434481143951416
- -0.0632852166891098
- 0.0
- 0.0
---
header:
  stamp:
    sec: 1756282220
    nanosec: 286097884
  frame_id: ''
name:
- fr3_joint1
- fr3_joint2
- fr3_joint3
- fr3_joint4
- fr3_joint5
- fr3_joint6
- fr3_joint7
- fr3_finger_joint1
- fr3_finger_joint2
position:
- 0.20979711324947323
- -0.18614828903210606
- -0.17970929863117754
- -2.0941883158158987
- 0.0021536319646060817
- 1.8887409504700288
- 0.010925739253655304
- 0.0
- 0.0
velocity:
- 0.06237751015128212
- 0.03638096884529884
- 0.0700340406669052
- -0.010474247329114278
- 0.20682768727469314
- -0.10282211765659667
- -0.1089066574028294
- 0.0
- 0.0
effort:
- 0.678105354309082
- -23.648653030395508
- 1.1357002258300781
- 22.403120040893555
- 1.2515445947647095
- 2.1764070987701416
- -0.029410704970359802
- 0.0
- 0.0
---
header:
  stamp:
    sec: 1756282220
    nanosec: 319563180
  frame_id: ''
name:
- fr3_joint1
- fr3_joint2
- fr3_joint3
- fr3_joint4
- fr3_joint5
- fr3_joint6
- fr3_joint7
- fr3_finger_joint1
- fr3_finger_joint2
position:
- 0.21183267638928452
- -0.18487144512052925
- -0.17735377575604466
- -2.094710795932962
- 0.009222488815542156
- 1.8854443256746496
- 0.007344326646262976
- 0.0
- 0.0
velocity:
- 0.06193217502482214
- 0.03819038246508621
- 0.06743739886352257
- -0.016418954897698675
- 0.21099364845152666
- -0.09923133330810663
- -0.11400857475871747
- 0.0
- 0.0
effort:
- 0.44800281524658203
- -23.827180862426758
- 0.8262520432472229
- 22.557844161987305
- 1.2259098291397095
- 2.1635897159576416
- -0.1447671502828598
- 0.0
- 0.0
---
header:
  stamp:
    sec: 1756282220
    nanosec: 353526181
  frame_id: ''
name:
- fr3_joint1
- fr3_joint2
- fr3_joint3
- fr3_joint4
- fr3_joint5
- fr3_joint6
- fr3_joint7
- fr3_finger_joint1
- fr3_finger_joint2
position:
- 0.2139360371553521
- -0.18358636446169233
- -0.1751011388119603
- -2.095282333837091
- 0.016416001421877175
- 1.8820286047936752
- 0.0030031739330326573
- 0.0
- 0.0
velocity:
- 0.06079716001580938
- 0.03582210410598137
- 0.0648940723903073
- -0.016683369614927734
- 0.21031465156938625
- -0.10300289065225414
- -0.13844922950466523
- 0.0
- 0.0
effort:
- 0.40039539337158203
- -24.057283401489258
- 0.8778267502784729
- 22.585615158081055
- 1.2057682275772095
- 2.1699984073638916
- -0.0834268182516098
- 0.0
- 0.0
---
header:
  stamp:
    sec: 1756282220
    nanosec: 387082616
  frame_id: ''
name:
- fr3_joint1
- fr3_joint2
- fr3_joint3
- fr3_joint4
- fr3_joint5
- fr3_joint6
- fr3_joint7
- fr3_finger_joint1
- fr3_finger_joint2
position:
- 0.21584537011183808
- -0.18240054946628345
- -0.1731027107309653
- -2.0958655584708423
- 0.023203991812460367
- 1.8789486582666441
- -0.0016238769010639528
- 0.0
- 0.0
velocity:
- 0.06037358313949611
- 0.03703518230512892
- 0.05749003963937623
- -0.017023053195932652
- 0.20984534566915478
- -0.09548351518882751
- -0.13490711944506295
- 0.0
- 0.0
effort:
- 0.47577381134033203
- -24.208040237426758
- 0.8262520432472229
- 22.664960861206055
- 1.2780948877334595
- 2.1168978214263916
- -0.029410704970359802
- 0.0
- 0.0
---
header:
  stamp:
    sec: 1756282220
    nanosec: 419514545
  frame_id: ''
name:
- fr3_joint1
- fr3_joint2
- fr3_joint3
- fr3_joint4
- fr3_joint5
- fr3_joint6
- fr3_joint7
- fr3_finger_joint1
- fr3_finger_joint2
position:
- 0.2178237153350203
- -0.1813138705784521
- -0.17136801051312392
- -2.09643086483575
- 0.030413101951798898
- 1.8758007656065803
- -0.005686777588331617
- 0.0
- 0.0
velocity:
- 0.05944200220080336
- 0.030030588294647997
- 0.05060255047467983
- -0.0157220581520371
- 0.20903920680435614
- -0.09636702302021337
- -0.11430873314373079
- 0.0
- 0.0
effort:
- 0.729680061340332
- -24.184236526489258
- 1.1357002258300781
- 22.744306564331055
- 1.2652775049209595
- 2.1699984073638916
- -0.1108926385641098
- 0.0
- 0.0
---
header:
  stamp:
    sec: 1756282220
    nanosec: 452871480
  frame_id: ''
name:
- fr3_joint1
- fr3_joint2
- fr3_joint3
- fr3_joint4
- fr3_joint5
- fr3_joint6
- fr3_joint7
- fr3_finger_joint1
- fr3_finger_joint2
position:
- 0.21976846464100222
- -0.1803134216192548
- -0.16965349695982107
- -2.096953655942379
- 0.037678109377549104
- 1.8726984474939703
- -0.009598359793553059
- 0.0
- 0.0
velocity:
- 0.0521992393333125
- 0.025879231691316385
- 0.05337645793186221
- -0.015365020097913868
- 0.20761609142022802
- -0.0894045389291666
- -0.12310001898132021
- 0.0
- 0.0
effort:
- 0.47577381134033203
- -24.104890823364258
- 0.9016304612159729
- 22.744306564331055
- 1.2515445947647095
- 2.1498568058013916
- -0.0696939080953598
- 0.0
- 0.0
---
header:
  stamp:
    sec: 1756282220
    nanosec: 486544265
  frame_id: ''
name:
- fr3_joint1
- fr3_joint2
- fr3_joint3
- fr3_joint4
- fr3_joint5
- fr3_joint6
- fr3_joint7
- fr3_finger_joint1
- fr3_finger_joint2
position:
- 0.22150606530315753
- -0.17941573089623636
- -0.16796252088897493
- -2.0973424982409594
- 0.04423446917203679
- 1.8695386211784502
- -0.013269297662453787
- 0.0
- 0.0
velocity:
- 0.050711567469526084
- 0.026080914691583492
- 0.0540756708585329
- -0.009885140255314766
- 0.20621217302236108
- -0.10726177969256484
- -0.11259583284253485
- 0.0
- 0.0
effort:
- 0.578923225402832
- -24.184236526489258
- 0.9809761643409729
- 22.613386154174805
- 1.2515445947647095
- 2.0967562198638916
- -0.0495523065328598
- 0.0
- 0.0
---
header:
  stamp:
    sec: 1756282220
    nanosec: 519496108
  frame_id: ''
name:
- fr3_joint1
- fr3_joint2
- fr3_joint3
- fr3_joint4
- fr3_joint5
- fr3_joint6
- fr3_joint7
- fr3_finger_joint1
- fr3_finger_joint2
position:
- 0.22314206386065147
- -0.1785576631578
- -0.16615849264555368
- -2.0977163030306705
- 0.051328140709772964
- 1.8660811874120904
- -0.017335209938417744
- 0.0
- 0.0
velocity:
- 0.04499325303999078
- 0.025735549374783437
- 0.05621444414463375
- -0.011477474995623248
- 0.20866346963955565
- -0.10086389877277499
- -0.13032887630864828
- 0.0
- 0.0
effort:
- 0.42419910430908203
- -24.104890823364258
- 0.7746773362159729
- 22.637189865112305
- 1.1993595361709595
- 2.0702059268951416
- -0.0971597284078598
- 0.0
- 0.0
---
header:
  stamp:
    sec: 1756282220
    nanosec: 553247748
  frame_id: ''
name:
- fr3_joint1
- fr3_joint2
- fr3_joint3
- fr3_joint4
- fr3_joint5
- fr3_joint6
- fr3_joint7
- fr3_finger_joint1
- fr3_finger_joint2
position:
- 0.22464072303519939
- -0.17774614411433495
- -0.164426413747252
- -2.0980995318538302
- 0.05829714119808133
- 1.8630112131499175
- -0.021504217759477195
- 0.0
- 0.0
velocity:
- 0.047876389588661035
- 0.024721435619290712
- 0.0493596274844688
- -0.010573576461310187
- 0.21094919952884653
- -0.09099721284430354
- -0.12078104164716488
- 0.0
- 0.0
effort:
- 0.578923225402832
- -23.977937698364258
- 0.9571724534034729
- 22.585615158081055
- 1.2121769189834595
- 2.0702059268951416
- -0.1374429315328598
- 0.0
- 0.0
---
header:
  stamp:
    sec: 1756282220
    nanosec: 586533790
  frame_id: ''
name:
- fr3_joint1
- fr3_joint2
- fr3_joint3
- fr3_joint4
- fr3_joint5
- fr3_joint6
- fr3_joint7
- fr3_finger_joint1
- fr3_finger_joint2
position:
- 0.22622868665193738
- -0.17687144538323682
- -0.16269022669269811
- -2.098525364446082
- 0.06544584404177313
- 1.8599847428826741
- -0.025271326048172123
- 0.0
- 0.0
velocity:
- 0.04900127586452432
- 0.02270997288899069
- 0.049963893133503565
- -0.01394390470112762
- 0.21932777147342788
- -0.08832507795783166
- -0.1080625445557659
- 0.0
- 0.0
effort:
- 0.602726936340332
- -23.827180862426758
- 1.0841255187988281
- 22.585615158081055
- 1.2716861963272095
- 2.0637972354888916
- -0.1108926385641098
- 0.0
- 0.0
---
header:
  stamp:
    sec: 1756282220
    nanosec: 619500606
  frame_id: ''
name:
- fr3_joint1
- fr3_joint2
- fr3_joint3
- fr3_joint4
- fr3_joint5
- fr3_joint6
- fr3_joint7
- fr3_finger_joint1
- fr3_finger_joint2
position:
- 0.22777986718930032
- -0.17600444826438427
- -0.1609470902929707
- -2.0989950312520134
- 0.07252998794687186
- 1.8571513383882605
- -0.02883897807516594
- 0.0
- 0.0
velocity:
- 0.04696215061447339
- 0.02606746682295593
- 0.056866439135761226
- -0.014168992432566906
- 0.20251638465248553
- -0.08759492839160762
- -0.11030632553352604
- 0.0
- 0.0
effort:
- 0.654301643371582
- -23.751802444458008
- 0.9294014573097229
- 22.637189865112305
- 1.2515445947647095
- 2.0903475284576416
- -0.0834268182516098
- 0.0
- 0.0
---
header:
  stamp:
    sec: 1756282220
    nanosec: 653596425
  frame_id: ''
name:
- fr3_joint1
- fr3_joint2
- fr3_joint3
- fr3_joint4
- fr3_joint5
- fr3_joint6
- fr3_joint7
- fr3_finger_joint1
- fr3_finger_joint2
position:
- 0.22946958292969635
- -0.17502672894418111
- -0.15920487962700733
- -2.0994284817859
- 0.0796175925639437
- 1.854184029186812
- -0.03265632508324112
- 0.0
- 0.0
velocity:
- 0.049768839017603206
- 0.028683269160251205
- 0.053023304612626956
- -0.013844023698222798
- 0.20469087964087906
- -0.08698565142832726
- -0.11701088622525306
- 0.0
- 0.0
effort:
- 0.884404182434082
- -23.954133987426758
- 1.0325508117675781
- 22.557844161987305
- 1.3110538721084595
- 2.0436556339263916
- -0.1923745721578598
- 0.0
- 0.0
---
header:
  stamp:
    sec: 1756282220
    nanosec: 686171699
  frame_id: ''
name:
- fr3_joint1
- fr3_joint2
- fr3_joint3
- fr3_joint4
- fr3_joint5
- fr3_joint6
- fr3_joint7
- fr3_finger_joint1
- fr3_finger_joint2
position:
- 0.23127875847014015
- -0.17398803516991856
- -0.1575680332112593
- -2.0998328429163235
- 0.08638304464102593
- 1.851161192379896
- -0.03690439875335398
- 0.0
- 0.0
velocity:
- 0.056562627392046635
- 0.03467461316588157
- 0.046867462032421245
- -0.013083422667292552
- 0.21104845904041167
- -0.09289297068814728
- -0.1369558426758938
- 0.0
- 0.0
effort:
- 0.832829475402832
- -24.005708694458008
- 1.0603218078613281
- 22.506269454956055
- 1.2973209619522095
- 2.0235140323638916
- -0.1511758416891098
- 0.0
- 0.0
---
header:
  stamp:
    sec: 1756282220
    nanosec: 719483422
  frame_id: ''
name:
- fr3_joint1
- fr3_joint2
- fr3_joint3
- fr3_joint4
- fr3_joint5
- fr3_joint6
- fr3_joint7
- fr3_finger_joint1
- fr3_finger_joint2
position:
- 0.23311992995451603
- -0.17283782436392733
- -0.1557976661097883
- -2.100242091462325
- 0.09335391894465112
- 1.847832755850344
- -0.04150631025761853
- 0.0
- 0.0
velocity:
- 0.05331766635300756
- 0.03474127503336279
- 0.05238566308044747
- -0.012872936046601254
- 0.21536907533264954
- -0.10223346750918234
- -0.1314411350281618
- 0.0
- 0.0
effort:
- 0.705876350402832
- -24.184236526489258
- 0.9809761643409729
- 22.426923751831055
- 1.2780948877334595
- 1.9905551671981812
- -0.1310342401266098
- 0.0
- 0.0
---
header:
  stamp:
    sec: 1756282220
    nanosec: 752806701
  frame_id: ''
name:
- fr3_joint1
- fr3_joint2
- fr3_joint3
- fr3_joint4
- fr3_joint5
- fr3_joint6
- fr3_joint7
- fr3_finger_joint1
- fr3_finger_joint2
position:
- 0.2349250929018933
- -0.1716378120199049
- -0.15390902146474358
- -2.100746151005556
- 0.1004821702696241
- 1.8443304404678071
- -0.04531346646297333
- 0.0
- 0.0
velocity:
- 0.05276439602996104
- 0.036303431826005386
- 0.057759189322460915
- -0.015717329161969783
- 0.2089084479740603
- -0.10358066944616066
- -0.09982158403544186
- 0.0
- 0.0
effort:
- 0.602726936340332
- -24.334993362426758
- 0.8262520432472229
- 22.585615158081055
- 1.3302799463272095
- 2.0097811222076416
- -0.1585000604391098
- 0.0
- 0.0
---
header:
  stamp:
    sec: 1756282220
    nanosec: 786122278
  frame_id: ''
name:
- fr3_joint1
- fr3_joint2
- fr3_joint3
- fr3_joint4
- fr3_joint5
- fr3_joint6
- fr3_joint7
- fr3_finger_joint1
- fr3_finger_joint2
position:
- 0.23653970212163175
- -0.17049212821250312
- -0.15198984117540293
- -2.1012680680948144
- 0.1075898360922444
- 1.8410709459153352
- -0.04857895914763394
- 0.0
- 0.0
velocity:
- 0.046519989768878445
- 0.03661675772083822
- 0.05840251514013741
- -0.017014106417905246
- 0.21621297186473962
- -0.09581695108685302
- -0.10354451388070685
- 0.0
- 0.0
effort:
- 0.40039539337158203
- -24.489717483520508
- 0.6199532151222229
- 22.688764572143555
- 1.2515445947647095
- 2.0171053409576416
- -0.1923745721578598
- 0.0
- 0.0
---
header:
  stamp:
    sec: 1756282220
    nanosec: 819507457
  frame_id: ''
name:
- fr3_joint1
- fr3_joint2
- fr3_joint3
- fr3_joint4
- fr3_joint5
- fr3_joint6
- fr3_joint7
- fr3_finger_joint1
- fr3_finger_joint2
position:
- 0.2381404981030899
- -0.16936576100646134
- -0.15012105054782024
- -2.101781671014981
- 0.11480527835655964
- 1.8380471195500279
- -0.05205075334494373
- 0.0
- 0.0
velocity:
- 0.05062334745609177
- 0.03322866082820053
- 0.05333034817660769
- -0.013810784290764383
- 0.21349504061765207
- -0.09080657079882881
- -0.10774457125558617
- 0.0
- 0.0
effort:
- 0.654301643371582
- -24.513521194458008
- 0.9294014573097229
- 22.688764572143555
- 1.2579532861709595
- 2.0097811222076416
- -0.2262490838766098
- 0.0
- 0.0
---
header:
  stamp:
    sec: 1756282220
    nanosec: 852764890
  frame_id: ''
name:
- fr3_joint1
- fr3_joint2
- fr3_joint3
- fr3_joint4
- fr3_joint5
- fr3_joint6
- fr3_joint7
- fr3_finger_joint1
- fr3_finger_joint2
position:
- 0.23980326032190172
- -0.1682830887301626
- -0.14834097894289022
- -2.1022080533747096
- 0.12160299733984364
- 1.8348041270827664
- -0.0559717443079745
- 0.0
- 0.0
velocity:
- 0.05332233972591611
- 0.028681054972013592
- 0.051155673921558426
- -0.012301607375037805
- 0.20137189631748353
- -0.09291912203180518
- -0.12285595791442261
- 0.0
- 0.0
effort:
- 0.678105354309082
- -24.692049026489258
- 0.9571724534034729
- 22.688764572143555
- 1.3238712549209595
- 2.0171053409576416
- -0.1923745721578598
- 0.0
- 0.0
---
header:
  stamp:
    sec: 1756282220
    nanosec: 886529048
  frame_id: ''
name:
- fr3_joint1
- fr3_joint2
- fr3_joint3
- fr3_joint4
- fr3_joint5
- fr3_joint6
- fr3_joint7
- fr3_finger_joint1
- fr3_finger_joint2
position:
- 0.24149888625389945
- -0.1673674964569726
- -0.14668008962787765
- -2.1026526821677827
- 0.1284419235526466
- 1.8317719285170881
- -0.05992655724108419
- 0.0
- 0.0
velocity:
- 0.05391349776163355
- 0.026460441354812094
- 0.0498325445503348
- -0.013299938051447933
- 0.20481835721060646
- -0.09681064532840115
- -0.1140156024434357
- 0.0
- 0.0
effort:
- 0.705876350402832
- -24.410371780395508
- 0.9294014573097229
- 22.557844161987305
- 1.3110538721084595
- 1.9768222570419312
- -0.2051919549703598
- 0.0
- 0.0
---
header:
  stamp:
    sec: 1756282220
    nanosec: 919445694
  frame_id: ''
name:
- fr3_joint1
- fr3_joint2
- fr3_joint3
- fr3_joint4
- fr3_joint5
- fr3_joint6
- fr3_joint7
- fr3_finger_joint1
- fr3_finger_joint2
position:
- 0.2433316450235455
- -0.16648500229727348
- -0.14500469665589658
- -2.103045452023004
- 0.1354882228060494
- 1.828490599896598
- -0.06349593587259653
- 0.0
- 0.0
velocity:
- 0.05986302931608036
- 0.026208157027991737
- 0.04892927857433055
- -0.01105416344740693
- 0.211331376084428
- -0.09435838282890384
- -0.10829445234132913
- 0.0
- 0.0
effort:
- 0.832829475402832
- -24.616670608520508
- 1.1118965148925781
- 22.534040451049805
- 1.3824650049209595
- 1.9768222570419312
- -0.2189248651266098
- 0.0
- 0.0
---
header:
  stamp:
    sec: 1756282220
    nanosec: 952717744
  frame_id: ''
name:
- fr3_joint1
- fr3_joint2
- fr3_joint3
- fr3_joint4
- fr3_joint5
- fr3_joint6
- fr3_joint7
- fr3_finger_joint1
- fr3_finger_joint2
position:
- 0.24537870473629794
- -0.16564285029092884
- -0.1433254066096238
- -2.1034976373364764
- 0.14258023201137768
- 1.8253464747224764
- -0.06705491355373401
- 0.0
- 0.0
velocity:
- 0.056155194137482496
- 0.02395292607568075
- 0.05519444224617649
- -0.014437063957158552
- 0.2157887339233095
- -0.09113207520651094
- -0.10904364238223352
- 0.0
- 0.0
effort:
- 0.757451057434082
- -24.489717483520508
- 0.9294014573097229
- 22.506269454956055
- 1.3430973291397095
- 1.9566806554794312
- -0.1987832635641098
- 0.0
- 0.0
---
header:
  stamp:
    sec: 1756282220
    nanosec: 986127374
  frame_id: ''
name:
- fr3_joint1
- fr3_joint2
- fr3_joint3
- fr3_joint4
- fr3_joint5
- fr3_joint6
- fr3_joint7
- fr3_finger_joint1
- fr3_finger_joint2
position:
- 0.2472539241645703
- -0.16478621754842396
- -0.14159143696109763
- -2.1039403825176968
- 0.14964926954968855
- 1.8223515584431982
- -0.07054923392870659
- 0.0
- 0.0
velocity:
- 0.056246812258800134
- 0.027962509561245057
- 0.05558117713503391
- -0.013309810465313623
- 0.21102548633733476
- -0.09188048899475174
- -0.10784070632370163
- 0.0
- 0.0
effort:
- 0.578923225402832
- -24.358797073364258
- 0.8500557541847229
- 22.426923751831055
- 1.3110538721084595
- 1.9704135656356812
- -0.1786416620016098
- 0.0
- 0.0
---
header:
  stamp:
    sec: 1756282221
    nanosec: 19526129
  frame_id: ''
name:
- fr3_joint1
- fr3_joint2
- fr3_joint3
- fr3_joint4
- fr3_joint5
- fr3_joint6
- fr3_joint7
- fr3_finger_joint1
- fr3_finger_joint2
position:
- 0.24905775791204535
- -0.16383571022865173
- -0.13969012838780037
- -2.104395409051172
- 0.15657542008891037
- 1.8194775186259644
- -0.07474766787498001
- 0.0
- 0.0
velocity:
- 0.05402703434472072
- 0.02948103365373644
- 0.057888593850833205
- -0.015425395729444047
- 0.20668606110666365
- -0.08263809701438532
- -0.13593456821454553
- 0.0
- 0.0
effort:
- 0.42419910430908203
- -24.386568069458008
- 0.6199532151222229
- 22.506269454956055
- 1.3568302392959595
- 1.9099887609481812
- -0.252799391746521
- 0.0
- 0.0
---
header:
  stamp:
    sec: 1756282221
    nanosec: 52722232
  frame_id: ''
name:
- fr3_joint1
- fr3_joint2
- fr3_joint3
- fr3_joint4
- fr3_joint5
- fr3_joint6
- fr3_joint7
- fr3_finger_joint1
- fr3_finger_joint2
position:
- 0.25069510232637193
- -0.16281355581392912
- -0.13767680041792704
- -2.1048751258107665
- 0.1634742486769614
- 1.8165643896148982
- -0.07950992404870882
- 0.0
- 0.0
velocity:
- 0.045837204433032006
- 0.030192609204330628
- 0.05743429034713886
- -0.016638972900283204
- 0.2093218299527194
- -0.0828675140949772
- -0.1320321989268956
- 0.0
- 0.0
effort:
- 0.42419910430908203
- -24.358797073364258
- 0.5683785080909729
- 22.534040451049805
- 1.3760563135147095
- 1.9237216711044312
- -0.2125161737203598
- 0.0
- 0.0
---
header:
  stamp:
    sec: 1756282221
    nanosec: 86097338
  frame_id: ''
name:
- fr3_joint1
- fr3_joint2
- fr3_joint3
- fr3_joint4
- fr3_joint5
- fr3_joint6
- fr3_joint7
- fr3_finger_joint1
- fr3_finger_joint2
position:
- 0.25224432835875077
- -0.1617312597077661
- -0.13581687498330056
- -2.10529668355466
- 0.17034636235944914
- 1.813650986795788
- -0.08340031388858012
- 0.0
- 0.0
velocity:
- 0.04885811841440299
- 0.03503436712858541
- 0.053465239270802344
- -0.012815318253374139
- 0.21087008036927432
- -0.08897382550632253
- -0.11315169510959427
- 0.0
- 0.0
effort:
- 0.654301643371582
- -24.461946487426758
- 0.7746773362159729
- 22.403120040893555
- 1.4026066064834595
- 1.9237216711044312
- -0.2189248651266098
- 0.0
- 0.0
---
header:
  stamp:
    sec: 1756282221
    nanosec: 120664246
  frame_id: ''
name:
- fr3_joint1
- fr3_joint2
- fr3_joint3
- fr3_joint4
- fr3_joint5
- fr3_joint6
- fr3_joint7
- fr3_finger_joint1
- fr3_finger_joint2
position:
- 0.25389076616104267
- -0.1605565893611473
- -0.13402209013524385
- -2.1057338319932284
- 0.1773930515979573
- 1.8104431202898703
- -0.0871021463740679
- 0.0
- 0.0
velocity:
- 0.048967786875114376
- 0.035380447436074616
- 0.05302757421947947
- -0.01390272279088879
- 0.208992907917549
- -0.10079065747875296
- -0.11402859197129746
- 0.0
- 0.0
effort:
- 0.578923225402832
- -24.410371780395508
- 0.7231026291847229
- 22.482465744018555
- 1.4355655908584595
- 1.9365390539169312
- -0.2262490838766098
- 0.0
- 0.0
---
header:
  stamp:
    sec: 1756282221
    nanosec: 152853310
  frame_id: ''
name:
- fr3_joint1
- fr3_joint2
- fr3_joint3
- fr3_joint4
- fr3_joint5
- fr3_joint6
- fr3_joint7
- fr3_finger_joint1
- fr3_finger_joint2
position:
- 0.25564086093157107
- -0.1592639257162985
- -0.13229412177894628
- -2.106143673018433
- 0.1846062068401236
- 1.8070708463537486
- -0.0908523198148375
- 0.0
- 0.0
velocity:
- 0.05391249685007571
- 0.04043132291383998
- 0.048709215946437595
- -0.011429684210043655
- 0.2156625220175481
- -0.09749932262995024
- -0.10537238688693676
- 0.0
- 0.0
effort:
- 0.757451057434082
- -24.664278030395508
- 1.0087471008300781
- 22.482465744018555
- 1.3824650049209595
- 1.8898471593856812
- -0.280265212059021
- 0.0
- 0.0
---
header:
  stamp:
    sec: 1756282221
    nanosec: 186517570
  frame_id: ''
name:
- fr3_joint1
- fr3_joint2
- fr3_joint3
- fr3_joint4
- fr3_joint5
- fr3_joint6
- fr3_joint7
- fr3_finger_joint1
- fr3_finger_joint2
position:
- 0.25746527890187687
- -0.15803940433629882
- -0.13068413540247403
- -2.1065599886629562
- 0.19161571061691243
- 1.8038835608514334
- -0.09464086194045838
- 0.0
- 0.0
velocity:
- 0.05790252232332123
- 0.03794690105112634
- 0.05012920275621995
- -0.012362834464355977
- 0.21606055303296734
- -0.09705990980487757
- -0.12653607937806866
- 0.0
- 0.0
effort:
- 0.729680061340332
- -24.616670608520508
- 0.7469063401222229
- 22.454694747924805
- 1.4355655908584595
- 1.9163974523544312
- -0.2390664666891098
- 0.0
- 0.0
---
header:
  stamp:
    sec: 1756282221
    nanosec: 219501998
  frame_id: ''
name:
- fr3_joint1
- fr3_joint2
- fr3_joint3
- fr3_joint4
- fr3_joint5
- fr3_joint6
- fr3_joint7
- fr3_finger_joint1
- fr3_finger_joint2
position:
- 0.25925836383289236
- -0.15682362516076662
- -0.12891937149406046
- -2.107021027435993
- 0.1984626219125809
- 1.8007015095456418
- -0.09904793706906802
- 0.0
- 0.0
velocity:
- 0.05033959751671553
- 0.03564048579530406
- 0.05473631590920668
- -0.015627072210276094
- 0.19520074340200536
- -0.0952202138432767
- -0.13068253701593996
- 0.0
- 0.0
effort:
- 0.678105354309082
- -24.692049026489258
- 0.7231026291847229
- 22.585615158081055
- 1.4676090478897095
- 1.9099887609481812
- -0.2125161737203598
- 0.0
- 0.0
---
header:
  stamp:
    sec: 1756282221
    nanosec: 252811443
  frame_id: ''
name:
- fr3_joint1
- fr3_joint2
- fr3_joint3
- fr3_joint4
- fr3_joint5
- fr3_joint6
- fr3_joint7
- fr3_finger_joint1
- fr3_finger_joint2
position:
- 0.2610550841382489
- -0.1556503664419538
- -0.1270410293845927
- -2.1075209371170147
- 0.20544356914244336
- 1.797561928617633
- -0.1028902583521863
- 0.0
- 0.0
velocity:
- 0.05521172091821712
- 0.03306475751894921
- 0.05554479305738723
- -0.017022387447402428
- 0.20777064187181485
- -0.0952502065744727
- -0.10954101855968454
- 0.0
- 0.0
effort:
- 0.527348518371582
- -24.945955276489258
- 0.5921822190284729
- 22.534040451049805
- 1.5069767236709595
- 1.8971713781356812
- -0.280265212059021
- 0.0
- 0.0
---
header:
  stamp:
    sec: 1756282221
    nanosec: 286812796
  frame_id: ''
name:
- fr3_joint1
- fr3_joint2
- fr3_joint3
- fr3_joint4
- fr3_joint5
- fr3_joint6
- fr3_joint7
- fr3_finger_joint1
- fr3_finger_joint2
position:
- 0.26257531202573753
- -0.15471569296785193
- -0.12535135826671084
- -2.1080327691471457
- 0.21184066064714074
- 1.794819567565004
- -0.10619542583026871
- 0.0
- 0.0
velocity:
- 0.046327807870511106
- 0.02957375942986458
- 0.05815262804607654
- -0.017567263428489844
- 0.22471629758682557
- -0.08870063682279634
- -0.1098421351773707
- 0.0
- 0.0
effort:
- 0.42419910430908203
- -24.945955276489258
- 0.4374580979347229
- 22.585615158081055
- 1.4483829736709595
- 1.8770297765731812
- -0.327872633934021
- 0.0
- 0.0
---
header:
  stamp:
    sec: 1756282221
    nanosec: 319485715
  frame_id: ''
name:
- fr3_joint1
- fr3_joint2
- fr3_joint3
- fr3_joint4
- fr3_joint5
- fr3_joint6
- fr3_joint7
- fr3_finger_joint1
- fr3_finger_joint2
position:
- 0.26429897814458925
- -0.15368272096883784
- -0.12328792691679065
- -2.108602659127621
- 0.21946620988200774
- 1.791331649739081
- -0.11038207062395933
- 0.0
- 0.0
velocity:
- 0.048210853530671775
- 0.02852699207719785
- 0.05618854026743621
- -0.013186074040252363
- 0.20452933716464172
- -0.10597347177056195
- -0.124094805507225
- 0.0
- 0.0
effort:
- 0.705876350402832
- -24.894380569458008
- 0.7469063401222229
- 22.403120040893555
- 1.4419742822647095
- 1.8303378820419312
- -0.2051919549703598
- 0.0
- 0.0
---
header:
  stamp:
    sec: 1756282221
    nanosec: 352825762
  frame_id: ''
name:
- fr3_joint1
- fr3_joint2
- fr3_joint3
- fr3_joint4
- fr3_joint5
- fr3_joint6
- fr3_joint7
- fr3_finger_joint1
- fr3_finger_joint2
position:
- 0.2659708912653937
- -0.15274565593265035
- -0.12148803516837123
- -2.1090919196440185
- 0.22671389874815895
- 1.7877944468399027
- -0.11491783317811785
- 0.0
- 0.0
velocity:
- 0.05116605919715911
- 0.028228824252676064
- 0.05295112437367169
- -0.014657644705305407
- 0.21159370615593082
- -0.10528751632020752
- -0.13883971438846585
- 0.0
- 0.0
effort:
- 0.626530647277832
- -24.945955276489258
- 0.6715279221534729
- 22.506269454956055
- 1.5005680322647095
- 1.8632968664169312
- -0.2326577752828598
- 0.0
- 0.0
---
header:
  stamp:
    sec: 1756282221
    nanosec: 386525989
  frame_id: ''
name:
- fr3_joint1
- fr3_joint2
- fr3_joint3
- fr3_joint4
- fr3_joint5
- fr3_joint6
- fr3_joint7
- fr3_finger_joint1
- fr3_finger_joint2
position:
- 0.2676085827847572
- -0.1518608237021085
- -0.1197873124131135
- -2.1095852425219386
- 0.23345583401205505
- 1.7847088363950177
- -0.11957565476187249
- 0.0
- 0.0
velocity:
- 0.05010377300570376
- 0.027932400427661118
- 0.0513083056457548
- -0.01570079645761013
- 0.20425730828487265
- -0.0913616411491534
- -0.14178968051620727
- 0.0
- 0.0
effort:
- 0.757451057434082
- -24.870576858520508
- 0.8778267502784729
- 22.454694747924805
- 1.4941593408584595
- 1.7900546789169312
- -0.2326577752828598
- 0.0
- 0.0
---
header:
  stamp:
    sec: 1756282221
    nanosec: 419446106
  frame_id: ''
name:
- fr3_joint1
- fr3_joint2
- fr3_joint3
- fr3_joint4
- fr3_joint5
- fr3_joint6
- fr3_joint7
- fr3_finger_joint1
- fr3_finger_joint2
position:
- 0.2694792082884135
- -0.1509347668981233
- -0.11813287586782929
- -2.110047440818272
- 0.24025394898698899
- 1.7817050580630784
- -0.12354243259563309
- 0.0
- 0.0
velocity:
- 0.06013017316129228
- 0.02873049540582929
- 0.04700871004568959
- -0.01577564135983372
- 0.207027476586324
- -0.08656034105633371
- -0.10639264820666691
- 0.0
- 0.0
effort:
- 0.856633186340332
- -25.021333694458008
- 0.9294014573097229
- 22.506269454956055
- 1.5005680322647095
- 1.8037875890731812
- -0.280265212059021
- 0.0
- 0.0
---
header:
  stamp:
    sec: 1756282221
    nanosec: 453575251
  frame_id: ''
name:
- fr3_joint1
- fr3_joint2
- fr3_joint3
- fr3_joint4
- fr3_joint5
- fr3_joint6
- fr3_joint7
- fr3_finger_joint1
- fr3_finger_joint2
position:
- 0.271543495037733
- -0.14999802211275462
- -0.11646891221923003
- -2.1105134562876455
- 0.24735121121467893
- 1.7788353329762294
- -0.12705725253252753
- 0.0
- 0.0
velocity:
- 0.06000383868788876
- 0.028642427155143674
- 0.052650545440754475
- -0.01132720540794389
- 0.20672223852766092
- -0.08677523440378831
- -0.10377977811305926
- 0.0
- 0.0
effort:
- 0.49957752227783203
- -24.969758987426758
- 0.5921822190284729
- 22.454694747924805
- 1.5335270166397095
- 1.8166049718856812
- -0.286673903465271
- 0.0
- 0.0
---
header:
  stamp:
    sec: 1756282221
    nanosec: 486139846
  frame_id: ''
name:
- fr3_joint1
- fr3_joint2
- fr3_joint3
- fr3_joint4
- fr3_joint5
- fr3_joint6
- fr3_joint7
- fr3_finger_joint1
- fr3_finger_joint2
position:
- 0.2733560016317701
- -0.14903529961846568
- -0.11465556236643401
- -2.1109187149791917
- 0.2543091730181551
- 1.7759494493604464
- -0.13066697868239457
- 0.0
- 0.0
velocity:
- 0.05587393632016434
- 0.03033254494411559
- 0.05482603959907587
- -0.013340579245077502
- 0.21076451828878093
- -0.08830770133454452
- -0.11702334123050112
- 0.0
- 0.0
effort:
- 0.551152229309082
- -24.918184280395508
- 0.6199532151222229
- 22.323774337768555
- 1.5197941064834595
- 1.7570956945419312
- -0.280265212059021
- 0.0
- 0.0
---
header:
  stamp:
    sec: 1756282221
    nanosec: 519496758
  frame_id: ''
name:
- fr3_joint1
- fr3_joint2
- fr3_joint3
- fr3_joint4
- fr3_joint5
- fr3_joint6
- fr3_joint7
- fr3_finger_joint1
- fr3_finger_joint2
position:
- 0.2751589486077977
- -0.14798589033480122
- -0.11279339896504266
- -2.1113617585780635
- 0.2614670596219273
- 1.7729543001818049
- -0.13481229669277994
- 0.0
- 0.0
velocity:
- 0.05144764418767888
- 0.03148713738233305
- 0.05569457590100187
- -0.015131543504299854
- 0.2162353419900432
- -0.09350511141889833
- -0.12963697572687005
- 0.0
- 0.0
effort:
- 0.47577381134033203
- -24.945955276489258
- 0.4652290940284729
- 22.426923751831055
- 1.5793033838272095
- 1.7900546789169312
- -0.252799391746521
- 0.0
- 0.0
---
header:
  stamp:
    sec: 1756282221
    nanosec: 552821355
  frame_id: ''
name:
- fr3_joint1
- fr3_joint2
- fr3_joint3
- fr3_joint4
- fr3_joint5
- fr3_joint6
- fr3_joint7
- fr3_finger_joint1
- fr3_finger_joint2
position:
- 0.2767663199710128
- -0.1468760474250122
- -0.11081409256518941
- -2.1118281310341853
- 0.26870084578686076
- 1.769531895404401
- -0.13903258820978817
- 0.0
- 0.0
velocity:
- 0.04573428654620862
- 0.03259270934983892
- 0.0598845797390249
- -0.016869896987686407
- 0.21399815260895988
- -0.1063103933176964
- -0.11652665908723885
- 0.0
- 0.0
effort:
- 0.578923225402832
- -25.021333694458008
- 0.4652290940284729
- 22.351545333862305
- 1.5399357080459595
- 1.7836459875106812
- -0.2125161737203598
- 0.0
- 0.0
---
header:
  stamp:
    sec: 1756282221
    nanosec: 586159961
  frame_id: ''
name:
- fr3_joint1
- fr3_joint2
- fr3_joint3
- fr3_joint4
- fr3_joint5
- fr3_joint6
- fr3_joint7
- fr3_finger_joint1
- fr3_finger_joint2
position:
- 0.278364149962581
- -0.1458124867324965
- -0.10903796795443345
- -2.1123755744002577
- 0.275570240460453
- 1.766189605057054
- -0.14276644171635944
- 0.0
- 0.0
velocity:
- 0.04794312464295563
- 0.03191857442718769
- 0.05284180601200108
- -0.016321183027222637
- 0.2006229164582141
- -0.10408722202704987
- -0.11861119940995243
- 0.0
- 0.0
effort:
- 0.654301643371582
- -25.124483108520508
- 0.6437569260597229
- 22.375349044799805
- 1.4813419580459595
- 1.7369540929794312
- -0.314139723777771
- 0.0
- 0.0
---
header:
  stamp:
    sec: 1756282221
    nanosec: 619488505
  frame_id: ''
name:
- fr3_joint1
- fr3_joint2
- fr3_joint3
- fr3_joint4
- fr3_joint5
- fr3_joint6
- fr3_joint7
- fr3_finger_joint1
- fr3_finger_joint2
position:
- 0.28000563092289243
- -0.14472863159289528
- -0.10723893981447317
- -2.1129545588999634
- 0.2823486009643722
- 1.7628531969799135
- -0.14648036509748322
- 0.0
- 0.0
velocity:
- 0.0498526832687241
- 0.031859095647647676
- 0.053065115545203254
- -0.018257422479765483
- 0.21384581449588033
- -0.09152678194319813
- -0.11192586492126684
- 0.0
- 0.0
effort:
- 0.49957752227783203
- -25.199861526489258
- 0.4652290940284729
- 22.426923751831055
- 1.5133854150772095
- 1.7232211828231812
- -0.2326577752828598
- 0.0
- 0.0
---
header:
  stamp:
    sec: 1756282221
    nanosec: 652907279
  frame_id: ''
name:
- fr3_joint1
- fr3_joint2
- fr3_joint3
- fr3_joint4
- fr3_joint5
- fr3_joint6
- fr3_joint7
- fr3_finger_joint1
- fr3_finger_joint2
position:
- 0.28167232457037816
- -0.14360338434797992
- -0.10545475346869398
- -2.1135560664105415
- 0.2894936430490043
- 1.7598225995197054
- -0.15023756644972516
- 0.0
- 0.0
velocity:
- 0.054610385837370254
- 0.03524156651652772
- 0.049264988673478054
- -0.01680549186385379
- 0.21668063273347885
- -0.09114270200468391
- -0.12164229319213542
- 0.0
- 0.0
effort:
- 0.678105354309082
- -25.251436233520508
- 0.5921822190284729
- 22.482465744018555
- 1.5857120752334595
- 1.7305454015731812
- -0.286673903465271
- 0.0
- 0.0
---
header:
  stamp:
    sec: 1756282221
    nanosec: 686108795
  frame_id: ''
name:
- fr3_joint1
- fr3_joint2
- fr3_joint3
- fr3_joint4
- fr3_joint5
- fr3_joint6
- fr3_joint7
- fr3_finger_joint1
- fr3_finger_joint2
position:
- 0.2834751615010316
- -0.142528539498784
- -0.10389921318163825
- -2.114041489133497
- 0.29649761766117005
- 1.7567096587537727
- -0.15469137885549095
- 0.0
- 0.0
velocity:
- 0.055139812756931736
- 0.030066789940843334
- 0.047307986914670634
- -0.015540874420770678
- 0.20357873267522594
- -0.09384701335746107
- -0.14616498517418777
- 0.0
- 0.0
effort:
- 0.832829475402832
- -25.453767776489258
- 0.7746773362159729
- 22.506269454956055
- 1.6122623682022095
- 1.7433627843856812
- -0.320548415184021
- 0.0
- 0.0
---
header:
  stamp:
    sec: 1756282221
    nanosec: 719461408
  frame_id: ''
name:
- fr3_joint1
- fr3_joint2
- fr3_joint3
- fr3_joint4
- fr3_joint5
- fr3_joint6
- fr3_joint7
- fr3_finger_joint1
- fr3_finger_joint2
position:
- 0.2852588135883404
- -0.14151556291862122
- -0.10217734362967039
- -2.1145588283569237
- 0.3035596278609922
- 1.7536511968320505
- -0.15939033111876236
- 0.0
- 0.0
velocity:
- 0.04884576410317341
- 0.030445245450217245
- 0.054360158472449537
- -0.014714090305137597
- 0.21293578581724684
- -0.09555166357522156
- -0.1286038447210776
- 0.0
- 0.0
effort:
- 0.729680061340332
- -25.429964065551758
- 0.5921822190284729
- 22.482465744018555
- 1.6122623682022095
- 1.7039951086044312
- -0.2326577752828598
- 0.0
- 0.0
---
header:
  stamp:
    sec: 1756282221
    nanosec: 752824898
  frame_id: ''
name:
- fr3_joint1
- fr3_joint2
- fr3_joint3
- fr3_joint4
- fr3_joint5
- fr3_joint6
- fr3_joint7
- fr3_finger_joint1
- fr3_finger_joint2
position:
- 0.2870279493944806
- -0.1405439519655478
- -0.10032252716808306
- -2.1149708574049946
- 0.31065027211273405
- 1.7503005723792304
- -0.16337747154571677
- 0.0
- 0.0
velocity:
- 0.05146712079240311
- 0.028335233565677593
- 0.05673040338903787
- -0.010565681795983458
- 0.21448234001215266
- -0.09468073209594609
- -0.1142490462055769
- 0.0
- 0.0
effort:
- 0.602726936340332
- -25.402193069458008
- 0.5406075119972229
- 22.403120040893555
- 1.5005680322647095
- 1.6838535070419312
- -0.2262490838766098
- 0.0
- 0.0
---
header:
  stamp:
    sec: 1756282221
    nanosec: 786491903
  frame_id: ''
name:
- fr3_joint1
- fr3_joint2
- fr3_joint3
- fr3_joint4
- fr3_joint5
- fr3_joint6
- fr3_joint7
- fr3_finger_joint1
- fr3_finger_joint2
position:
- 0.28864982953123736
- -0.13964364292286735
- -0.09845010478466129
- -2.1153377301537293
- 0.3174094175629185
- 1.7472294184583832
- -0.1671575586832501
- 0.0
- 0.0
velocity:
- 0.04748758186019588
- 0.027851045051906085
- 0.05843642949013534
- -0.010826039018218754
- 0.2040250072387366
- -0.0879289427560046
- -0.11846064244184314
- 0.0
- 0.0
effort:
- 0.37262439727783203
- -25.350618362426758
- 0.2311592698097229
- 22.272199630737305
- 1.6049381494522095
- 1.6435703039169312
- -0.272940993309021
- 0.0
- 0.0
---
header:
  stamp:
    sec: 1756282221
    nanosec: 819429051
  frame_id: ''
name:
- fr3_joint1
- fr3_joint2
- fr3_joint3
- fr3_joint4
- fr3_joint5
- fr3_joint6
- fr3_joint7
- fr3_finger_joint1
- fr3_finger_joint2
position:
- 0.2901243947895983
- -0.1387895410236175
