header:
  stamp:
    sec: 1756281704
    nanosec: 53546001
  frame_id: ''
name:
- fr3_joint1
- fr3_joint2
- fr3_joint3
- fr3_joint4
- fr3_joint5
- fr3_joint6
- fr3_joint7
- fr3_finger_joint1
- fr3_finger_joint2
position:
- -0.12165940177304536
- -0.12120574583981214
- 0.1191991968033261
- -2.280384867518458
- 0.03287105172154358
- 2.161574102549291
- -0.08639292884749966
- 0.0
- 0.0
velocity:
- 0.08749550884253468
- -0.058947720539459986
- 0.0453337200216856
- -0.031875258453491574
- 0.08758884769832156
- -0.0020270650743836687
- -0.18671881524613246
- 0.0
- 0.0
effort:
- 0.626530647277832
- -25.910005569458008
- -0.3639335036277771
- 21.617597579956055
- 1.1929508447647095
- 2.2835237979888916
- -0.2125161737203598
- 0.0
- 0.0
---
header:
  stamp:
    sec: 1756281704
    nanosec: 86378269
  frame_id: ''
name:
- fr3_joint1
- fr3_joint2
- fr3_joint3
- fr3_joint4
- fr3_joint5
- fr3_joint6
- fr3_joint7
- fr3_finger_joint1
- fr3_finger_joint2
position:
- -0.11907679795573216
- -0.12319317443229737
- 0.12080631592960067
- -2.281484236394523
- 0.03564634886071133
- 2.161501374136599
- -0.09254786129925267
- 0.0
- 0.0
velocity:
- 0.07521670121146887
- -0.06201673056998569
- 0.04704454321005194
- -0.035467093932474464
- 0.07886400203271189
- -0.0026114164206977367
- -0.1855192024764836
- 0.0
- 0.0
effort:
- 0.47577381134033203
- -26.191682815551758
- -0.4948539137840271
- 21.617597579956055
- 1.1664005517959595
- 2.2963411808013916
- -0.272940993309021
- 0.0
- 0.0
---
header:
  stamp:
    sec: 1756281704
    nanosec: 119709812
  frame_id: ''
name:
- fr3_joint1
- fr3_joint2
- fr3_joint3
- fr3_joint4
- fr3_joint5
- fr3_joint6
- fr3_joint7
- fr3_finger_joint1
- fr3_finger_joint2
position:
- -0.11661119813671765
- -0.12538790907529979
- 0.12256129890930047
- -2.2827838047754727
- 0.0384852421176749
- 2.1614161080591843
- -0.09984244946741792
- 0.0
- 0.0
velocity:
- 0.0647646803008402
- -0.062239042905614154
- 0.05178176820372397
- -0.03766447525351065
- 0.08215156305305074
- -0.00252675764480774
- -0.21179159580470475
- 0.0
- 0.0
effort:
- 0.19409656524658203
- -25.683870315551758
- -0.8043021559715271
- 21.720746994018555
- 1.1535831689834595
- 2.3036653995513916
- -0.260123610496521
- 0.0
- 0.0
---
header:
  stamp:
    sec: 1756281704
    nanosec: 152967154
  frame_id: ''
name:
- fr3_joint1
- fr3_joint2
- fr3_joint3
- fr3_joint4
- fr3_joint5
- fr3_joint6
- fr3_joint7
- fr3_finger_joint1
- fr3_finger_joint2
position:
- -0.11446300525350658
- -0.12730974819207608
- 0.12415306664785694
- -2.2839406057856197
- 0.041077855807781206
- 2.1613094273148117
- -0.10603894599765872
- 0.0
- 0.0
velocity:
- 0.06688320974834851
- -0.05625247006065247
- 0.047202686825456176
- -0.033393983992495796
- 0.07938198906340684
- -0.004073287970447226
- -0.17992617316863027
- 0.0
- 0.0
effort:
- 0.44800281524658203
- -25.683870315551758
- -0.6218070387840271
- 21.720746994018555
- 1.1993595361709595
- 2.3100740909576416
- -0.300406813621521
- 0.0
- 0.0
---
header:
  stamp:
    sec: 1756281704
    nanosec: 186348495
  frame_id: ''
name:
- fr3_joint1
- fr3_joint2
- fr3_joint3
- fr3_joint4
- fr3_joint5
- fr3_joint6
- fr3_joint7
- fr3_finger_joint1
- fr3_finger_joint2
position:
- -0.11228428155149618
- -0.12904695647351205
- 0.12562833136563764
- -2.2850298281934127
- 0.043872727130581074
- 2.161248204782792
- -0.11238997904196066
- 0.0
- 0.0
velocity:
- 0.06699046286910947
- -0.05110916752988895
- 0.043978235787711845
- -0.0336152119856741
- 0.08827874001191541
- -0.0009786325138816452
- -0.21043792325207394
- 0.0
- 0.0
effort:
- 0.654301643371582
- -25.656099319458008
- -0.4432792067527771
- 21.669172286987305
- 1.1801334619522095
- 2.2835237979888916
- -0.266532301902771
- 0.0
- 0.0
---
header:
  stamp:
    sec: 1756281704
    nanosec: 219606584
  frame_id: ''
name:
- fr3_joint1
- fr3_joint2
- fr3_joint3
- fr3_joint4
- fr3_joint5
- fr3_joint6
- fr3_joint7
- fr3_finger_joint1
- fr3_finger_joint2
position:
- -0.10984569039772649
- -0.13073075457220878
- 0.12707392999128583
- -2.2862266169557595
- 0.04684918390861761
- 2.161207549393327
- -0.12038816994621364
- 0.0
- 0.0
velocity:
- 0.07345038688673522
- -0.04891588169215648
- 0.0396991373947667
- -0.03653611698693669
- 0.08618567270431111
- -0.0009238368967057752
- -0.23201294565280642
- 0.0
- 0.0
effort:
- 0.856633186340332
- -25.834627151489258
- -0.2092093825340271
- 21.589826583862305
- 1.1728092432022095
- 2.2633821964263916
- -0.2125161737203598
- 0.0
- 0.0
---
header:
  stamp:
    sec: 1756281704
    nanosec: 253379549
  frame_id: ''
name:
- fr3_joint1
- fr3_joint2
- fr3_joint3
- fr3_joint4
- fr3_joint5
- fr3_joint6
- fr3_joint7
- fr3_finger_joint1
- fr3_finger_joint2
position:
- -0.10749456416700268
- -0.1323558629528859
- 0.12844038407542918
- -2.287578846920685
- 0.04961104589048843
- 2.1611611687145436
- -0.12671309033832762
- 0.0
- 0.0
velocity:
- 0.06887300606088205
- -0.05136298582682186
- 0.04436278978555231
- -0.04134129600558637
- 0.087269386366725
- -0.0015586110533078405
- -0.18048582376062283
- 0.0
- 0.0
effort:
- 0.805058479309082
- -25.656099319458008
- -0.2607840895652771
- 21.748517990112305
- 1.1728092432022095
- 2.3036653995513916
- -0.2189248651266098
- 0.0
- 0.0
---
header:
  stamp:
    sec: 1756281704
    nanosec: 286385310
  frame_id: ''
name:
- fr3_joint1
- fr3_joint2
- fr3_joint3
- fr3_joint4
- fr3_joint5
- fr3_joint6
- fr3_joint7
- fr3_finger_joint1
- fr3_finger_joint2
position:
- -0.10522557627720153
- -0.1340008164134738
- 0.1299264507095696
- -2.288996833050662
- 0.05235942365432317
- 2.1610658314053555
- -0.13315952109559398
- 0.0
- 0.0
velocity:
- 0.07062745451445641
- -0.050992327946061844
- 0.04525273412822636
- -0.042551657324079735
- 0.09016176402692586
- -0.006548042379881446
- -0.21014461049816546
- 0.0
- 0.0
effort:
- 0.757451057434082
- -25.783052444458008
- -0.3123587965965271
- 21.669172286987305
- 1.1599918603897095
- 2.2899324893951416
- -0.2051919549703598
- 0.0
- 0.0
---
header:
  stamp:
    sec: 1756281704
    nanosec: 319730480
  frame_id: ''
name:
- fr3_joint1
- fr3_joint2
- fr3_joint3
- fr3_joint4
- fr3_joint5
- fr3_joint6
- fr3_joint7
- fr3_finger_joint1
- fr3_finger_joint2
position:
- -0.10284845347935821
- -0.13578774300535726
- 0.1315570260088315
- -2.2903975504944056
- 0.05544891187304638
- 2.160864301049004
- -0.14066184205439705
- 0.0
- 0.0
velocity:
- 0.0675873636842555
- -0.0527524725751414
- 0.04913470345140071
- -0.038242597000745567
- 0.0847295596235153
- -0.00562127639199217
- -0.2000735911625686
- 0.0
- 0.0
effort:
- 0.551152229309082
- -25.989351272583008
- -0.5702323317527771
- 21.954816818237305
- 1.1535831689834595
- 2.3164827823638916
- -0.293998122215271
- 0.0
- 0.0
---
header:
  stamp:
    sec: 1756281704
    nanosec: 353447378
  frame_id: ''
name:
- fr3_joint1
- fr3_joint2
- fr3_joint3
- fr3_joint4
- fr3_joint5
- fr3_joint6
- fr3_joint7
- fr3_finger_joint1
- fr3_finger_joint2
position:
- -0.1004879602481706
- -0.13768534831585133
- 0.1329847415908225
- -2.2916898178518004
- 0.05816687774368924
- 2.1607486965712623
- -0.147084485195827
- 0.0
- 0.0
velocity:
- 0.07231220455643546
- -0.05918576958828919
- 0.04365559805633757
- -0.039854185186799736
- 0.0847749212416446
- -0.00278473844338836
- -0.19113196210788946
- 0.0
- 0.0
effort:
- 0.729680061340332
- -25.989351272583008
- -0.4155082106590271
- 21.931013107299805
- 1.1535831689834595
- 2.2963411808013916
- -0.293998122215271
- 0.0
- 0.0
---
header:
  stamp:
    sec: 1756281704
    nanosec: 386362743
  frame_id: ''
name:
- fr3_joint1
- fr3_joint2
- fr3_joint3
- fr3_joint4
- fr3_joint5
- fr3_joint6
- fr3_joint7
- fr3_finger_joint1
- fr3_finger_joint2
position:
- -0.09810541049853118
- -0.13971520061661233
- 0.13442440044184528
- -2.2929742989905084
- 0.06081663073209351
- 2.1606656623174203
- -0.15376694241122615
- 0.0
- 0.0
velocity:
- 0.07573193163812805
- -0.06251913105538175
- 0.04303215477128316
- -0.037499673328208
- 0.08696539890914515
- -0.004022609900096713
- -0.22987098078877305
- 0.0
- 0.0
effort:
- 0.729680061340332
- -25.656099319458008
- -0.3639335036277771
- 21.851667404174805
- 1.1929508447647095
- 2.3100740909576416
- -0.2463906854391098
- 0.0
- 0.0
---
header:
  stamp:
    sec: 1756281704
    nanosec: 419737673
  frame_id: ''
name:
- fr3_joint1
- fr3_joint2
- fr3_joint3
- fr3_joint4
- fr3_joint5
- fr3_joint6
- fr3_joint7
- fr3_finger_joint1
- fr3_finger_joint2
position:
- -0.09536185591147253
- -0.1417934309898012
- 0.1357506474247697
- -2.294253900029083
- 0.0639530106099876
- 2.1605974207196494
- -0.16183864086318972
- 0.0
- 0.0
velocity:
- 0.07784841767499986
- -0.05833863253072379
- 0.03876556325552432
- -0.03719697963240915
- 0.0932410829499321
- -0.0015379880704373726
- -0.20959317551237558
- 0.0
- 0.0
effort:
- 0.856633186340332
- -25.326814651489258
- -0.2330130934715271
- 21.510480880737305
- 1.1471744775772095
- 2.2368319034576416
- -0.1987832635641098
- 0.0
- 0.0
---
header:
  stamp:
    sec: 1756281704
    nanosec: 452963971
  frame_id: ''
name:
- fr3_joint1
- fr3_joint2
- fr3_joint3
- fr3_joint4
- fr3_joint5
- fr3_joint6
- fr3_joint7
- fr3_finger_joint1
- fr3_finger_joint2
position:
- -0.0929481230580581
- -0.14363869598181384
- 0.13724750999600835
- -2.295523604657089
- 0.06699228468602975
- 2.160544380977363
- -0.1682568760119463
- 0.0
- 0.0
velocity:
- 0.07461934506819742
- -0.05452002004002144
- 0.046479494452187374
- -0.04121269442192014
- 0.09279719157553787
- -0.001910416081571415
- -0.19921734070192706
- 0.0
- 0.0
effort:
- 0.705876350402832
- -25.275239944458008
- -0.3401297926902771
- 21.538251876831055
- 1.1142154932022095
- 2.2432405948638916
- -0.2463906854391098
- 0.0
- 0.0
---
header:
  stamp:
    sec: 1756281704
    nanosec: 486330009
  frame_id: ''
name:
- fr3_joint1
- fr3_joint2
- fr3_joint3
- fr3_joint4
- fr3_joint5
- fr3_joint6
- fr3_joint7
- fr3_finger_joint1
- fr3_finger_joint2
position:
- -0.09069473623187128
- -0.14541509992392226
- 0.13895521612506703
- -2.2968963121255577
- 0.06978951467034261
- 2.1604698376357967
- -0.1749720236035037
- 0.0
- 0.0
velocity:
- 0.06465237421633552
- -0.053780353970887367
- 0.054614419967864876
- -0.04049515599070544
- 0.08405461221521038
- -0.002648893042865693
- -0.21891577631129835
- 0.0
- 0.0
effort:
- 0.551152229309082
- -25.303010940551758
- -0.5186576247215271
- 21.772321701049805
- 1.1270328760147095
- 2.2633821964263916
- -0.327872633934021
- 0.0
- 0.0
---
header:
  stamp:
    sec: 1756281704
    nanosec: 519683874
  frame_id: ''
name:
- fr3_joint1
- fr3_joint2
- fr3_joint3
- fr3_joint4
- fr3_joint5
- fr3_joint6
- fr3_joint7
- fr3_finger_joint1
- fr3_finger_joint2
position:
- -0.08834359749835599
- -0.147210610012033
- 0.14072752123184842
- -2.298325980017839
- 0.07268470065247253
- 2.1603008165494106
- -0.18240803017926893
- 0.0
- 0.0
velocity:
- 0.07188161376895624
- -0.0503195742684805
- 0.047220070321526704
- -0.038159731127343645
- 0.08360608961014072
- -0.00761741701462796
- -0.19987177082549198
- 0.0
- 0.0
effort:
- 0.654301643371582
- -25.223665237426758
- -0.4948539137840271
- 22.010358810424805
- 1.1728092432022095
- 2.3036653995513916
- -0.2189248651266098
- 0.0
- 0.0
---
header:
  stamp:
    sec: 1756281704
    nanosec: 553004367
  frame_id: ''
name:
- fr3_joint1
- fr3_joint2
- fr3_joint3
- fr3_joint4
- fr3_joint5
- fr3_joint6
- fr3_joint7
- fr3_finger_joint1
- fr3_finger_joint2
position:
- -0.08601475931203724
- -0.14888992143519483
- 0.14232361799329404
- -2.2995779471884688
- 0.07544471392607528
- 2.1601592274378563
- -0.18875628834845162
- 0.0
- 0.0
velocity:
- 0.06984582257253238
- -0.052228581550613926
- 0.05072908282582529
- -0.04047163413131976
- 0.08132176228568534
- -0.004845720659410643
- -0.20063657190451425
- 0.0
- 0.0
effort:
- 0.654301643371582
- -25.481538772583008
- -0.5464286208152771
- 21.903242111206055
- 1.1471744775772095
- 2.2761995792388916
- -0.2463906854391098
- 0.0
- 0.0
---
header:
  stamp:
    sec: 1756281704
    nanosec: 586442740
  frame_id: ''
name:
- fr3_joint1
- fr3_joint2
- fr3_joint3
- fr3_joint4
- fr3_joint5
- fr3_joint6
- fr3_joint7
- fr3_finger_joint1
- fr3_finger_joint2
position:
- -0.08361517770013192
- -0.15074019903570685
- 0.1438157341379517
- -2.3009212512778867
- 0.07815455636121554
- 2.1600314136891834
- -0.19598593398612182
- 0.0
- 0.0
velocity:
- 0.07668692836864514
- -0.05635651623319321
- 0.04228874112733552
- -0.04056941094549385
- 0.08119318106401012
- -0.005112595036020661
- -0.23389404928856
- 0.0
- 0.0
effort:
- 0.729680061340332
- -25.505342483520508
- -0.5186576247215271
- 21.931013107299805
- 1.1728092432022095
- 2.2899324893951416
- -0.314139723777771
- 0.0
- 0.0
---
header:
  stamp:
    sec: 1756281704
    nanosec: 619761248
  frame_id: ''
name:
- fr3_joint1
- fr3_joint2
- fr3_joint3
- fr3_joint4
- fr3_joint5
- fr3_joint6
- fr3_joint7
- fr3_finger_joint1
- fr3_finger_joint2
position:
- -0.08101913689482072
- -0.152723020392555
- 0.14530204417875198
- -2.3021831205506555
- 0.08091508939758839
- 2.159860529914269
- -0.20333675448876984
- 0.0
- 0.0
velocity:
- 0.07314111427038252
- -0.05544012535003221
- 0.044646140645130415
- -0.032954658439160484
- 0.08006004005402582
- -0.004746451641253979
- -0.18521818902850606
- 0.0
- 0.0
effort:
- 0.551152229309082
- -25.251436233520508
- -0.6495780348777771
- 21.954816818237305
- 1.1865421533584595
- 2.2835237979888916
- -0.260123610496521
- 0.0
- 0.0
---
header:
  stamp:
    sec: 1756281704
    nanosec: 653347826
  frame_id: ''
name:
- fr3_joint1
- fr3_joint2
- fr3_joint3
- fr3_joint4
- fr3_joint5
- fr3_joint6
- fr3_joint7
- fr3_finger_joint1
- fr3_finger_joint2
position:
- -0.07868753701656664
- -0.15449606826894224
- 0.1467636715727788
- -2.3031604859832955
- 0.08360201527413631
- 2.1597334190864337
- -0.2094897258999301
- 0.0
- 0.0
velocity:
- 0.06976502269121602
- -0.05416903297359369
- 0.048639750235658356
- -0.030638058078917542
- 0.08260036606447244
- -0.0033218601263705497
- -0.20043499795434952
- 0.0
- 0.0
effort:
- 0.551152229309082
- -25.021333694458008
- -0.6733817458152771
- 21.800092697143555
- 1.1865421533584595
- 2.2697908878326416
- -0.280265212059021
- 0.0
- 0.0
---
header:
  stamp:
    sec: 1756281704
    nanosec: 686322226
  frame_id: ''
name:
- fr3_joint1
- fr3_joint2
- fr3_joint3
- fr3_joint4
- fr3_joint5
- fr3_joint6
- fr3_joint7
- fr3_finger_joint1
- fr3_finger_joint2
position:
- -0.07654552602814384
- -0.15623663828413778
- 0.14837059165825886
- -2.3041214633547713
- 0.08635660056642169
- 2.1596625982854767
- -0.21664269018966748
- 0.0
- 0.0
velocity:
- 0.0655427922479724
- -0.05214213392092203
- 0.047428761239924684
- -0.02966981533067425
- 0.08619940659216441
- -0.0015031286053392974
- -0.2222809974102604
- 0.0
- 0.0
effort:
- 0.47577381134033203
- -24.767427444458008
- -0.8043021559715271
- 21.617597579956055
- 1.2121769189834595
- 2.2368319034576416
- -0.2189248651266098
- 0.0
- 0.0
---
header:
  stamp:
    sec: 1756281704
    nanosec: 719622739
  frame_id: ''
name:
- fr3_joint1
- fr3_joint2
- fr3_joint3
- fr3_joint4
- fr3_joint5
- fr3_joint6
- fr3_joint7
- fr3_finger_joint1
- fr3_finger_joint2
position:
- -0.07407450302504663
- -0.15804623692101966
- 0.14980407635644483
- -2.305226014217216
- 0.08920378017775885
- 2.159613133879508
- -0.22366422844583667
- 0.0
- 0.0
velocity:
- 0.07189645618518056
- -0.05407774888906455
- 0.04066690996898921
- -0.033176118048356934
- 0.08152195707342882
- -0.0026217848219764303
- -0.1992041416931578
- 0.0
- 0.0
effort:
- 0.678105354309082
- -24.945955276489258
- -0.5702323317527771
- 21.748517990112305
- 1.2387272119522095
- 2.2496492862701416
- -0.260123610496521
- 0.0
- 0.0
---
header:
  stamp:
    sec: 1756281704
    nanosec: 752992448
  frame_id: ''
name:
- fr3_joint1
- fr3_joint2
- fr3_joint3
- fr3_joint4
- fr3_joint5
- fr3_joint6
- fr3_joint7
- fr3_finger_joint1
- fr3_finger_joint2
position:
- -0.07170917980335231
- -0.1597896178618981
- 0.15113689915951492
- -2.3063791021720306
- 0.09203074851139612
- 2.1595605914216245
- -0.23015723568979038
- 0.0
- 0.0
velocity:
- 0.0738996922907578
- -0.05576388654625213
- 0.039030770225665194
- -0.037569364050747706
- 0.08696347206014322
- -0.0019989325134846165
- -0.21051109527205125
- 0.0
- 0.0
effort:
- 0.935978889465332
- -24.870576858520508
- -0.3401297926902771
- 21.748517990112305
- 1.2057682275772095
- 2.2230989933013916
- -0.306815505027771
- 0.0
- 0.0
---
header:
  stamp:
    sec: 1756281704
    nanosec: 786370908
  frame_id: ''
name:
- fr3_joint1
- fr3_joint2
- fr3_joint3
- fr3_joint4
- fr3_joint5
- fr3_joint6
- fr3_joint7
- fr3_finger_joint1
- fr3_finger_joint2
position:
- -0.06917696486459882
- -0.1615729152089626
- 0.15238264697213322
- -2.307559471703328
- 0.09490576574348564
- 2.1594505859009123
- -0.23796033784268142
- 0.0
- 0.0
velocity:
- 0.07594822108436952
- -0.05746775078515364
- 0.04035397148101318
- -0.03565777922004447
- 0.0827021305420569
- -0.003609912918850236
- -0.231743713216844
- 0.0
- 0.0
effort:
- 0.959782600402832
- -24.945955276489258
- -0.2092093825340271
- 21.748517990112305
- 1.1535831689834595
- 2.2432405948638916
- -0.2390664666891098
- 0.0
- 0.0
---
header:
  stamp:
    sec: 1756281704
    nanosec: 819728392
  frame_id: ''
name:
- fr3_joint1
- fr3_joint2
- fr3_joint3
- fr3_joint4
- fr3_joint5
- fr3_joint6
- fr3_joint7
- fr3_finger_joint1
- fr3_finger_joint2
position:
- -0.06667450436198802
- -0.16359499837362448
- 0.15401127536128245
- -2.308912180516131
- 0.09789498753922543
- 2.159314348494565
- -0.24492172862857678
- 0.0
- 0.0
velocity:
- 0.07502007465270147
- -0.06148698321374252
- 0.046740706800427176
- -0.0417076764296142
- 0.08661345342277632
- -0.005972776935814656
- -0.1972031969392145
- 0.0
- 0.0
effort:
- 0.757451057434082
- -24.791231155395508
- -0.5186576247215271
- 21.931013107299805
- 1.1334415674209595
- 2.2761995792388916
- -0.320548415184021
- 0.0
- 0.0
---
header:
  stamp:
    sec: 1756281704
    nanosec: 852993697
  frame_id: ''
name:
- fr3_joint1
- fr3_joint2
- fr3_joint3
- fr3_joint4
- fr3_joint5
- fr3_joint6
- fr3_joint7
- fr3_finger_joint1
- fr3_finger_joint2
position:
- -0.0643799592168744
- -0.16555999934440677
- 0.15569412864174814
- -2.310208260076804
- 0.10072972132471336
- 2.159151296316631
- -0.2514504855070904
- 0.0
- 0.0
velocity:
- 0.06564703599550206
- -0.0579415820506383
- 0.05610579865641233
- -0.03824089955229608
- 0.09193041220093918
- -0.006269863584902106
- -0.2080895996073063
- 0.0
- 0.0
effort:
- 0.527348518371582
- -24.565095901489258
- -0.8281058669090271
- 22.010358810424805
- 1.1728092432022095
- 2.2963411808013916
- -0.266532301902771
- 0.0
- 0.0
---
header:
  stamp:
    sec: 1756281704
    nanosec: 886413283
  frame_id: ''
name:
- fr3_joint1
- fr3_joint2
- fr3_joint3
- fr3_joint4
- fr3_joint5
- fr3_joint6
- fr3_joint7
- fr3_finger_joint1
- fr3_finger_joint2
position:
- -0.06212767596163251
- -0.1674079214348629
- 0.1573518327195243
- -2.311387944974266
- 0.1037105055049728
- 2.1590124685699337
- -0.2586302947887524
- 0.0
- 0.0
velocity:
- 0.07402721221036151
- -0.05469050266729524
- 0.04669741124304564
- -0.033905588586680996
- 0.08997794383013633
- -0.005249825733653058
- -0.21154687131064168
- 0.0
- 0.0
effort:
- 0.47577381134033203
- -24.461946487426758
- -0.8558768630027771
- 21.954816818237305
- 1.1535831689834595
- 2.2633821964263916
- -0.272940993309021
- 0.0
- 0.0
---
header:
  stamp:
    sec: 1756281704
    nanosec: 919582751
  frame_id: ''
name:
- fr3_joint1
- fr3_joint2
- fr3_joint3
- fr3_joint4
- fr3_joint5
- fr3_joint6
- fr3_joint7
- fr3_finger_joint1
- fr3_finger_joint2
position:
- -0.05960578328864402
- -0.1692679646662829
- 0.1589200221581775
- -2.3125720471054034
- 0.10673334816091247
- 2.158873191927965
- -0.2653986722142211
- 0.0
- 0.0
velocity:
- 0.07309069470769916
- -0.05247751727936009
- 0.044281058792170015
- -0.0341812141174763
- 0.08294855943316519
- -0.0030111347933730217
- -0.19201319575899928
- 0.0
- 0.0
effort:
- 0.578923225402832
- -24.358797073364258
- -0.7765311598777771
- 21.510480880737305
- 1.1471744775772095
- 2.2230989933013916
- -0.293998122215271
- 0.0
- 0.0
---
header:
  stamp:
    sec: 1756281704
    nanosec: 953438278
  frame_id: ''
name:
- fr3_joint1
- fr3_joint2
- fr3_joint3
- fr3_joint4
- fr3_joint5
- fr3_joint6
- fr3_joint7
- fr3_finger_joint1
- fr3_finger_joint2
position:
- -0.05711777305671432
- -0.17098316135951044
- 0.1603249303382529
- -2.3138235122908863
- 0.10964335173887363
- 2.1587833189150882
- -0.2723752943778197
- 0.0
- 0.0
velocity:
- 0.0787080071672662
- -0.05315814063843087
- 0.0420903614355886
- -0.040850583524076646
- 0.09023906034107029
- -0.0020522742717756395
- -0.23348370127853293
- 0.0
- 0.0
effort:
- 0.678105354309082
- -24.513521194458008
- -0.6733817458152771
- 21.720746994018555
- 1.1142154932022095
- 2.2368319034576416
- -0.293998122215271
- 0.0
- 0.0
---
header:
  stamp:
    sec: 1756281704
    nanosec: 986338843
  frame_id: ''
name:
- fr3_joint1
- fr3_joint2
- fr3_joint3
- fr3_joint4
- fr3_joint5
- fr3_joint6
- fr3_joint7
- fr3_finger_joint1
- fr3_finger_joint2
position:
- -0.054684190343534875
- -0.1726721281441075
- 0.16176138208399177
- -2.315174729743925
- 0.11254803577543566
- 2.158673079132779
- -0.2799654494419694
- 0.0
- 0.0
velocity:
- 0.06983262270137991
- -0.05081270728316567
- 0.045277591697091765
- -0.04035649930411833
- 0.09023319728818344
- -0.003528848273032751
- -0.20737953145226468
- 0.0
- 0.0
effort:
- 0.654301643371582
- -24.513521194458008
- -0.7249564528465271
- 21.800092697143555
- 1.1270328760147095
- 2.2569735050201416
- -0.334281325340271
- 0.0
- 0.0
---
header:
  stamp:
    sec: 1756281705
    nanosec: 19735266
  frame_id: ''
name:
- fr3_joint1
- fr3_joint2
- fr3_joint3
- fr3_joint4
- fr3_joint5
- fr3_joint6
- fr3_joint7
- fr3_finger_joint1
- fr3_finger_joint2
position:
- -0.05218964274586895
- -0.174435259585416
- 0.16332662510948467
- -2.316516077616285
- 0.11535816739105371
- 2.158467819408918
- -0.28643972422834524
- 0.0
- 0.0
velocity:
- 0.07209118517838818
- -0.05138260623762647
- 0.04683519739055483
- -0.038638858287547886
- 0.08226307374238372
- -0.0045235254976254725
- -0.18940339618936355
- 0.0
- 0.0
effort:
- 0.578923225402832
- -24.692049026489258
- -0.8043021559715271
- 21.931013107299805
- 1.1334415674209595
- 2.2633821964263916
- -0.266532301902771
- 0.0
- 0.0
---
header:
  stamp:
    sec: 1756281705
    nanosec: 53285007
  frame_id: ''
name:
- fr3_joint1
- fr3_joint2
- fr3_joint3
- fr3_joint4
- fr3_joint5
- fr3_joint6
- fr3_joint7
- fr3_finger_joint1
- fr3_finger_joint2
position:
- -0.05008563896428035
- -0.176250464342437
- 0.16496676341066785
- -2.3178397198808995
- 0.117968832169264
- 2.158337292854091
- -0.29344911081574016
- 0.0
- 0.0
velocity:
- 0.06555234115736344
- -0.056793732995314525
- 0.0472374231865512
- -0.042942331233741304
- 0.07582914671408872
- -0.002802367248400848
- -0.22995292283535151
- 0.0
- 0.0
effort:
- 0.805058479309082
- -24.513521194458008
- -0.7249564528465271
- 22.113508224487305
- 1.1535831689834595
- 2.2697908878326416
- -0.260123610496521
- 0.0
- 0.0
---
header:
  stamp:
    sec: 1756281705
    nanosec: 86400769
  frame_id: ''
name:
- fr3_joint1
- fr3_joint2
- fr3_joint3
- fr3_joint4
- fr3_joint5
- fr3_joint6
- fr3_joint7
- fr3_finger_joint1
- fr3_finger_joint2
position:
- -0.04782970187775272
- -0.17821015188619632
- 0.16644875543771623
- -2.319179145684066
- 0.12056312507788965
- 2.1581923006256454
- -0.3004073515588831
- 0.0
- 0.0
velocity:
- 0.06966362838437352
- -0.06015898422213739
- 0.044637126532907904
- -0.03926583666243171
- 0.08351469514359458
- -0.004944914186093661
- -0.2071642585716008
- 0.0
- 0.0
effort:
- 0.757451057434082
- -24.132661819458008
- -0.6218070387840271
- 21.931013107299805
- 1.1407657861709595
- 2.2697908878326416
- -0.280265212059021
- 0.0
- 0.0
---
header:
  stamp:
    sec: 1756281705
    nanosec: 119694402
  frame_id: ''
name:
- fr3_joint1
- fr3_joint2
- fr3_joint3
- fr3_joint4
- fr3_joint5
- fr3_joint6
- fr3_joint7
- fr3_finger_joint1
- fr3_finger_joint2
position:
- -0.04531427753461777
- -0.18019559143488892
- 0.16795555369330276
- -2.320504867749655
- 0.12358543879234958
- 2.1580851109347865
- -0.307229287209791
- 0.0
- 0.0
velocity:
- 0.07478652531767706
- -0.055967785633306
- 0.04227619275960718
- -0.036683088336719884
- 0.08488385984516413
- -0.0022775128991686577
- -0.20087287567860385
- 0.0
- 0.0
effort:
- 0.935978889465332
- -24.005708694458008
- -0.4670829176902771
- 21.720746994018555
- 1.1599918603897095
- 2.2102816104888916
- -0.2463906854391098
- 0.0
- 0.0
---
header:
  stamp:
    sec: 1756281705
    nanosec: 153357705
  frame_id: ''
name:
- fr3_joint1
- fr3_joint2
- fr3_joint3
- fr3_joint4
- fr3_joint5
- fr3_joint6
- fr3_joint7
- fr3_finger_joint1
- fr3_finger_joint2
position:
- -0.04274164529117286
- -0.1819803329923137
- 0.16926935498234996
- -2.3217808622857468
- 0.12630029692292974
- 2.1580194983398844
- -0.31482796753971853
- 0.0
- 0.0
velocity:
- 0.07806312202578265
- -0.05386203999949585
- 0.042053704786497934
- -0.04147002245850774
- 0.08021014068597568
- -0.0028400434190193917
- -0.24453388221638672
- 0.0
- 0.0
effort:
- 0.781254768371582
- -23.850984573364258
- -0.5464286208152771
- 21.641401290893555
- 1.1664005517959595
- 2.2368319034576416
- -0.280265212059021
- 0.0
- 0.0
---
header:
  stamp:
    sec: 1756281705
    nanosec: 186297866
  frame_id: ''
name:
- fr3_joint1
- fr3_joint2
- fr3_joint3
- fr3_joint4
- fr3_joint5
- fr3_joint6
- fr3_joint7
- fr3_finger_joint1
- fr3_finger_joint2
position:
- -0.04029065654069801
- -0.18367786393178698
- 0.1707999172975619
- -2.3231332768251263
- 0.12899934755300882
- 2.1579373153341863
- -0.3216602914035352
- 0.0
- 0.0
velocity:
- 0.07830043644948045
- -0.0480463722463673
- 0.045483177461898845
- -0.041387772385070354
- 0.08381538155527499
- -0.0022260058776473533
- -0.19296397393890904
- 0.0
- 0.0
effort:
- 0.602726936340332
- -24.081087112426758
- -0.8558768630027771
- 21.903242111206055
- 1.1865421533584595
- 2.2368319034576416
- -0.286673903465271
- 0.0
- 0.0
---
header:
  stamp:
    sec: 1756281705
    nanosec: 219780729
  frame_id: ''
name:
- fr3_joint1
- fr3_joint2
- fr3_joint3
- fr3_joint4
- fr3_joint5
- fr3_joint6
- fr3_joint7
- fr3_finger_joint1
- fr3_finger_joint2
position:
- -0.0378235427461297
- -0.18543700248124037
- 0.1725075380672188
- -2.324542280230406
- 0.13202333974817418
- 2.1577724443945656
- -0.3285060422680049
- 0.0
- 0.0
velocity:
- 0.06746621106372293
- -0.05230598165639021
- 0.05145545000057038
- -0.03882676134333532
- 0.09497893809340618
- -0.005620714516129588
- -0.19484006065499582
- 0.0
- 0.0
effort:
- 0.42419910430908203
- -24.029512405395508
- -1.0621757507324219
- 22.034162521362305
- 1.1728092432022095
- 2.2835237979888916
- -0.348014235496521
- 0.0
- 0.0
---
header:
  stamp:
    sec: 1756281705
    nanosec: 252971146
  frame_id: ''
name:
- fr3_joint1
- fr3_joint2
- fr3_joint3
- fr3_joint4
- fr3_joint5
- fr3_joint6
- fr3_joint7
- fr3_finger_joint1
- fr3_finger_joint2
position:
- -0.03549083083877786
- -0.1871156015904168
- 0.17405051886536738
- -2.32582227713746
- 0.13492747910889819
- 2.1576322882406287
- -0.33569678178671986
- 0.0
- 0.0
velocity:
- 0.0756135510275024
- -0.052715802540463735
- 0.044360702933121214
- -0.038200549973985566
- 0.08931389462773079
- -0.005080155267533133
- -0.21900426652483646
- 0.0
- 0.0
effort:
- 0.551152229309082
- -24.029512405395508
- -0.9312552809715271
- 21.879438400268555
- 1.1407657861709595
- 2.2496492862701416
- -0.368155837059021
- 0.0
- 0.0
---
header:
  stamp:
    sec: 1756281705
    nanosec: 286287597
  frame_id: ''
name:
- fr3_joint1
- fr3_joint2
- fr3_joint3
- fr3_joint4
- fr3_joint5
- fr3_joint6
- fr3_joint7
- fr3_finger_joint1
- fr3_finger_joint2
position:
- -0.03317713044361088
- -0.18892455663428362
- 0.1755597973858073
- -2.3271610567272583
- 0.1377052222420393
- 2.1574934604858074
- -0.34226648966035383
- 0.0
- 0.0
velocity:
- 0.06953549711391382
- -0.058397983577461225
- 0.0463800597515504
- -0.04196341132199158
- 0.08176948250208384
- -0.006894022093571346
- -0.18975718663409452
- 0.0
- 0.0
effort:
- 0.578923225402832
- -24.156465530395508
- -1.0106010437011719
- 21.954816818237305
- 1.1471744775772095
- 2.2633821964263916
- -0.340690016746521
- 0.0
- 0.0
---
header:
  stamp:
    sec: 1756281705
    nanosec: 319711973
  frame_id: ''
name:
- fr3_joint1
- fr3_joint2
- fr3_joint3
- fr3_joint4
- fr3_joint5
- fr3_joint6
- fr3_joint7
- fr3_finger_joint1
- fr3_finger_joint2
position:
- -0.030650917373094017
- -0.19099665888213307
- 0.17703146366031644
- -2.3284585965745426
- 0.1406063907386285
- 2.157311972116102
- -0.3493193443510249
- 0.0
- 0.0
velocity:
- 0.07292864642860886
- -0.061422029956232894
- 0.04168658388815025
- -0.03356240395278094
- 0.08743882901370928
- -0.004519994480008318
- -0.22638299855194965
- 0.0
- 0.0
effort:
- 0.805058479309082
- -23.954133987426758
- -0.7765311598777771
- 22.244428634643555
- 1.1535831689834595
- 2.3100740909576416
- -0.266532301902771
- 0.0
- 0.0
---
header:
  stamp:
    sec: 1756281705
    nanosec: 352970287
  frame_id: ''
name:
- fr3_joint1
- fr3_joint2
- fr3_joint3
- fr3_joint4
- fr3_joint5
- fr3_joint6
- fr3_joint7
- fr3_finger_joint1
- fr3_finger_joint2
position:
- -0.028323184760855637
- -0.19291512159876684
- 0.17850375074817973
- -2.329421843526071
- 0.14349080932591246
- 2.1571676470519
- -0.3570378579883067
- 0.0
- 0.0
velocity:
- 0.07015186690460234
- -0.058518466151436604
- 0.046783621754736
- -0.028702758347355223
- 0.09480191455359835
- -0.0028226584201526033
- -0.22292006810765647
- 0.0
- 0.0
effort:
- 0.757451057434082
- -23.827180862426758
- -0.8043021559715271
- 21.954816818237305
- 1.1471744775772095
- 2.2697908878326416
- -0.272940993309021
- 0.0
- 0.0
---
header:
  stamp:
    sec: 1756281705
    nanosec: 386431491
  frame_id: ''
name:
- fr3_joint1
- fr3_joint2
- fr3_joint3
- fr3_joint4
- fr3_joint5
- fr3_joint6
- fr3_joint7
- fr3_finger_joint1
- fr3_finger_joint2
position:
- -0.026068186940186675
- -0.19481703348106835
- 0.18007304281677056
- -2.3303793165607236
- 0.14634978130542087
- 2.1571031377282903
- -0.3632680507662936
- 0.0
- 0.0
velocity:
- 0.06877379047139412
- -0.05755589210517804
- 0.05205808385023553
- -0.030422828654678824
- 0.09025066190275648
- -0.0009298443455452745
- -0.181936330368455
- 0.0
- 0.0
effort:
- 0.654301643371582
- -23.545503616333008
- -0.9867972731590271
- 21.800092697143555
- 1.1599918603897095
- 2.2304232120513916
- -0.354422926902771
- 0.0
- 0.0
---
header:
  stamp:
    sec: 1756281705
    nanosec: 419710505
  frame_id: ''
name:
- fr3_joint1
- fr3_joint2
- fr3_joint3
- fr3_joint4
- fr3_joint5
- fr3_joint6
- fr3_joint7
- fr3_finger_joint1
- fr3_finger_joint2
position:
- -0.02383740623624836
- -0.19674184566557004
- 0.1818087142642006
- -2.33147109737623
- 0.14929056078801342
- 2.1570347467450888
- -0.3702429937988019
- 0.0
- 0.0
velocity:
- 0.06499415810319772
- -0.0535950897370005
- 0.046639199279311455
- -0.032788461695792234
- 0.08728562054780512
- -0.0029406646547689894
- -0.2162303944675565
- 0.0
- 0.0
effort:
- 0.729680061340332
- -23.624849319458008
- -0.9312552809715271
- 21.748517990112305
- 1.1270328760147095
- 2.2432405948638916
- -0.374564528465271
- 0.0
- 0.0
---
header:
  stamp:
    sec: 1756281705
    nanosec: 453373970
  frame_id: ''
name:
- fr3_joint1
- fr3_joint2
- fr3_joint3
- fr3_joint4
- fr3_joint5
- fr3_joint6
- fr3_joint7
- fr3_finger_joint1
- fr3_finger_joint2
position:
- -0.021484341923269305
- -0.19849684255306554
- 0.18323453717585028
- -2.332615531198909
- 0.15205321702839908
- 2.156973656345532
- -0.37723958125708446
- 0.0
- 0.0
velocity:
- 0.07376061947192235
- -0.05364295152328747
- 0.04193292263988467
- -0.037030878448396455
- 0.08451857815317661
- -0.0022042329066708035
- -0.20274342722398167
- 0.0
- 0.0
effort:
- 0.757451057434082
- -23.648653030395508
- -0.9867972731590271
- 21.748517990112305
- 1.1728092432022095
- 2.2304232120513916
- -0.374564528465271
- 0.0
- 0.0
---
header:
  stamp:
    sec: 1756281705
    nanosec: 486317615
  frame_id: ''
name:
- fr3_joint1
- fr3_joint2
- fr3_joint3
- fr3_joint4
- fr3_joint5
- fr3_joint6
- fr3_joint7
- fr3_finger_joint1
- fr3_finger_joint2
position:
- -0.01900808968913398
- -0.20025763225643214
- 0.18456740651596093
- -2.3338107554541816
- 0.1547789767540642
- 2.156851172296553
- -0.38370564197461
- 0.0
- 0.0
velocity:
- 0.07666161805911134
- -0.05386393379098059
- 0.03929349068492964
- -0.03621867207551114
- 0.083303960893139
- -0.003293062509388761
- -0.191127563493431
- 0.0
- 0.0
effort:
- 0.805058479309082
- -23.394746780395508
- -0.7527274489402771
- 21.931013107299805
- 1.1535831689834595
- 2.2633821964263916
- -0.320548415184021
- 0.0
- 0.0
---
header:
  stamp:
    sec: 1756281705
    nanosec: 519606097
  frame_id: ''
name:
- fr3_joint1
- fr3_joint2
- fr3_joint3
- fr3_joint4
- fr3_joint5
- fr3_joint6
- fr3_joint7
- fr3_finger_joint1
- fr3_finger_joint2
position:
- -0.016245257100736914
- -0.20216681898735997
- 0.18589155083814843
- -2.3351471490947775
- 0.15762468211327582
- 2.156733938182737
- -0.3912927266495297
- 0.0
- 0.0
velocity:
- 0.07787493518172377
- -0.058638699922987696
- 0.041596548428156035
- -0.041131019111873064
- 0.07697041468694786
- -0.004217069057857877
- -0.24654844642939047
- 0.0
- 0.0
effort:
- 0.678105354309082
- -23.497896194458008
- -0.8796805739402771
- 22.061933517456055
- 1.1929508447647095
- 2.2899324893951416
- -0.260123610496521
- 0.0
- 0.0
---
header:
  stamp:
    sec: 1756281705
    nanosec: 552968865
  frame_id: ''
name:
- fr3_joint1
- fr3_joint2
- fr3_joint3
- fr3_joint4
- fr3_joint5
- fr3_joint6
- fr3_joint7
- fr3_finger_joint1
- fr3_finger_joint2
position:
- -0.013848968602069385
- -0.20406524603145906
- 0.1873977503359277
- -2.3364373583406928
- 0.16026732515240796
- 2.1565989035826805
- -0.39868085407277243
- 0.0
- 0.0
velocity:
- 0.07335776683359757
- -0.05990651597452798
- 0.04852911016716078
- -0.03742090048550309
- 0.08461181010003203
- -0.003951171602901179
- -0.20359506448966302
- 0.0
- 0.0
effort:
- 0.626530647277832
- -23.240022659301758
- -1.0899467468261719
- 22.034162521362305
- 1.1929508447647095
- 2.2569735050201416
- -0.300406813621521
- 0.0
- 0.0
---
header:
  stamp:
    sec: 1756281705
    nanosec: 586450884
  frame_id: ''
name:
- fr3_joint1
- fr3_joint2
- fr3_joint3
- fr3_joint4
- fr3_joint5
- fr3_joint6
- fr3_joint7
- fr3_finger_joint1
- fr3_finger_joint2
position:
- -0.011578843107354858
- -0.20587896814693113
- 0.1890658272648543
- -2.3375687254346205
- 0.1630563370277319
- 2.1564657337733015
- -0.4052078177170473
- 0.0
- 0.0
velocity:
- 0.06532914641548367
- -0.054740507983893995
- 0.05187585480180341
- -0.03426136452688216
- 0.08447372809839886
- -0.0042071883156579734
- -0.19512832840830202
- 0.0
- 0.0
effort:
- 0.44800281524658203
- -23.267793655395508
- -1.2446708679199219
- 22.010358810424805
- 1.1664005517959595
- 2.2761995792388916
- -0.334281325340271
- 0.0
- 0.0
---
header:
  stamp:
    sec: 1756281705
    nanosec: 619741674
  frame_id: ''
name:
- fr3_joint1
- fr3_joint2
- fr3_joint3
- fr3_joint4
- fr3_joint5
- fr3_joint6
- fr3_joint7
- fr3_finger_joint1
- fr3_finger_joint2
position:
- -0.009252555901138416
- -0.207772410468051
- 0.1908076538317878
- -2.338793836585013
- 0.16600924896307975
- 2.1563856831781547
- -0.4126083075888026
- 0.0
- 0.0
velocity:
- 0.06738745719566538
- -0.05482780873369283
- 0.0496520585276913
- -0.035812219470468455
- 0.08417907801739465
- -0.002032695011357158
- -0.22576908589452602
- 0.0
- 0.0
effort:
- 0.705876350402832
- -23.089265823364258
- -0.9867972731590271
- 21.772321701049805
- 1.1599918603897095
- 2.2432405948638916
- -0.354422926902771
- 0.0
- 0.0
---
header:
  stamp:
    sec: 1756281705
    nanosec: 653479604
  frame_id: ''
name:
- fr3_joint1
- fr3_joint2
- fr3_joint3
- fr3_joint4
- fr3_joint5
- fr3_joint6
- fr3_joint7
- fr3_finger_joint1
- fr3_finger_joint2
position:
- -0.006993998857882405
- -0.20948221638718617
- 0.1923778019209486
- -2.3400439490522915
- 0.16879446697138648
- 2.1563425066226176
- -0.41946714825139203
- 0.0
- 0.0
velocity:
- 0.07047480835125214
- -0.052913252948913914
- 0.04952448486153559
- -0.03727980706634349
- 0.08464667220849431
- -0.0014939493076668625
- -0.19482466957614922
- 0.0
- 0.0
effort:
- 0.705876350402832
- -23.140840530395508
- -1.0383720397949219
- 21.720746994018555
- 1.1865421533584595
- 2.2304232120513916
- -0.2463906854391098
- 0.0
- 0.0
---
header:
  stamp:
    sec: 1756281705
    nanosec: 686299120
  frame_id: ''
name:
- fr3_joint1
- fr3_joint2
- fr3_joint3
- fr3_joint4
- fr3_joint5
- fr3_joint6
- fr3_joint7
- fr3_finger_joint1
- fr3_finger_joint2
position:
- -0.004505856477305859
- -0.2111283897492332
- 0.1937693018751965
- -2.341379767521915
- 0.17169477782297107
- 2.1562698390297355
- -0.4259282678699665
- 0.0
- 0.0
velocity:
- 0.077612910981524
- -0.051374496710291394
- 0.04127940440346742
- -0.040006294563606284
- 0.08872293378700326
- -0.0015250003682277169
- -0.20991425143419107
- 0.0
- 0.0
effort:
- 0.805058479309082
- -23.065462112426758
- -0.9074515700340271
- 21.879438400268555
- 1.1535831689834595
- 2.2230989933013916
- -0.327872633934021
- 0.0
- 0.0
---
header:
  stamp:
    sec: 1756281705
    nanosec: 719830899
  frame_id: ''
name:
- fr3_joint1
- fr3_joint2
- fr3_joint3
- fr3_joint4
- fr3_joint5
- fr3_joint6
- fr3_joint7
- fr3_finger_joint1
- fr3_finger_joint2
position:
- -0.0019983015060268156
- -0.21289298831848544
- 0.19537791002996055
- -2.3427141462954424
- 0.1745651645239844
- 2.1561050725876174
- -0.43401899071631167
- 0.0
- 0.0
velocity:
- 0.07211266758423762
- -0.05260699838340544
- 0.045131140793351905
- -0.03802953666374075
- 0.0802646140463949
- -0.005975174748282017
- -0.23585725161703472
- 0.0
- 0.0
effort:
- 0.705876350402832
- -23.089265823364258
- -1.0621757507324219
- 22.085737228393555
- 1.1865421533584595
- 2.2633821964263916
- -0.314139723777771
- 0.0
- 0.0
---
header:
  stamp:
    sec: 1756281705
    nanosec: 753421799
  frame_id: ''
name:
- fr3_joint1
- fr3_joint2
- fr3_joint3
- fr3_joint4
- fr3_joint5
- fr3_joint6
- fr3_joint7
- fr3_finger_joint1
- fr3_finger_joint2
position:
- 0.0003686934049707445
- -0.21467907005545614
- 0.19689654877361584
- -2.3439829468788296
- 0.17734574406807407
- 2.1559921806840325
- -0.44060587713327654
- 0.0
- 0.0
velocity:
- 0.06966709543956885
- -0.05765945219100416
- 0.04872835872194558
- -0.04075892143125659
- 0.08443405673164404
- -0.005969027328172611
- -0.18620119941127025
- 0.0
- 0.0
effort:
- 0.578923225402832
- -23.192415237426758
- -1.2446708679199219
- 22.141279220581055
- 1.2057682275772095
- 2.3228914737701416
- -0.314139723777771
- 0.0
- 0.0
---
header:
  stamp:
    sec: 1756281705
    nanosec: 786465482
  frame_id: ''
name:
- fr3_joint1
- fr3_joint2
- fr3_joint3
- fr3_joint4
- fr3_joint5
- fr3_joint6
- fr3_joint7
- fr3_finger_joint1
- fr3_finger_joint2
position:
- 0.0026012475426218417
- -0.21664186541690988
- 0.1984425883240837
- -2.3452813451393633
- 0.18013362241622072
- 2.155835446298643
- -0.4469667563003218
- 0.0
- 0.0
velocity:
- 0.07311007410797657
- -0.061954088626294604
- 0.04314555890305349
- -0.03974394557953711
- 0.08914747479722392
- -0.003016019519887444
- -0.21223115843766727
- 0.0
- 0.0
effort:
- 0.578923225402832
- -22.986116409301758
- -1.1930961608886719
- 21.982587814331055
- 1.2387272119522095
- 2.2697908878326416
- -0.314139723777771
- 0.0
- 0.0
---
header:
  stamp:
    sec: 1756281705
    nanosec: 819588300
  frame_id: ''
name:
- fr3_joint1
- fr3_joint2
- fr3_joint3
- fr3_joint4
- fr3_joint5
- fr3_joint6
- fr3_joint7
- fr3_finger_joint1
- fr3_finger_joint2
position:
- 0.005131772320872959
- -0.2187894594085339
- 0.19997831368750354
- -2.346664434980785
- 0.18321924259521455
- 2.1557327696403625
- -0.4546418181424518
- 0.0
- 0.0
velocity:
- 0.0711450025179897
- -0.06124515324518538
- 0.045151939506568116
- -0.03852511499464615
- 0.08485937536693818
- -0.001001512681994843
- -0.20791214800796637
- 0.0
- 0.0
effort:
- 0.578923225402832
- -22.759981155395508
- -1.3200492858886719
- 21.800092697143555
- 1.1929508447647095
- 2.2304232120513916
- -0.306815505027771
- 0.0
- 0.0
---
header:
  stamp:
    sec: 1756281705
    nanosec: 852962640
  frame_id: ''
name:
- fr3_joint1
- fr3_joint2
- fr3_joint3
- fr3_joint4
- fr3_joint5
- fr3_joint6
- fr3_joint7
- fr3_finger_joint1
- fr3_finger_joint2
position:
- 0.007578846719305148
- -0.22071355262599274
- 0.2013040070581819
- -2.347981893422987
- 0.18597725521501027
- 2.155665064403937
- -0.46123202566919985
- 0.0
- 0.0
velocity:
- 0.07969963794760852
- -0.05831264520512455
- 0.035574220381157914
- -0.044585532514727515
- 0.0840617248842249
- -0.0010635601529558909
- -0.1946401484496983
- 0.0
- 0.0
effort:
- 0.757451057434082
- -22.553682327270508
- -1.0106010437011719
- 21.823896408081055
- 1.1993595361709595
- 2.2029573917388916
- -0.334281325340271
- 0.0
- 0.0
---
header:
  stamp:
    sec: 1756281705
    nanosec: 886355018
  frame_id: ''
name:
- fr3_joint1
- fr3_joint2
- fr3_joint3
- fr3_joint4
- fr3_joint5
- fr3_joint6
- fr3_joint7
- fr3_finger_joint1
- fr3_finger_joint2
position:
- 0.01014903975678169
- -0.22248485413955726
- 0.2025763270254109
- -2.349300783443692
- 0.18885303332433684
- 2.1555837217334277
- -0.4681957327277297
- 0.0
- 0.0
velocity:
- 0.07353594020204197
- -0.05154480716089416
- 0.04542692322873756
- -0.037435959751805
- 0.08811581580642329
- -0.004602075517365317
- -0.23747181995442387
- 0.0
- 0.0
effort:
- 0.654301643371582
- -22.553682327270508
- -1.1653251647949219
- 21.982587814331055
- 1.1801334619522095
- 2.2761995792388916
- -0.306815505027771
- 0.0
- 0.0
---
header:
  stamp:
    sec: 1756281705
    nanosec: 919574994
  frame_id: ''
name:
- fr3_joint1
- fr3_joint2
- fr3_joint3
- fr3_joint4
- fr3_joint5
- fr3_joint6
- fr3_joint7
- fr3_finger_joint1
- fr3_finger_joint2
position:
- 0.012619801934612592
- -0.224193364328149
- 0.2041837394574469
- -2.3506735716039295
- 0.19195217875663606
- 2.1554773171156842
- -0.47613628290072235
- 0.0
- 0.0
velocity:
- 0.07133033569048067
- -0.048875402994526695
- 0.04903621234797369
- -0.03737123824181582
- 0.08978611929076948
- -0.0038469788760600683
- -0.20858581674986534
- 0.0
- 0.0
effort:
- 0.626530647277832
- -22.680635452270508
- -1.2168998718261719
- 22.165082931518555
- 1.1471744775772095
- 2.2697908878326416
- -0.2463906854391098
- 0.0
- 0.0
---
header:
  stamp:
    sec: 1756281705
    nanosec: 953493170
  frame_id: ''
name:
- fr3_joint1
- fr3_joint2
- fr3_joint3
- fr3_joint4
- fr3_joint5
- fr3_joint6
- fr3_joint7
- fr3_finger_joint1
- fr3_finger_joint2
position:
- 0.014777465170348118
- -0.22581320772743643
- 0.20589815256806662
- -2.3519156523996863
- 0.19465801888276374
- 2.1553221327319663
- -0.48252664304124776
- 0.0
- 0.0
velocity:
- 0.0642727311478762
- -0.051271413573690576
- 0.05370997824082159
- -0.03688805271784118
- 0.08386905172766158
- -0.005128091920757723
- -0.1970604596614892
- 0.0
- 0.0
effort:
- 0.551152229309082
- -22.581453323364258
- -1.3716239929199219
- 21.982587814331055
- 1.1728092432022095
- 2.2835237979888916
- -0.293998122215271
- 0.0
- 0.0
---
header:
  stamp:
    sec: 1756281705
    nanosec: 986395350
  frame_id: ''
name:
- fr3_joint1
- fr3_joint2
- fr3_joint3
- fr3_joint4
- fr3_joint5
- fr3_joint6
- fr3_joint7
- fr3_finger_joint1
- fr3_finger_joint2
position:
- 0.017059109694758122
- -0.2274978060355797
- 0.20747030363367863
- -2.3532248225868013
- 0.19718408621927036
- 2.1552084628305037
- -0.4892384103950675
- 0.0
- 0.0
velocity:
- 0.07175721778958527
- -0.054557706944719585
- 0.04663455512832488
- -0.040395713392773314
- 0.0729676522957564
- -0.002585741718568197
- -0.22522350459657037
- 0.0
- 0.0
effort:
- 0.654301643371582
- -22.835359573364258
- -1.2684745788574219
- 22.034162521362305
- 1.1664005517959595
- 2.2432405948638916
- -0.340690016746521
- 0.0
- 0.0
---
header:
  stamp:
    sec: 1756281706
    nanosec: 19710544
  frame_id: ''
name:
- fr3_joint1
- fr3_joint2
- fr3_joint3
- fr3_joint4
- fr3_joint5
- fr3_joint6
- fr3_joint7
- fr3_finger_joint1
- fr3_finger_joint2
position:
- 0.019503686092432013
- -0.22948444916483537
- 0.2091055574849789
- -2.354569003241833
- 0.19996767450398734
- 2.1550468745340954
- -0.4967307925670813
- 0.0
- 0.0
velocity:
- 0.07095700643980217
- -0.061832870441552466
- 0.04404876484772908
- -0.037611781282686704
- 0.08319051005394994
- -0.005881976104096237
- -0.2008406344641323
- 0.0
- 0.0
effort:
- 0.578923225402832
- -22.859163284301758
- -1.4509696960449219
- 22.244428634643555
- 1.2185856103897095
- 2.2899324893951416
- -0.320548415184021
- 0.0
- 0.0
---
header:
  stamp:
    sec: 1756281706
    nanosec: 52965241
  frame_id: ''
name:
- fr3_joint1
- fr3_joint2
- fr3_joint3
- fr3_joint4
- fr3_joint5
- fr3_joint6
- fr3_joint7
- fr3_finger_joint1
- fr3_finger_joint2
position:
- 0.022024528237042547
- -0.23138546929148016
- 0.21044762283563498
- -2.3556165498763204
- 0.20269355212801685
- 2.1548995083168325
- -0.5029773866003855
- 0.0
- 0.0
velocity:
- 0.07800449174080633
- -0.05535024947549824
- 0.04028017752575709
- -0.03031175252506115
- 0.08435535380872446
- -0.004254179367647445
- -0.1936959181493033
- 0.0
- 0.0
effort:
- 0.757451057434082
- -22.478303909301758
- -1.1653251647949219
- 22.141279220581055
- 1.2515445947647095
- 2.2761995792388916
- -0.381888747215271
- 0.0
- 0.0
---
header:
  stamp:
    sec: 1756281706
    nanosec: 86418137
  frame_id: ''
name:
- fr3_joint1
- fr3_joint2
- fr3_joint3
- fr3_joint4
- fr3_joint5
- fr3_joint6
- fr3_joint7
- fr3_finger_joint1
- fr3_finger_joint2
position:
- 0.024398689387375258
- -0.23324276495052843
- 0.21189095990070786
- -2.3565763076863298
- 0.2054608044678256
- 2.154809567807674
- -0.5104935017275963
- 0.0
- 0.0
velocity:
- 0.07249819880203462
- -0.05789229283262005
- 0.04151257352261164
- -0.030849955431074536
- 0.08388929851410383
- -0.003065057485533527
- -0.24102873078644044
- 0.0
- 0.0
effort:
- 0.705876350402832
- -22.172822952270508
- -1.2684745788574219
- 22.034162521362305
- 1.2515445947647095
- 2.2899324893951416
- -0.320548415184021
- 0.0
- 0.0
---
header:
  stamp:
    sec: 1756281706
    nanosec: 119666700
  frame_id: ''
name:
- fr3_joint1
- fr3_joint2
- fr3_joint3
- fr3_joint4
- fr3_joint5
- fr3_joint6
- fr3_joint7
- fr3_finger_joint1
- fr3_finger_joint2
position:
- 0.02678671339282337
- -0.23514383598507868
- 0.213546551350515
- -2.3576222142381646
- 0.20841636057921364
- 2.154756550748536
- -0.5178082676215482
- 0.0
- 0.0
velocity:
- 0.06439298442827521
- -0.05377030713557549
- 0.05032855474845286
- -0.029823220432095603
- 0.08491570924351245
- -0.0011402711292026742
- -0.18315600488177808
- 0.0
- 0.0
effort:
- 0.44800281524658203
- -22.022066116333008
- -1.6056938171386719
- 21.823896408081055
- 1.2259098291397095
- 2.2432405948638916
- -0.374564528465271
- 0.0
- 0.0
---
header:
  stamp:
    sec: 1756281706
    nanosec: 152994179
  frame_id: ''
name:
- fr3_joint1
- fr3_joint2
- fr3_joint3
- fr3_joint4
- fr3_joint5
- fr3_joint6
- fr3_joint7
- fr3_finger_joint1
- fr3_finger_joint2
position:
- 0.028931058094235455
- -0.23685489928058917
- 0.21515753777033572
- -2.35869040167251
- 0.21133229506788587
- 2.154708810713513
- -0.5240161270638602
- 0.0
- 0.0
velocity:
- 0.0697584622028905
- -0.05171897469076022
- 0.046390501154205656
- -0.035894796621051626
- 0.09300266227769512
- -0.00035853001493089774
- -0.2018753948980538
- 0.0
- 0.0
effort:
- 0.626530647277832
- -22.172822952270508
- -1.5263481140136719
- 21.903242111206055
- 1.2185856103897095
- 2.2496492862701416
- -0.266532301902771
- 0.0
- 0.0
---
header:
  stamp:
    sec: 1756281706
    nanosec: 186297258
  frame_id: ''
name:
- fr3_joint1
- fr3_joint2
- fr3_joint3
- fr3_joint4
- fr3_joint5
- fr3_joint6
- fr3_joint7
- fr3_finger_joint1
- fr3_finger_joint2
position:
- 0.03125549393088309
- -0.2385739914265772
- 0.21652039693311323
- -2.3598373783112314
- 0.21413219347149307
- 2.1546302537786066
- -0.5311985797244325
- 0.0
- 0.0
velocity:
- 0.07025796157609905
- -0.05278663276072591
- 0.04142418688525634
- -0.036231710238441774
- 0.08645181036669985
- -0.0012544416788770577
- -0.21972560685986756
- 0.0
- 0.0
effort:
- 0.678105354309082
- -22.045869827270508
- -1.2962455749511719
- 21.851667404174805
- 1.2121769189834595
- 2.2304232120513916
- -0.348014235496521
- 0.0
- 0.0
---
header:
  stamp:
    sec: 1756281706
    nanosec: 219708593
  frame_id: ''
name:
- fr3_joint1
- fr3_joint2
- fr3_joint3
- fr3_joint4
- fr3_joint5
- fr3_joint6
- fr3_joint7
- fr3_finger_joint1
- fr3_finger_joint2
position:
- 0.033764619436829006
- -0.2404109037441873
- 0.21796709313035745
- -2.361157354979683
- 0.21706317456350574
- 2.1545311457724705
- -0.5383022373151347
- 0.0
- 0.0
velocity:
- 0.0744868175315124
- -0.05448907669088062
- 0.04099913674825272
- -0.04097461898456083
- 0.08533142879570131
- -0.0031304107960276554
- -0.19823074791770676
- 0.0
- 0.0
effort:
- 1.114506721496582
- -22.426729202270508
- -1.0383720397949219
- 21.954816818237305
- 1.1929508447647095
- 2.2569735050201416
- -0.293998122215271
- 0.0
- 0.0
---
header:
  stamp:
    sec: 1756281706
    nanosec: 253030917
  frame_id: ''
name:
- fr3_joint1
- fr3_joint2
- fr3_joint3
- fr3_joint4
- fr3_joint5
- fr3_joint6
- fr3_joint7
- fr3_finger_joint1
- fr3_finger_joint2
position:
- 0.0363152059907293
- -0.24234118079359673
- 0.21930024993301572
- -2.3625540101511597
- 0.21992397576877035
- 2.1544193755514143
- -0.5449628451659877
- 0.0
- 0.0
velocity:
- 0.07571927575574428
- -0.061756260347778695
- 0.04618866134578074
- -0.04274931829689438
- 0.0880660846595181
- -0.004294454962447837
- -0.2285412368253353
- 0.0
- 0.0
effort:
- 0.781254768371582
- -22.172822952270508
- -1.2684745788574219
- 22.244428634643555
- 1.2259098291397095
- 2.2963411808013916
- -0.252799391746521
- 0.0
- 0.0
---
header:
  stamp:
    sec: 1756281706
    nanosec: 286418203
  frame_id: ''
name:
- fr3_joint1
- fr3_joint2
- fr3_joint3
- fr3_joint4
- fr3_joint5
- fr3_joint6
- fr3_joint7
- fr3_finger_joint1
- fr3_finger_joint2
position:
- 0.03871627145842996
- -0.24431384829682365
- 0.22086700698387657
- -2.363836012217242
- 0.222760040011755
- 2.154268539926801
- -0.5527395763087384
- 0.0
- 0.0
velocity:
- 0.07324538551711343
- -0.05991221566453312
- 0.04930239879238967
- -0.03770435910389751
- 0.08604533834965865
- -0.0029760562322007486
- -0.21864940569753916
- 0.0
- 0.0
effort:
- 0.781254768371582
- -21.970491409301758
- -1.3200492858886719
- 22.296003341674805
- 1.2579532861709595
- 2.2899324893951416
- -0.293998122215271
- 0.0
- 0.0
---
header:
  stamp:
    sec: 1756281706
    nanosec: 319623516
  frame_id: ''
name:
- fr3_joint1
- fr3_joint2
- fr3_joint3
- fr3_joint4
- fr3_joint5
- fr3_joint6
- fr3_joint7
- fr3_finger_joint1
- fr3_finger_joint2
position:
- 0.04108241558490952
- -0.24637290137599313
- 0.2226986405058239
- -2.365072447736932
- 0.2256907426011334
- 2.1541493449322604
- -0.5596598547683191
- 0.0
- 0.0
velocity:
- 0.06784925632152519
- -0.061053163640682535
- 0.05334983845865913
- -0.03473011405500093
- 0.08291293141514222
- -0.0016989845864944955
- -0.1994815452635403
- 0.0
- 0.0
effort:
- 0.42419910430908203
- -21.613435745239258
- -1.7088432312011719
- 21.851667404174805
- 1.2451359033584595
- 2.2432405948638916
- -0.300406813621521
- 0.0
- 0.0
---
header:
  stamp:
    sec: 1756281706
    nanosec: 353491972
  frame_id: ''
name:
- fr3_joint1
- fr3_joint2
- fr3_joint3
- fr3_joint4
- fr3_joint5
- fr3_joint6
- fr3_joint7
- fr3_finger_joint1
- fr3_finger_joint2
position:
- 0.043432973990105976
- -0.24820270643707562
- 0.22425472904079266
- -2.3662750142515963
- 0.22839256993164356
- 2.1540935412641438
- -0.566206665161851
- 0.0
- 0.0
velocity:
- 0.07407543655952734
- -0.05323543570862978
- 0.04277135204061491
- -0.03653043539998389
- 0.08022697681582912
- -0.0006046669647378872
- -0.20869313202872583
- 0.0
- 0.0
effort:
- 0.49957752227783203
- -21.538057327270508
- -1.7088432312011719
- 21.823896408081055
- 1.2652775049209595
- 2.2496492862701416
- -0.348014235496521
- 0.0
- 0.0
---
header:
  stamp:
    sec: 1756281706
    nanosec: 386389113
  frame_id: ''
name:
- fr3_joint1
- fr3_joint2
- fr3_joint3
- fr3_joint4
- fr3_joint5
- fr3_joint6
- fr3_joint7
- fr3_finger_joint1
- fr3_finger_joint2
position:
- 0.04586393943878296
- -0.2499545931827406
- 0.22570509864322372
- -2.3675536818835368
- 0.23112708182785438
- 2.154029932746979
- -0.5735031670030978
- 0.0
- 0.0
velocity:
- 0.07555626894951387
- -0.053038395427456496
- 0.04142398347913489
- -0.04058657526878077
- 0.08377548114500684
- -0.004377229863265466
- -0.20765933886135296
- 0.0
- 0.0
effort:
- 0.654301643371582
- -21.768159866333008
- -1.5541191101074219
- 22.010358810424805
- 1.2780948877334595
- 2.2761995792388916
- -0.327872633934021
- 0.0
- 0.0
---
header:
  stamp:
    sec: 1756281706
    nanosec: 419730644
  frame_id: ''
name:
- fr3_joint1
- fr3_joint2
- fr3_joint3
- fr3_joint4
- fr3_joint5
- fr3_joint6
- fr3_joint7
- fr3_finger_joint1
- fr3_finger_joint2
position:
- 0.04853868278632132
- -0.2517467783332855
- 0.22714221658592418
- -2.3688683112001425
- 0.23396156543194274
- 2.1539005579420385
- -0.58027030828954
- 0.0
- 0.0
velocity:
- 0.07664754671502506
- -0.049996425087280034
- 0.04321311072872385
- -0.03784011317984676
- 0.08330252696944589
- -0.004567112659017122
- -0.19380720012489655
- 0.0
- 0.0
effort:
- 0.678105354309082
- -21.768159866333008
- -1.5541191101074219
- 22.192853927612305
- 1.2716861963272095
- 2.2899324893951416
- -0.340690016746521
- 0.0
- 0.0
---
header:
  stamp:
    sec: 1756281706
    nanosec: 453049238
  frame_id: ''
name:
- fr3_joint1
- fr3_joint2
- fr3_joint3
- fr3_joint4
- fr3_joint5
- fr3_joint6
- fr3_joint7
- fr3_finger_joint1
- fr3_finger_joint2
position:
- 0.050858286275145735
- -0.25348076213177473
- 0.22860389467061693
- -2.3701121834514707
- 0.23660106500151973
- 2.1537694608080797
- -0.5875960284812782
- 0.0
- 0.0
velocity:
- 0.0705195268234556
- -0.05472260995868488
- 0.044828999592680316
- -0.039438979695076856
- 0.07921050721804897
- -0.0029976868826085074
- -0.2423788204490969
- 0.0
- 0.0
effort:
- 0.654301643371582
- -21.867341995239258
- -1.6572685241699219
- 22.061933517456055
- 1.2652775049209595
- 2.2697908878326416
- -0.306815505027771
- 0.0
- 0.0
---
header:
  stamp:
    sec: 1756281706
    nanosec: 486326647
  frame_id: ''
name:
- fr3_joint1
- fr3_joint2
- fr3_joint3
- fr3_joint4
- fr3_joint5
- fr3_joint6
- fr3_joint7
- fr3_finger_joint1
- fr3_finger_joint2
position:
- 0.053056540017385495
- -0.2553924271181968
- 0.23016096462585328
- -2.3714887215271743
- 0.23936506791911222
- 2.1536524377906976
- -0.5949211656351708
- 0.0
- 0.0
velocity:
- 0.0647144465694487
- -0.06084091379161639
- 0.049818854102466094
- -0.041955724616260966
- 0.08499510722605265
- -0.004163778276165804
- -0.19592114949725656
- 0.0
- 0.0
effort:
- 0.578923225402832
- -21.716585159301758
- -1.7088432312011719
- 22.165082931518555
- 1.2579532861709595
- 2.2697908878326416
- -0.314139723777771
- 0.0
- 0.0
---
header:
  stamp:
    sec: 1756281706
    nanosec: 519673486
  frame_id: ''
name:
- fr3_joint1
- fr3_joint2
- fr3_joint3
- fr3_joint4
- fr3_joint5
- fr3_joint6
- fr3_joint7
- fr3_finger_joint1
- fr3_finger_joint2
position:
- 0.05533525248730863
- -0.25746972393820516
- 0.23185564474561976
- -2.3729157374890093
- 0.24233105182950332
- 2.153511733955875
- -0.6012934562258215
- 0.0
- 0.0
velocity:
- 0.0685384723149931
- -0.05787047700493542
- 0.045515236722493496
- -0.040089347577341665
- 0.08591577976797463
- -0.0036396658175278833
- -0.19022765107157702
- 0.0
- 0.0
effort:
- 0.678105354309082
- -21.307954788208008
- -1.6334648132324219
- 22.085737228393555
- 1.2451359033584595
- 2.2569735050201416
- -0.334281325340271
- 0.0
- 0.0
---
header:
  stamp:
    sec: 1756281706
    nanosec: 553358520
  frame_id: ''
name:
- fr3_joint1
- fr3_joint2
- fr3_joint3
- fr3_joint4
- fr3_joint5
- fr3_joint6
- fr3_joint7
- fr3_finger_joint1
- fr3_finger_joint2
position:
- 0.057697797300430995
- -0.25933554271489495
- 0.2333115419952689
- -2.374215607296347
- 0.24513082214448578
- 2.153441584098138
- -0.6083543139642089
- 0.0
- 0.0
velocity:
- 0.07188195868954082
- -0.056231579306787766
- 0.04689060716895394
- -0.04052214591842198
- 0.08495101686158132
- -0.000984807975314775
- -0.22776333610133428
- 0.0
- 0.0
effort:
- 0.626530647277832
- -21.081819534301758
- -1.6850395202636719
- 21.954816818237305
- 1.2579532861709595
- 2.2368319034576416
- -0.340690016746521
- 0.0
- 0.0
---
header:
  stamp:
    sec: 1756281706
    nanosec: 586421415
  frame_id: ''
name:
- fr3_joint1
- fr3_joint2
- fr3_joint3
- fr3_joint4
- fr3_joint5
- fr3_joint6
- fr3_joint7
- fr3_finger_joint1
- fr3_finger_joint2
position:
- 0.06015913978026712
- -0.2610830993968994
- 0.23469579189499493
- -2.375537904480631
- 0.24793502008560625
- 2.153389866460291
- -0.6153136063105393
- 0.0
- 0.0
velocity:
- 0.08007623334460658
- -0.050357366795289946
- 0.039112329080764605
- -0.039077820703861905
- 0.08403285732037524
- -0.0011606645935576373
- -0.19951336059868252
- 0.0
- 0.0
effort:
- 0.908207893371582
- -21.054048538208008
- -1.4231986999511719
- 21.982587814331055
- 1.2716861963272095
- 2.2569735050201416
- -0.306815505027771
- 0.0
- 0.0
---
header:
  stamp:
    sec: 1756281706
    nanosec: 619827332
  frame_id: ''
name:
- fr3_joint1
- fr3_joint2
- fr3_joint3
- fr3_joint4
- fr3_joint5
- fr3_joint6
- fr3_joint7
- fr3_finger_joint1
- fr3_finger_joint2
position:
- 0.06292978049174276
- -0.26275702959958414
- 0.2361191491803438
- -2.3768700820248285
- 0.2509687082807655
- 2.1532085943208807
- -0.6222356315765659
- 0.0
- 0.0
velocity:
- 0.07460071489922111
- -0.04740764353009221
- 0.04576971723628785
- -0.038829311520780875
- 0.08890877628358677
- -0.0097064568124191
- -0.21177767290174374
- 0.0
- 0.0
effort:
- 0.527348518371582
- -21.284151077270508
- -1.7604179382324219
- 22.272199630737305
- 1.2579532861709595
- 2.2899324893951416
- -0.272940993309021
- 0.0
- 0.0
---
header:
  stamp:
    sec: 1756281706
    nanosec: 652966470
  frame_id: ''
name:
- fr3_joint1
- fr3_joint2
- fr3_joint3
- fr3_joint4
- fr3_joint5
- fr3_joint6
- fr3_joint7
- fr3_finger_joint1
- fr3_finger_joint2
position:
- 0.06536162434970981
- -0.26436270273933465
- 0.23764493459187072
- -2.378117987157827
- 0.2536486732656343
- 2.1530607357708362
- -0.6300118195962602
- 0.0
- 0.0
velocity:
- 0.07378401087724622
- -0.05313174580895863
- 0.047823120613568276
- -0.041153180528471785
- 0.08747340851510886
- -0.0033377636286457367
- -0.2373164893678998
- 0.0
- 0.0
effort:
- 0.527348518371582
- -21.307954788208008
- -1.7881889343261719
- 22.165082931518555
- 1.2579532861709595
- 2.2697908878326416
- -0.260123610496521
- 0.0
- 0.0
---
header:
  stamp:
    sec: 1756281706
    nanosec: 686456736
  frame_id: ''
name:
- fr3_joint1
- fr3_joint2
- fr3_joint3
- fr3_joint4
- fr3_joint5
- fr3_joint6
- fr3_joint7
- fr3_finger_joint1
- fr3_finger_joint2
position:
- 0.06756884188232866
- -0.2660541681825378
- 0.23930798101212622
- -2.3794303002362907
- 0.25639950174522896
- 2.152920538631363
- -0.6367198777362872
- 0.0
- 0.0
velocity:
- 0.06757846095303806
- -0.054161625668180585
- 0.04924015663595258
- -0.0378049073723413
- 0.08496240868545091
- -0.0048887420620160995
- -0.1939873117631879
- 0.0
- 0.0
effort:
- 0.602726936340332
- -21.284151077270508
- -1.8913383483886719
- 22.034162521362305
- 1.2845035791397095
- 2.2569735050201416
- -0.286673903465271
- 0.0
- 0.0
---
header:
  stamp:
    sec: 1756281706
    nanosec: 719735873
  frame_id: ''
name:
- fr3_joint1
- fr3_joint2
- fr3_joint3
- fr3_joint4
- fr3_joint5
- fr3_joint6
- fr3_joint7
- fr3_finger_joint1
- fr3_finger_joint2
position:
- 0.07002948599783455
- -0.2680125719914188
- 0.24089495140934622
- -2.380769374637955
- 0.25944205803885484
- 2.152766013044552
- -0.6434791419738437
- 0.0
- 0.0
velocity:
- 0.07008008832653265
- -0.05780400387842323
- 0.045213617837451946
- -0.03736373298482152
- 0.0897586003106433
- -0.004370277358743858
- -0.2024194851814634
- 0.0
- 0.0
effort:
- 0.602726936340332
- -21.208772659301758
- -1.8635673522949219
- 22.403120040893555
- 1.2909122705459595
