header:
  stamp:
    sec: 1756281296
    nanosec: 945577359
  frame_id: ''
name:
- fr3_joint1
- fr3_joint2
- fr3_joint3
- fr3_joint4
- fr3_joint5
- fr3_joint6
- fr3_joint7
- fr3_finger_joint1
- fr3_finger_joint2
position:
- -0.21815974905919694
- -0.18279904226756055
- 0.32612499981258114
- -2.0691216786907516
- 0.09989543741720223
- 1.8972934739877625
- 0.043499793677717245
- 0.0
- 0.0
velocity:
- 0.05417448295357293
- 0.022736368603075048
- -3.191403308597831e-05
- 0.0760184680675349
- 0.20714989307050438
- -0.03722758922643252
- -0.21111996613685802
- 0.0
- 0.0
effort:
- 0.47577381134033203
- -22.553682327270508
- -1.9429130554199219
- 23.529829025268555
- 1.3110538721084595
- 2.2230989933013916
- -0.2125161737203598
- 0.0
- 0.0
---
header:
  stamp:
    sec: 1756281296
    nanosec: 978964251
  frame_id: ''
name:
- fr3_joint1
- fr3_joint2
- fr3_joint3
- fr3_joint4
- fr3_joint5
- fr3_joint6
- fr3_joint7
- fr3_finger_joint1
- fr3_finger_joint2
position:
- -0.21627316182725767
- -0.18208711075404801
- 0.32613660649514836
- -2.066562188696437
- 0.10718953112879827
- 1.8960760967871184
- 0.03600685306770758
- 0.0
- 0.0
velocity:
- 0.055744136133045574
- 0.01780552509541422
- 0.00021374402455132823
- 0.0727051046789224
- 0.21380229982664464
- -0.035276039903456964
- -0.21638743969818694
- 0.0
- 0.0
effort:
- 0.40039539337158203
- -22.529878616333008
- -2.046062469482422
- 23.212446212768555
- 1.2259098291397095
- 2.1434481143951416
- -0.300406813621521
- 0.0
- 0.0
---
header:
  stamp:
    sec: 1756281297
    nanosec: 11955901
  frame_id: ''
name:
- fr3_joint1
- fr3_joint2
- fr3_joint3
- fr3_joint4
- fr3_joint5
- fr3_joint6
- fr3_joint7
- fr3_finger_joint1
- fr3_finger_joint2
position:
- -0.2143920834478992
- -0.1815322606188207
- 0.3261123473219216
- -2.0643318017934678
- 0.11413411017161751
- 1.89493556154265
- 0.029936488716685018
- 0.0
- 0.0
velocity:
- 0.06119018625155349
- 0.015741039025763737
- -0.0004118162407895525
- 0.06708399741751099
- 0.21161523352745565
- -0.03946967625280283
- -0.1727864710710184
- 0.0
- 0.0
effort:
- 0.626530647277832
- -22.351350784301758
- -1.7604179382324219
- 23.160871505737305
- 1.3037296533584595
- 2.2029573917388916
- -0.320548415184021
- 0.0
- 0.0
---
header:
  stamp:
    sec: 1756281297
    nanosec: 45305956
  frame_id: ''
name:
- fr3_joint1
- fr3_joint2
- fr3_joint3
- fr3_joint4
- fr3_joint5
- fr3_joint6
- fr3_joint7
- fr3_finger_joint1
- fr3_finger_joint2
position:
- -0.2124136452321359
- -0.1808643419772153
- 0.3261405813413422
- -2.0620717378077247
- 0.12090623501155738
- 1.8936093264213527
- 0.02351649441770745
- 0.0
- 0.0
velocity:
- 0.058002494949916134
- 0.021104410611043463
- 0.00034345614776544833
- 0.06836395873941573
- 0.2002361414429758
- -0.040882809149343516
- -0.20451628841560524
- 0.0
- 0.0
effort:
- 0.34882068634033203
- -22.506074905395508
- -2.097637176513672
- 23.267988204956055
- 1.3504215478897095
- 2.1901400089263916
- -0.306815505027771
- 0.0
- 0.0
---
header:
  stamp:
    sec: 1756281297
    nanosec: 78716194
  frame_id: ''
name:
- fr3_joint1
- fr3_joint2
- fr3_joint3
- fr3_joint4
- fr3_joint5
- fr3_joint6
- fr3_joint7
- fr3_finger_joint1
- fr3_finger_joint2
position:
- -0.21049993064046446
- -0.1801294532664199
- 0.3261562193965626
- -2.0598213904534544
- 0.12801718256178402
- 1.8922395762563264
- 0.016459431771959618
- 0.0
- 0.0
velocity:
- 0.05370852249449452
- 0.0222162648535144
- -5.61687632133585e-05
- 0.0650992880736791
- 0.20719420594419244
- -0.03998696874167661
- -0.19605555348247694
- 0.0
- 0.0
effort:
- 0.40039539337158203
- -22.478303909301758
- -1.9667167663574219
- 23.450483322143555
- 1.3302799463272095
- 2.2166903018951416
- -0.300406813621521
- 0.0
- 0.0
---
header:
  stamp:
    sec: 1756281297
    nanosec: 112491517
  frame_id: ''
name:
- fr3_joint1
- fr3_joint2
- fr3_joint3
- fr3_joint4
- fr3_joint5
- fr3_joint6
- fr3_joint7
- fr3_finger_joint1
- fr3_finger_joint2
position:
- -0.20884951309855232
- -0.179333092067046
- 0.326341256142634
- -2.057548114546918
- 0.13489889641880298
- 1.8908306769679095
- 0.010201221090481606
- 0.0
- 0.0
velocity:
- 0.05212955070253434
- 0.02550142070524599
- 0.005030381181251752
- 0.0706334167961406
- 0.2180451240433965
- -0.042930231401384356
- -0.1899733330071992
- 0.0
- 0.0
effort:
- 0.22186756134033203
- -22.633028030395508
- -2.173015594482422
- 23.398908615112305
- 1.2973209619522095
- 2.1901400089263916
- -0.340690016746521
- 0.0
- 0.0
---
header:
  stamp:
    sec: 1756281297
    nanosec: 145451119
  frame_id: ''
name:
- fr3_joint1
- fr3_joint2
- fr3_joint3
- fr3_joint4
- fr3_joint5
- fr3_joint6
- fr3_joint7
- fr3_finger_joint1
- fr3_finger_joint2
position:
- -0.2071500202299964
- -0.17849657022200582
- 0.32648328313115327
- -2.0550850081863272
- 0.14186656064668593
- 1.8892676850938992
- 0.0034084148718565026
- 0.0
- 0.0
velocity:
- 0.04992862980131005
- 0.0246841819729218
- 0.004120221162414853
- 0.07294585373495721
- 0.21119114957930435
- -0.045757550746920554
- -0.21875665915726955
- 0.0
- 0.0
effort:
- 0.527348518371582
- -22.605257034301758
- -1.9429130554199219
- 23.398908615112305
- 1.3696476221084595
- 2.1635897159576416
- -0.334281325340271
- 0.0
- 0.0
---
header:
  stamp:
    sec: 1756281297
    nanosec: 178987759
  frame_id: ''
name:
- fr3_joint1
- fr3_joint2
- fr3_joint3
- fr3_joint4
- fr3_joint5
- fr3_joint6
- fr3_joint7
- fr3_finger_joint1
- fr3_finger_joint2
position:
- -0.2054130337622225
- -0.17770172095233486
- 0.32647624903295347
- -2.0526383056716093
- 0.14910118972635025
- 1.887823456934175
- -0.00421107146202911
- 0.0
- 0.0
velocity:
- 0.05099595325444368
- 0.022781084850234813
- -0.0014285713659344616
- 0.06649486377173473
- 0.2099768404520654
- -0.03970588294763625
- -0.20994565378657543
- 0.0
- 0.0
effort:
- 0.602726936340332
- -22.708406448364258
- -1.8397636413574219
- 23.371137619018555
- 1.3696476221084595
- 2.1562654972076416
- -0.286673903465271
- 0.0
- 0.0
---
header:
  stamp:
    sec: 1756281297
    nanosec: 212514257
  frame_id: ''
name:
- fr3_joint1
- fr3_joint2
- fr3_joint3
- fr3_joint4
- fr3_joint5
- fr3_joint6
- fr3_joint7
- fr3_finger_joint1
- fr3_finger_joint2
position:
- -0.20374661961209795
- -0.17701030775676715
- 0.3264702447099356
- -2.050394783707013
- 0.15586849334966663
- 1.886341790447389
- -0.01051066537094582
- 0.0
- 0.0
velocity:
- 0.049680038387740634
- 0.022332735169504382
- -0.0038290677662346723
- 0.07111324588476842
- 0.20456549392761528
- -0.0470265948965334
- -0.19299598463097217
- 0.0
- 0.0
effort:
- 0.602726936340332
- -22.680635452270508
- -1.7881889343261719
- 23.581403732299805
- 1.3696476221084595
- 2.2230989933013916
- -0.314139723777771
- 0.0
- 0.0
---
header:
  stamp:
    sec: 1756281297
    nanosec: 245456530
  frame_id: ''
name:
- fr3_joint1
- fr3_joint2
- fr3_joint3
- fr3_joint4
- fr3_joint5
- fr3_joint6
- fr3_joint7
- fr3_finger_joint1
- fr3_finger_joint2
position:
- -0.20189765817079378
- -0.17620725073000695
- 0.32644922043353963
- -2.0479388349177703
- 0.16276436847303757
- 1.8848641500256609
- -0.01718729508940208
- 0.0
- 0.0
velocity:
- 0.05708073286130491
- 0.02460922840153343
- -0.0026023004083311147
- 0.0732496015543544
- 0.2085087416916304
- -0.043156728355613225
- -0.21163960446965657
- 0.0
- 0.0
effort:
- 0.832829475402832
- -22.680635452270508
- -1.5541191101074219
- 23.450483322143555
- 1.4218326807022095
- 2.1635897159576416
- -0.252799391746521
- 0.0
- 0.0
---
header:
  stamp:
    sec: 1756281297
    nanosec: 278932956
  frame_id: ''
name:
- fr3_joint1
- fr3_joint2
- fr3_joint3
- fr3_joint4
- fr3_joint5
- fr3_joint6
- fr3_joint7
- fr3_finger_joint1
- fr3_finger_joint2
position:
- -0.19991183092028164
- -0.17532237373980453
- 0.32646034639236
- -2.045514247709587
- 0.16980160285697146
- 1.8834107642071152
- -0.024332793869645424
- 0.0
- 0.0
velocity:
- 0.05906856087968112
- 0.02679285948388544
- 0.0017401847294423022
- 0.07283323943701225
- 0.20458259862760103
- -0.046561622625158935
- -0.19507049294623513
- 0.0
- 0.0
effort:
- 0.654301643371582
- -22.859163284301758
- -1.7604179382324219
- 23.843244552612305
- 1.4419742822647095
- 2.2304232120513916
- -0.272940993309021
- 0.0
- 0.0
---
header:
  stamp:
    sec: 1756281297
    nanosec: 312496860
  frame_id: ''
name:
- fr3_joint1
- fr3_joint2
- fr3_joint3
- fr3_joint4
- fr3_joint5
- fr3_joint6
- fr3_joint7
- fr3_finger_joint1
- fr3_finger_joint2
position:
- -0.19797487042997897
- -0.17441037331318732
- 0.3264988517686427
- -2.04308242490503
- 0.17670481529848994
- 1.8819882470846614
- -0.030402357330505586
- 0.0
- 0.0
velocity:
- 0.059046535442872417
- 0.028624752629207575
- 0.000576963345872011
- 0.07337066768118038
- 0.2092696590240593
- -0.04315848145936224
- -0.18548785097614334
- 0.0
- 0.0
effort:
- 0.47577381134033203
- -22.886934280395508
- -1.9429130554199219
- 23.502058029174805
- 1.3824650049209595
- 2.2029573917388916
- -0.361747145652771
- 0.0
- 0.0
---
header:
  stamp:
    sec: 1756281297
    nanosec: 345294522
  frame_id: ''
name:
- fr3_joint1
- fr3_joint2
- fr3_joint3
- fr3_joint4
- fr3_joint5
- fr3_joint6
- fr3_joint7
- fr3_finger_joint1
- fr3_finger_joint2
position:
- -0.1961194591885958
- -0.17350518336262027
- 0.3265746332602538
- -2.040612764421379
- 0.18395383519259578
- 1.8806293851696068
- -0.03747127760163688
- 0.0
- 0.0
velocity:
- 0.052151298866792824
- 0.02448654799343498
- 0.0045950900097457255
- 0.07125913136591147
- 0.21163680027798593
- -0.03867354558196878
- -0.22510315561262675
- 0.0
- 0.0
effort:
- 0.42419910430908203
- -22.732210159301758
- -1.9944877624511719
- 23.319562911987305
- 1.4612003564834595
- 2.1635897159576416
- -0.361747145652771
- 0.0
- 0.0
---
header:
  stamp:
    sec: 1756281297
    nanosec: 378705124
  frame_id: ''
name:
- fr3_joint1
- fr3_joint2
- fr3_joint3
- fr3_joint4
- fr3_joint5
- fr3_joint6
- fr3_joint7
- fr3_finger_joint1
- fr3_finger_joint2
position:
- -0.1944479823462131
- -0.1727077387907473
- 0.32669826836855226
- -2.03838732952812
- 0.19123917252213601
- 1.8793050139538636
- -0.04499109838233237
- 0.0
- 0.0
velocity:
- 0.05055602248702906
- 0.021962190256471833
- 0.001770602182574665
- 0.06224941991399706
- 0.2153027455621522
- -0.0410474548578575
- -0.19999002148854225
- 0.0
- 0.0
effort:
- 0.44800281524658203
- -22.759981155395508
- -1.9944877624511719
- 23.450483322143555
- 1.4218326807022095
- 2.1764070987701416
- -0.280265212059021
- 0.0
- 0.0
---
header:
  stamp:
    sec: 1756281297
    nanosec: 411927765
  frame_id: ''
name:
- fr3_joint1
- fr3_joint2
- fr3_joint3
- fr3_joint4
- fr3_joint5
- fr3_joint6
- fr3_joint7
- fr3_finger_joint1
- fr3_finger_joint2
position:
- -0.19279430316348634
- -0.17193574923699595
- 0.32669711905844107
- -2.0362650248736145
- 0.19788845576270978
- 1.877929325156639
- -0.050953840486927394
- 0.0
- 0.0
velocity:
- 0.0504432416843851
- 0.025679549225930628
- 1.0657729136966587e-06
- 0.06894868333453955
- 0.1936496444088956
- -0.042630928560339426
- -0.1900208567236689
- 0.0
- 0.0
effort:
- 0.654301643371582
- -22.886934280395508
- -1.7881889343261719
- 23.371137619018555
- 1.4026066064834595
- 2.1635897159576416
- -0.272940993309021
- 0.0
- 0.0
---
header:
  stamp:
    sec: 1756281297
    nanosec: 445287538
  frame_id: ''
name:
- fr3_joint1
- fr3_joint2
- fr3_joint3
- fr3_joint4
- fr3_joint5
- fr3_joint6
- fr3_joint7
- fr3_finger_joint1
- fr3_finger_joint2
position:
- -0.19110492888410333
- -0.1711105221670254
- 0.3267038078129817
- -2.0340951322718444
- 0.2048713814762492
- 1.8765875286305167
- -0.05801835929395159
- 0.0
- 0.0
velocity:
- 0.050543402908808224
- 0.02489770448770541
- 0.0008492379089477008
- 0.06402026235842583
- 0.21082845326312846
- -0.04083045457514241
- -0.22103328435508243
- 0.0
- 0.0
effort:
- 0.527348518371582
- -23.065462112426758
- -1.8913383483886719
- 23.474287033081055
- 1.3961979150772095
- 2.1498568058013916
- -0.266532301902771
- 0.0
- 0.0
---
header:
  stamp:
    sec: 1756281297
    nanosec: 478585439
  frame_id: ''
name:
- fr3_joint1
- fr3_joint2
- fr3_joint3
- fr3_joint4
- fr3_joint5
- fr3_joint6
- fr3_joint7
- fr3_finger_joint1
- fr3_finger_joint2
position:
- -0.18940941309752615
- -0.17027598449232179
- 0.32669014376016425
- -2.0318960364494663
- 0.2117211458828057
- 1.8751198649020173
- -0.06461618389553639
- 0.0
- 0.0
velocity:
- 0.05317118908602718
- 0.025924386640280458
- -0.00018127095352315147
- 0.07039980348579657
- 0.21800743114234578
- -0.043838262763065995
- -0.1904684931274619
- 0.0
- 0.0
effort:
- 0.729680061340332
- -23.089265823364258
- -1.7088432312011719
- 23.684553146362305
- 1.4612003564834595
- 2.2166903018951416
- -0.306815505027771
- 0.0
- 0.0
---
header:
  stamp:
    sec: 1756281297
    nanosec: 512460178
  frame_id: ''
name:
- fr3_joint1
- fr3_joint2
- fr3_joint3
- fr3_joint4
- fr3_joint5
- fr3_joint6
- fr3_joint7
- fr3_finger_joint1
- fr3_finger_joint2
position:
- -0.1875454591245033
- -0.1693567597464302
- 0.32667390509568334
- -2.029426856413645
- 0.21876446339690406
- 1.8737681625561193
- -0.07101669483656613
- 0.0
- 0.0
velocity:
- 0.05733327589899213
- 0.028246776912104903
- -0.001796208825548293
- 0.07297875566144103
- 0.20354380687938778
- -0.03914780884349722
- -0.1929080617044341
- 0.0
- 0.0
effort:
- 0.781254768371582
- -23.140840530395508
- -1.6056938171386719
- 23.529829025268555
- 1.4813419580459595
- 2.1764070987701416
- -0.314139723777771
- 0.0
- 0.0
---
header:
  stamp:
    sec: 1756281297
    nanosec: 545601424
  frame_id: ''
name:
- fr3_joint1
- fr3_joint2
- fr3_joint3
- fr3_joint4
- fr3_joint5
- fr3_joint6
- fr3_joint7
- fr3_finger_joint1
- fr3_finger_joint2
position:
- -0.18565167117117043
- -0.16857552440241824
- 0.3266958068437358
- -2.0269801930784768
- 0.2259735197074784
- 1.8725623860988772
- -0.07847597022683352
- 0.0
- 0.0
velocity:
- 0.056505173805403604
- 0.020568061053826883
- -4.031182192344577e-05
- 0.06938775459144875
- 0.21340196434804182
- -0.0337191915678507
- -0.23843558067625326
- 0.0
- 0.0
effort:
- 0.602726936340332
- -23.140840530395508
- -1.7604179382324219
- 23.240217208862305
- 1.4090152978897095
- 2.1297152042388916
- -0.252799391746521
- 0.0
- 0.0
---
header:
  stamp:
    sec: 1756281297
    nanosec: 578667967
  frame_id: ''
name:
- fr3_joint1
- fr3_joint2
- fr3_joint3
- fr3_joint4
- fr3_joint5
- fr3_joint6
- fr3_joint7
- fr3_finger_joint1
- fr3_finger_joint2
position:
- -0.1838022827844268
- -0.16793465185574416
- 0.32671344574155375
- -2.0246681715844312
- 0.23307291811784958
- 1.8711852498098542
- -0.08555985069212317
- 0.0
- 0.0
velocity:
- 0.05302906054931477
- 0.020550158805620968
- 0.0015443814154180232
- 0.07246887242544155
- 0.21111757160833106
- -0.047312552617368116
- -0.19071109804793865
- 0.0
- 0.0
effort:
- 0.49957752227783203
- -23.140840530395508
- -1.8635673522949219
- 23.474287033081055
- 1.4154239892959595
- 2.1901400089263916
- -0.320548415184021
- 0.0
- 0.0
---
header:
  stamp:
    sec: 1756281297
    nanosec: 612349123
  frame_id: ''
name:
- fr3_joint1
- fr3_joint2
- fr3_joint3
- fr3_joint4
- fr3_joint5
- fr3_joint6
- fr3_joint7
- fr3_finger_joint1
- fr3_finger_joint2
position:
- -0.1821710337763184
- -0.16727148888393634
- 0.32684446462645794
- -2.0222530238700975
- 0.2397584212469365
- 1.869534288378475
- -0.09183798881130861
- 0.0
- 0.0
velocity:
- 0.04692296625237598
- 0.019250667409715046
- 0.006505907522863593
- 0.07335274721270826
- 0.206638061763871
- -0.048035998210151386
- -0.19440844525669393
- 0.0
- 0.0
effort:
- 0.44800281524658203
- -22.934541702270508
- -1.9944877624511719
- 23.371137619018555
- 1.4483829736709595
- 2.1764070987701416
- -0.293998122215271
- 0.0
- 0.0
---
header:
  stamp:
    sec: 1756281297
    nanosec: 645543006
  frame_id: ''
name:
- fr3_joint1
- fr3_joint2
- fr3_joint3
- fr3_joint4
- fr3_joint5
- fr3_joint6
- fr3_joint7
- fr3_finger_joint1
- fr3_finger_joint2
position:
- -0.1804891641511767
- -0.1665638972398621
- 0.3268857115050656
- -2.0198363821077896
- 0.2468521052518383
- 1.8679604357422153
- -0.0989994447821529
- 0.0
- 0.0
velocity:
- 0.0508033974572194
- 0.02335150327361446
- -0.0003618172340883661
- 0.07133595521694983
- 0.2084907715553197
- -0.045093735920847956
- -0.2232745102789401
- 0.0
- 0.0
effort:
- 0.602726936340332
- -23.113069534301758
- -1.7604179382324219
- 23.605207443237305
- 1.4612003564834595
- 2.2029573917388916
- -0.327872633934021
- 0.0
- 0.0
---
header:
  stamp:
    sec: 1756281297
    nanosec: 678693999
  frame_id: ''
name:
- fr3_joint1
- fr3_joint2
- fr3_joint3
- fr3_joint4
- fr3_joint5
- fr3_joint6
- fr3_joint7
- fr3_finger_joint1
- fr3_finger_joint2
position:
- -0.17872337104596533
- -0.16575499597921012
- 0.32687878899467937
- -2.017348359051744
- 0.25402718203309566
- 1.8663478258686297
- -0.10566747646725531
- 0.0
- 0.0
velocity:
- 0.05508917552691474
- 0.024404940747121132
- 0.0011486875045917933
- 0.07341666833130865
- 0.2088222997968686
- -0.04099448121249016
- -0.1885401882233213
- 0.0
- 0.0
effort:
- 0.705876350402832
- -23.164644241333008
- -1.7088432312011719
- 23.502058029174805
- 1.5399357080459595
- 2.1764070987701416
- -0.327872633934021
- 0.0
- 0.0
---
header:
  stamp:
    sec: 1756281297
    nanosec: 711927036
  frame_id: ''
name:
- fr3_joint1
- fr3_joint2
- fr3_joint3
- fr3_joint4
- fr3_joint5
- fr3_joint6
- fr3_joint7
- fr3_finger_joint1
- fr3_finger_joint2
position:
- -0.17694897878940477
- -0.1649458606277883
- 0.3268628976333911
- -2.0149466355945584
- 0.2609032282120333
- 1.864990979499531
- -0.11202082553359895
- 0.0
- 0.0
velocity:
- 0.057033184864651816
- 0.024886502621194392
- 7.956999211860367e-05
- 0.07426956583263
- 0.22383258460976033
- -0.04007430319870657
- -0.20876223788326334
- 0.0
- 0.0
effort:
- 0.805058479309082
- -23.164644241333008
- -1.5263481140136719
- 23.502058029174805
- 1.4282413721084595
- 2.1370394229888916
- -0.340690016746521
- 0.0
- 0.0
---
header:
  stamp:
    sec: 1756281297
    nanosec: 745334971
  frame_id: ''
name:
- fr3_joint1
- fr3_joint2
- fr3_joint3
- fr3_joint4
- fr3_joint5
- fr3_joint6
- fr3_joint7
- fr3_finger_joint1
- fr3_finger_joint2
position:
- -0.1750015102091333
- -0.1641540388953696
- 0.3268365159896267
- -2.0126508984871108
- 0.26816513365567324
- 1.8637423379915348
- -0.1197292725843483
- 0.0
- 0.0
velocity:
- 0.06086676599230377
- 0.02065897142831411
- 0.00036642972992263875
- 0.06543201390908547
- 0.21764408212267417
- -0.03581422701557169
- -0.23601782844644853
- 0.0
- 0.0
effort:
- 0.983586311340332
- -23.113069534301758
- -1.3478202819824219
- 23.474287033081055
- 1.4676090478897095
- 2.1233065128326416
- -0.293998122215271
- 0.0
- 0.0
---
header:
  stamp:
    sec: 1756281297
    nanosec: 778655503
  frame_id: ''
name:
- fr3_joint1
- fr3_joint2
- fr3_joint3
- fr3_joint4
- fr3_joint5
- fr3_joint6
- fr3_joint7
- fr3_finger_joint1
- fr3_finger_joint2
position:
- -0.1729360123946426
- -0.16337364010675692
- 0.3268827597317064
- -2.010474439694115
- 0.2752044329591429
- 1.8623793563659805
- -0.1263620090087673
- 0.0
- 0.0
velocity:
- 0.061306767383854675
- 0.02327334221762903
- 0.0019922775889083238
- 0.06515384353008583
- 0.20214314702565592
- -0.04267850050620567
- -0.17541008577075234
- 0.0
- 0.0
effort:
- 0.527348518371582
- -23.216218948364258
- -1.8119926452636719
- 23.605207443237305
- 1.4612003564834595
- 2.1764070987701416
- -0.340690016746521
- 0.0
- 0.0
---
header:
  stamp:
    sec: 1756281297
    nanosec: 812412542
  frame_id: ''
name:
- fr3_joint1
- fr3_joint2
- fr3_joint3
- fr3_joint4
- fr3_joint5
- fr3_joint6
- fr3_joint7
- fr3_finger_joint1
- fr3_finger_joint2
position:
- -0.1709577041749062
- -0.1625611394893277
- 0.32692098556215654
- -2.008350127589784
- 0.28181962518186787
- 1.8610729878414627
- -0.1325887559255555
- 0.0
- 0.0
velocity:
- 0.057628611929863516
- 0.02401207364034272
- 0.0036553576926752437
- 0.06522060101658574
- 0.21284306318061433
- -0.04093069968818837
- -0.2073396148828096
- 0.0
- 0.0
effort:
- 0.47577381134033203
- -23.037691116333008
- -1.8913383483886719
- 23.632978439331055
- 1.5133854150772095
- 2.2029573917388916
- -0.368155837059021
- 0.0
- 0.0
---
header:
  stamp:
    sec: 1756281297
    nanosec: 845304019
  frame_id: ''
name:
- fr3_joint1
- fr3_joint2
- fr3_joint3
- fr3_joint4
- fr3_joint5
- fr3_joint6
- fr3_joint7
- fr3_finger_joint1
- fr3_finger_joint2
position:
- -0.16913427781285512
- -0.1616506113401904
- 0.3270462425105947
- -2.0060859541781793
- 0.2888226248054495
- 1.8598281558625132
- -0.13974365561652852
- 0.0
- 0.0
velocity:
- 0.04802486718773807
- 0.029660844218338575
- 0.007123440676753004
- 0.06809311748517097
- 0.21148704461817838
- -0.037053857894749624
- -0.20299590656723232
- 0.0
- 0.0
effort:
- 0.32104969024658203
- -23.089265823364258
- -2.018291473388672
- 23.684553146362305
- 1.5664860010147095
- 2.1965487003326416
- -0.314139723777771
- 0.0
- 0.0
---
header:
  stamp:
    sec: 1756281297
    nanosec: 878685005
  frame_id: ''
name:
- fr3_joint1
- fr3_joint2
- fr3_joint3
- fr3_joint4
- fr3_joint5
- fr3_joint6
- fr3_joint7
- fr3_finger_joint1
- fr3_finger_joint2
position:
- -0.16748591261456208
- -0.16064741416917802
- 0.3271820696599926
- -2.0036141078586343
- 0.29602383510396213
- 1.8585588029091202
- -0.1463803722505681
- 0.0
- 0.0
velocity:
- 0.05025553742024479
- 0.030141818903157484
- 0.003105092824690216
- 0.0757633197456142
- 0.20079997282325984
- -0.038704042144476605
- -0.19329573821039991
- 0.0
- 0.0
effort:
- 0.47577381134033203
- -23.140840530395508
- -1.8119926452636719
- 23.502058029174805
- 1.5463443994522095
- 2.1635897159576416
- -0.348014235496521
- 0.0
- 0.0
---
header:
  stamp:
    sec: 1756281297
    nanosec: 912465420
  frame_id: ''
name:
- fr3_joint1
- fr3_joint2
- fr3_joint3
- fr3_joint4
- fr3_joint5
- fr3_joint6
- fr3_joint7
- fr3_finger_joint1
- fr3_finger_joint2
position:
- -0.16589071887482174
- -0.15968409749365503
- 0.3272039244305834
- -2.0011741378035124
- 0.30299845628156163
- 1.857395047218961
- -0.15284095726505567
- 0.0
- 0.0
velocity:
- 0.05126301246745947
- 0.02958876158531409
- 0.0004844176652434726
- 0.0720049170641223
- 0.21734131237059004
- -0.03381085609090469
- -0.2176748021962111
- 0.0
- 0.0
effort:
- 0.578923225402832
- -23.394746780395508
- -1.6572685241699219
- 23.422712326049805
- 1.5335270166397095
- 2.1031649112701416
- -0.293998122215271
- 0.0
- 0.0
---
header:
  stamp:
    sec: 1756281297
    nanosec: 945583193
  frame_id: ''
name:
- fr3_joint1
- fr3_joint2
- fr3_joint3
- fr3_joint4
- fr3_joint5
- fr3_joint6
- fr3_joint7
- fr3_finger_joint1
- fr3_finger_joint2
position:
- -0.16421282654434544
- -0.15880588266017998
- 0.3271892846682517
- -1.9988330110998127
- 0.3100870496688656
- 1.8561905079954855
- -0.16062944319014172
- 0.0
- 0.0
velocity:
- 0.049578363505136516
- 0.026036514840554897
- -0.00345628801729176
- 0.07024671813466088
- 0.20727554674390233
- -0.03926899981631993
- -0.22118072077702247
- 0.0
- 0.0
effort:
- 0.757451057434082
- -23.291597366333008
- -1.5025444030761719
- 23.529829025268555
- 1.5591617822647095
- 2.1635897159576416
- -0.252799391746521
- 0.0
- 0.0
---
header:
  stamp:
    sec: 1756281297
    nanosec: 978662838
  frame_id: ''
name:
- fr3_joint1
- fr3_joint2
- fr3_joint3
- fr3_joint4
- fr3_joint5
- fr3_joint6
- fr3_joint7
- fr3_finger_joint1
- fr3_finger_joint2
position:
- -0.16238930546631675
- -0.15786578994036937
- 0.32717163059704546
- -1.9963791245855798
- 0.31695259277263294
- 1.854847326274102
- -0.16730787331374072
- 0.0
- 0.0
velocity:
- 0.05606504289944909
- 0.026879043175257293
- -0.0021419983269663823
- 0.07239667917006953
- 0.2023359332947361
- -0.03727002579988645
- -0.1983261394043088
- 0.0
- 0.0
effort:
- 0.856633186340332
- -23.521699905395508
- -1.3200492858886719
- 23.319562911987305
- 1.5728946924209595
- 2.1104891300201416
- -0.314139723777771
- 0.0
- 0.0
---
header:
  stamp:
    sec: 1756281298
    nanosec: 12425491
  frame_id: ''
name:
- fr3_joint1
- fr3_joint2
- fr3_joint3
- fr3_joint4
- fr3_joint5
- fr3_joint6
- fr3_joint7
- fr3_finger_joint1
- fr3_finger_joint2
position:
- -0.1605085973030158
- -0.15698534358524385
- 0.3271882922623542
- -1.9940903773319585
- 0.3237269903942589
- 1.853573841807174
- -0.17368590686033697
- 0.0
- 0.0
velocity:
- 0.05961223058233392
- 0.027675068431216133
- 0.0014941721090097652
- 0.06971521854792784
- 0.20912480768932087
- -0.04000217716257773
- -0.2074731972535692
- 0.0
- 0.0
effort:
- 0.551152229309082
- -23.573274612426758
- -1.6056938171386719
- 23.553632736206055
- 1.5857120752334595
- 2.1370394229888916
- -0.361747145652771
- 0.0
- 0.0
---
header:
  stamp:
    sec: 1756281298
    nanosec: 45409952
  frame_id: ''
name:
- fr3_joint1
- fr3_joint2
- fr3_joint3
- fr3_joint4
- fr3_joint5
- fr3_joint6
- fr3_joint7
- fr3_finger_joint1
- fr3_finger_joint2
position:
- -0.15856838362077638
- -0.15604217483535304
- 0.32722324186819995
- -1.9916468736069228
- 0.33090003219130376
- 1.8521401765386496
- -0.18079594500668408
- 0.0
- 0.0
velocity:
- 0.05856319250282435
- 0.02918022108149808
- 0.003617194150956196
- 0.07459555715443836
- 0.2185316185643737
- -0.04230691153349376
- -0.1975388191840898
- 0.0
- 0.0
effort:
- 0.44800281524658203
- -23.672456741333008
- -1.7881889343261719
- 23.422712326049805
- 1.5133854150772095
- 2.1434481143951416
- -0.374564528465271
- 0.0
- 0.0
---
header:
  stamp:
    sec: 1756281298
    nanosec: 78577239
  frame_id: ''
name:
- fr3_joint1
- fr3_joint2
- fr3_joint3
- fr3_joint4
- fr3_joint5
- fr3_joint6
- fr3_joint7
- fr3_finger_joint1
- fr3_finger_joint2
position:
- -0.15674855644657423
- -0.15523676657114818
- 0.32724509986636274
- -1.9892841466415867
- 0.33782061308983863
- 1.85074336024822
- -0.18710640291842529
- 0.0
- 0.0
velocity:
- 0.054757447166303
- 0.023452117727257284
- -0.000644261527140326
- 0.0723727164213582
- 0.21528796532152641
- -0.04320895504781392
- -0.18863712433126067
- 0.0
- 0.0
effort:
- 0.49957752227783203
- -23.624849319458008
- -1.7366142272949219
- 23.632978439331055
- 1.5793033838272095
- 2.1498568058013916
- -0.368155837059021
- 0.0
- 0.0
---
header:
  stamp:
    sec: 1756281298
    nanosec: 111926725
  frame_id: ''
name:
- fr3_joint1
- fr3_joint2
- fr3_joint3
- fr3_joint4
- fr3_joint5
- fr3_joint6
- fr3_joint7
- fr3_finger_joint1
- fr3_finger_joint2
position:
- -0.15504232186058678
- -0.15456263948802287
- 0.3273177871077679
- -1.9869623427864613
- 0.3451074965976253
- 1.8492055506658032
- -0.1941155397945131
- 0.0
- 0.0
velocity:
- 0.04929557646587666
- 0.016773625575333365
- 0.001175311278119594
- 0.06424152438530843
- 0.21752876480950672
- -0.04520145849386872
- -0.22628286206765194
- 0.0
- 0.0
effort:
- 0.551152229309082
- -23.394746780395508
- -1.6850395202636719
- 23.553632736206055
- 1.5664860010147095
- 2.1764070987701416
- -0.293998122215271
- 0.0
- 0.0
---
header:
  stamp:
    sec: 1756281298
    nanosec: 145505394
  frame_id: ''
name:
- fr3_joint1
- fr3_joint2
- fr3_joint3
- fr3_joint4
- fr3_joint5
- fr3_joint6
- fr3_joint7
- fr3_finger_joint1
- fr3_finger_joint2
position:
- -0.15329733406186488
- -0.1539325352716547
- 0.32730320266301294
- -1.9847538170676882
- 0.35223412206008975
- 1.8475957750325274
- -0.20155216535208687
- 0.0
- 0.0
velocity:
- 0.05254186633986828
- 0.02149839217991601
- 6.019248074214657e-05
- 0.06821399641716734
- 0.19742030444901856
- -0.05016853130900673
- -0.19752578711517588
- 0.0
- 0.0
effort:
- 0.654301643371582
- -23.470125198364258
- -1.5025444030761719
- 23.684553146362305
- 1.6049381494522095
- 2.1837313175201416
- -0.327872633934021
- 0.0
- 0.0
---
header:
  stamp:
    sec: 1756281298
    nanosec: 178683233
  frame_id: ''
name:
- fr3_joint1
- fr3_joint2
- fr3_joint3
- fr3_joint4
- fr3_joint5
- fr3_joint6
- fr3_joint7
- fr3_finger_joint1
- fr3_finger_joint2
position:
- -0.15151612017664895
- -0.15321129477649031
- 0.3273120847664592
- -1.9824906686131938
- 0.3589706270047987
- 1.8460573022609665
- -0.20780684896965884
- 0.0
- 0.0
velocity:
- 0.05250515259867833
- 0.019892087826049003
- 0.0004901679637973196
- 0.0646186175124776
- 0.20755033432511144
- -0.04349672893474303
- -0.18821373762813387
- 0.0
- 0.0
effort:
- 0.654301643371582
- -23.470125198364258
- -1.6056938171386719
- 23.684553146362305
- 1.6516300439834595
- 2.1233065128326416
- -0.314139723777771
- 0.0
- 0.0
---
header:
  stamp:
    sec: 1756281298
    nanosec: 211926773
  frame_id: ''
name:
- fr3_joint1
- fr3_joint2
- fr3_joint3
- fr3_joint4
- fr3_joint5
- fr3_joint6
- fr3_joint7
- fr3_finger_joint1
- fr3_finger_joint2
position:
- -0.14973139005649608
- -0.15246741455550472
- 0.32727021953864455
- -1.9803487957846464
- 0.3657756881263804
- 1.844526514367343
- -0.21454423834960212
- 0.0
- 0.0
velocity:
- 0.055863285952662
- 0.025652042477972575
- -0.0034757213028982527
- 0.06754899540452934
- 0.20488728426234631
- -0.047074714919004904
- -0.21824250329541525
- 0.0
- 0.0
effort:
- 0.983586311340332
- -23.648653030395508
- -1.2168998718261719
- 23.815473556518555
- 1.6186710596084595
- 2.1168978214263916
- -0.314139723777771
- 0.0
- 0.0
---
header:
  stamp:
    sec: 1756281298
    nanosec: 245445179
  frame_id: ''
name:
- fr3_joint1
- fr3_joint2
- fr3_joint3
- fr3_joint4
- fr3_joint5
- fr3_joint6
- fr3_joint7
- fr3_finger_joint1
- fr3_finger_joint2
position:
- -0.14773290899800576
- -0.15155917583849307
- 0.32727769033445314
- -1.9779117761958385
- 0.37304190557599004
- 1.8430041472665708
- -0.2213810000963946
- 0.0
- 0.0
velocity:
- 0.061297499452459686
- 0.028539624348524455
- 0.002301259526364279
- 0.07575624596744263
- 0.21234822074193008
- -0.042458767299510314
- -0.19938217289747603
- 0.0
- 0.0
effort:
- 0.781254768371582
- -23.827180862426758
- -1.3716239929199219
- 23.740095138549805
- 1.5463443994522095
- 2.1370394229888916
- -0.327872633934021
- 0.0
- 0.0
---
header:
  stamp:
    sec: 1756281298
    nanosec: 278684876
  frame_id: ''
name:
- fr3_joint1
- fr3_joint2
- fr3_joint3
- fr3_joint4
- fr3_joint5
- fr3_joint6
- fr3_joint7
- fr3_finger_joint1
- fr3_finger_joint2
position:
- -0.14571913749980714
- -0.15072507804394
- 0.3273208798766204
- -1.9754215862926954
- 0.3802524539938951
- 1.841627962272043
- -0.22789377716382553
- 0.0
- 0.0
velocity:
- 0.05889681770547176
- 0.02318601755537727
- 3.181609145597243e-05
- 0.07249664288550822
- 0.21617094011622254
- -0.03492519449148355
- -0.1923420302165384
- 0.0
- 0.0
effort:
- 0.527348518371582
- -23.751802444458008
- -1.6850395202636719
- 23.474287033081055
- 1.6122623682022095
- 2.0637972354888916
- -0.327872633934021
- 0.0
- 0.0
---
header:
  stamp:
    sec: 1756281298
    nanosec: 312425259
  frame_id: ''
name:
- fr3_joint1
- fr3_joint2
- fr3_joint3
- fr3_joint4
- fr3_joint5
- fr3_joint6
- fr3_joint7
- fr3_finger_joint1
- fr3_finger_joint2
position:
- -0.1438836901604013
- -0.15009705699196504
- 0.32735497323273316
- -1.9731863416099646
- 0.3871170299151771
- 1.8403496493071885
- -0.23512864773503075
- 0.0
- 0.0
velocity:
- 0.0537386932470687
- 0.01662048517348321
- 0.003492438003647286
- 0.06852403732294085
- 0.20525748778566677
- -0.038766256160159475
- -0.24425594464700712
- 0.0
- 0.0
effort:
- 0.47577381134033203
- -23.497896194458008
- -1.8119926452636719
- 23.553632736206055
- 1.6049381494522095
- 2.0702059268951416
- -0.272940993309021
- 0.0
- 0.0
---
header:
  stamp:
    sec: 1756281298
    nanosec: 345341072
  frame_id: ''
name:
- fr3_joint1
- fr3_joint2
- fr3_joint3
- fr3_joint4
- fr3_joint5
- fr3_joint6
- fr3_joint7
- fr3_finger_joint1
- fr3_finger_joint2
position:
- -0.14222595935755944
- -0.1493620230283166
- 0.3274944359775239
- -1.9707557710268886
- 0.39396943259121275
- 1.839001983539561
- -0.2422512041525143
- 0.0
- 0.0
velocity:
- 0.047754044122904384
- 0.024449636467417712
- 0.0021977491763781254
- 0.07571245571535068
- 0.19940163266989935
- -0.041495254234329544
- -0.19166648872322803
- 0.0
- 0.0
effort:
- 0.42419910430908203
- -23.597078323364258
- -1.7604179382324219
- 23.712324142456055
- 1.6186710596084595
- 2.0903475284576416
- -0.306815505027771
- 0.0
- 0.0
---
header:
  stamp:
    sec: 1756281298
    nanosec: 378887135
  frame_id: ''
name:
- fr3_joint1
- fr3_joint2
- fr3_joint3
- fr3_joint4
- fr3_joint5
- fr3_joint6
- fr3_joint7
- fr3_finger_joint1
- fr3_finger_joint2
position:
- -0.140548434682909
- -0.1485524908497898
- 0.3275098664296847
- -1.9682632371377398
- 0.40102772525659725
- 1.8376841717475685
- -0.24879205560943687
- 0.0
- 0.0
velocity:
- 0.049459028654088175
- 0.023033551132447407
- -0.0007296804404945535
- 0.07063404809473797
- 0.2126208332291284
- -0.04264173931138765
- -0.195365393320154
- 0.0
- 0.0
effort:
- 0.678105354309082
- -23.418550491333008
- -1.6056938171386719
- 23.474287033081055
- 1.6250797510147095
- 2.0766146183013916
- -0.280265212059021
- 0.0
- 0.0
---
header:
  stamp:
    sec: 1756281298
    nanosec: 412406678
  frame_id: ''
name:
- fr3_joint1
- fr3_joint2
- fr3_joint3
- fr3_joint4
- fr3_joint5
- fr3_joint6
- fr3_joint7
- fr3_finger_joint1
- fr3_finger_joint2
position:
- -0.13891917842311097
- -0.1476889743491857
- 0.32750912447173447
- -1.9658859973600633
- 0.40795057090698655
- 1.8362948392281018
- -0.2555510338258635
- 0.0
- 0.0
velocity:
- 0.050472064446918624
- 0.02803397967191824
- 0.0009953278806583855
- 0.07272146715960898
- 0.21574182012351764
- -0.04149796504939658
- -0.2241648883728059
- 0.0
- 0.0
effort:
- 0.578923225402832
- -23.648653030395508
- -1.6334648132324219
- 23.422712326049805
- 1.6250797510147095
- 2.0637972354888916
- -0.300406813621521
- 0.0
- 0.0
---
header:
  stamp:
    sec: 1756281298
    nanosec: 445276761
  frame_id: ''
name:
- fr3_joint1
- fr3_joint2
- fr3_joint3
- fr3_joint4
- fr3_joint5
- fr3_joint6
- fr3_joint7
- fr3_finger_joint1
- fr3_finger_joint2
position:
- -0.13718472196429168
- -0.14676907505458445
- 0.32749258771084766
- -1.9634585108997955
- 0.41499127419341086
- 1.8349267424394664
- -0.26239348697121473
- 0.0
- 0.0
velocity:
- 0.053963536615011604
- 0.02662203511290785
- -0.0018173000929125967
- 0.07224097300445467
- 0.20369380167539688
- -0.04005290130564035
- -0.19039854850223512
- 0.0
- 0.0
effort:
- 0.781254768371582
- -23.878755569458008
- -1.3716239929199219
- 23.632978439331055
- 1.7431827783584595
- 2.0766146183013916
- -0.340690016746521
- 0.0
- 0.0
---
header:
  stamp:
    sec: 1756281298
    nanosec: 478719573
  frame_id: ''
name:
- fr3_joint1
- fr3_joint2
- fr3_joint3
- fr3_joint4
- fr3_joint5
- fr3_joint6
- fr3_joint7
- fr3_finger_joint1
- fr3_finger_joint2
position:
- -0.13536257506289276
- -0.14589807274489086
- 0.3274731502449825
- -1.9610881562362033
- 0.42216128875098013
- 1.8336349958384395
- -0.2689824071714062
- 0.0
- 0.0
velocity:
- 0.05576177942376876
- 0.022377933746591035
- -0.0006459467904857215
- 0.06551808145948737
- 0.2126612002471059
- -0.03416076552551189
- -0.20874756594709218
- 0.0
- 0.0
effort:
- 0.884404182434082
- -23.775606155395508
- -1.2684745788574219
- 23.319562911987305
- 1.6836735010147095
- 1.9768222570419312
- -0.348014235496521
- 0.0
- 0.0
---
header:
  stamp:
    sec: 1756281298
    nanosec: 511930841
  frame_id: ''
name:
- fr3_joint1
- fr3_joint2
- fr3_joint3
- fr3_joint4
- fr3_joint5
- fr3_joint6
- fr3_joint7
- fr3_finger_joint1
- fr3_finger_joint2
position:
- -0.13354865346471118
- -0.14513737433183602
- 0.32749387337957253
- -1.9590111773357168
- 0.42905178544334993
- 1.8323427611292167
- -0.2764236233449906
- 0.0
- 0.0
velocity:
- 0.05513338239749653
- 0.025146933346700977
- 0.0009056679537887333
- 0.0625228763297189
- 0.20978725370766607
- -0.04461988051383084
- -0.23132888825029682
- 0.0
- 0.0
effort:
- 0.757451057434082
- -23.827180862426758
- -1.4747734069824219
- 23.632978439331055
- 1.6378971338272095
- 2.0436556339263916
- -0.272940993309021
- 0.0
- 0.0
---
header:
  stamp:
    sec: 1756281298
    nanosec: 545294806
  frame_id: ''
name:
- fr3_joint1
- fr3_joint2
- fr3_joint3
- fr3_joint4
- fr3_joint5
- fr3_joint6
- fr3_joint7
- fr3_finger_joint1
- fr3_finger_joint2
position:
- -0.13163442310502926
- -0.14430598775207049
- 0.32751576644960695
- -1.9568128055351508
- 0.4358043803816417
- 1.8307907097389278
- -0.2831511045397058
- 0.0
- 0.0
velocity:
- 0.05709916838175839
- 0.023977837430546205
- 0.0010556583140959915
- 0.06407370703765224
- 0.20439434409786938
- -0.04599840703028318
- -0.18006881957457396
- 0.0
- 0.0
effort:
- 0.578923225402832
- -23.827180862426758
- -1.5541191101074219
- 23.605207443237305
- 1.7294498682022095
- 2.0235140323638916
- -0.354422926902771
- 0.0
- 0.0
---
header:
  stamp:
    sec: 1756281298
    nanosec: 578738488
  frame_id: ''
name:
- fr3_joint1
- fr3_joint2
- fr3_joint3
- fr3_joint4
- fr3_joint5
- fr3_joint6
- fr3_joint7
- fr3_finger_joint1
- fr3_finger_joint2
position:
- -0.12988414829679104
- -0.14345926329808786
- 0.32762381088356274
- -1.9546148788465225
- 0.4429969672013705
- 1.8292563229674057
- -0.2896661967524342
- 0.0
- 0.0
velocity:
- 0.048148602317361906
- 0.024293604259859356
- 0.005758429719119647
- 0.06652884460858487
- 0.20735188769577292
- -0.04618717782523934
- -0.20617899289560426
- 0.0
- 0.0
effort:
- 0.42419910430908203
- -23.878755569458008
- -1.7604179382324219
- 23.740095138549805
- 1.7624088525772095
- 2.0830233097076416
- -0.348014235496521
- 0.0
- 0.0
---
header:
  stamp:
    sec: 1756281298
    nanosec: 611925673
  frame_id: ''
name:
- fr3_joint1
- fr3_joint2
- fr3_joint3
- fr3_joint4
- fr3_joint5
- fr3_joint6
- fr3_joint7
- fr3_finger_joint1
- fr3_finger_joint2
position:
- -0.12826160283735305
- -0.14258599964346483
- 0.32768873678608296
- -1.9523461764301182
- 0.4499869203428941
- 1.8278424562118856
- -0.2966455264474956
- 0.0
- 0.0
velocity:
- 0.052450436010679044
- 0.026889215775401643
- -0.0007152458413591025
- 0.0701537696342521
- 0.21585845804517634
- -0.04509928946340798
- -0.20163661391512652
- 0.0
- 0.0
effort:
- 0.626530647277832
- -24.081087112426758
- -1.5025444030761719
- 23.712324142456055
- 1.7294498682022095
- 2.0363314151763916
- -0.327872633934021
- 0.0
- 0.0
---
header:
  stamp:
    sec: 1756281298
    nanosec: 645401814
  frame_id: ''
name:
- fr3_joint1
- fr3_joint2
- fr3_joint3
- fr3_joint4
- fr3_joint5
- fr3_joint6
- fr3_joint7
- fr3_finger_joint1
- fr3_finger_joint2
position:
- -0.126521699222623
- -0.14173235087630773
- 0.3276842521107146
- -1.949865622197339
- 0.45697361463666203
- 1.8264866474445138
- -0.30325174416171374
- 0.0
- 0.0
velocity:
- 0.050943044160915905
- 0.023673429040199135
- -0.00032486700623833944
- 0.07269351129995065
- 0.21385083889150538
- -0.035390484174141146
- -0.19212157940395108
- 0.0
- 0.0
effort:
- 0.832829475402832
- -24.081087112426758
- -1.3993949890136719
- 23.740095138549805
- 1.7230411767959595
- 2.0171053409576416
- -0.300406813621521
- 0.0
- 0.0
---
header:
  stamp:
    sec: 1756281298
    nanosec: 678824929
  frame_id: ''
name:
- fr3_joint1
- fr3_joint2
- fr3_joint3
- fr3_joint4
- fr3_joint5
- fr3_joint6
- fr3_joint7
- fr3_finger_joint1
- fr3_finger_joint2
position:
- -0.12473985595836573
- -0.14101026490460097
- 0.3276710587262763
- -1.9474562561063296
- 0.464299297896468
- 1.8251962667757045
- -0.3099278984295352
- 0.0
- 0.0
velocity:
- 0.055011746362467
- 0.019209172911091747
- 0.00011856290093317464
- 0.06896492185542268
- 0.20948377627787668
- -0.039723420163137554
- -0.2170966242023946
- 0.0
- 0.0
effort:
- 0.805058479309082
- -23.977937698364258
- -1.2684745788574219
- 23.740095138549805
- 1.7102237939834595
- 2.0235140323638916
- -0.348014235496521
- 0.0
- 0.0
---
header:
  stamp:
    sec: 1756281298
    nanosec: 711886915
  frame_id: ''
name:
- fr3_joint1
- fr3_joint2
- fr3_joint3
- fr3_joint4
- fr3_joint5
- fr3_joint6
- fr3_joint7
- fr3_finger_joint1
- fr3_finger_joint2
position:
- -0.1228734250706777
- -0.14030595194135234
- 0.32764812463391985
- -1.9450911722392417
- 0.470919134410526
- 1.8239049039142374
- -0.31739544180835977
- 0.0
- 0.0
velocity:
- 0.06085971737857135
- 0.02145095768399773
- 0.0020255569713480068
- 0.07498255460538468
- 0.2031996652632791
- -0.04139534662096259
- -0.21191179444394062
- 0.0
- 0.0
effort:
- 0.959782600402832
- -24.156465530395508
- -1.1137504577636719
- 23.946393966674805
- 1.7495914697647095
- 2.0637972354888916
- -0.272940993309021
- 0.0
- 0.0
---
header:
  stamp:
    sec: 1756281298
    nanosec: 745497780
  frame_id: ''
name:
- fr3_joint1
- fr3_joint2
- fr3_joint3
- fr3_joint4
- fr3_joint5
- fr3_joint6
- fr3_joint7
- fr3_finger_joint1
- fr3_finger_joint2
position:
- -0.12083165427882107
- -0.1395451335574054
- 0.327691903632932
- -1.9426277147137971
- 0.47785492484363834
- 1.8225980894169023
- -0.32396639987156073
- 0.0
- 0.0
velocity:
- 0.0618280105102251
- 0.021863987475949295
- 0.0038387349808782683
- 0.0701983505500034
- 0.2132984424912425
- -0.04067866647772067
- -0.1966149836312442
- 0.0
- 0.0
effort:
- 0.578923225402832
- -24.057283401489258
- -1.6056938171386719
- 23.632978439331055
- 1.7495914697647095
- 2.0097811222076416
- -0.348014235496521
- 0.0
- 0.0
---
header:
  stamp:
    sec: 1756281298
    nanosec: 778692210
  frame_id: ''
name:
- fr3_joint1
- fr3_joint2
- fr3_joint3
- fr3_joint4
- fr3_joint5
- fr3_joint6
- fr3_joint7
- fr3_finger_joint1
- fr3_finger_joint2
position:
- -0.11878962609016559
- -0.13876940208289595
- 0.3277262623291768
- -1.940171742866755
- 0.4849543625121445
- 1.8211933224297145
- -0.3306136186905487
- 0.0
- 0.0
velocity:
- 0.05971590924429587
- 0.024864596650628762
- 0.002495149071169658
- 0.0737726347748714
- 0.21231231042770238
- -0.0428360197232321
- -0.20404429007373245
- 0.0
- 0.0
effort:
- 0.551152229309082
- -24.184236526489258
- -1.5541191101074219
- 23.581403732299805
- 1.7889591455459595
- 2.0235140323638916
- -0.368155837059021
- 0.0
- 0.0
---
header:
  stamp:
    sec: 1756281298
    nanosec: 812135751
  frame_id: ''
name:
- fr3_joint1
- fr3_joint2
- fr3_joint3
- fr3_joint4
- fr3_joint5
- fr3_joint6
- fr3_joint7
- fr3_finger_joint1
- fr3_finger_joint2
position:
- -0.11701050887363007
- -0.13800761215722354
- 0.32784419389131425
- -1.9377546776219514
- 0.49194183666626207
- 1.8199862939336704
- -0.3375794457958813
- 0.0
- 0.0
velocity:
- 0.05146737449172215
- 0.022183391954809208
- 0.005658160620891231
- 0.0732028303639302
- 0.21075632938030245
- -0.033800500678009604
- -0.2007415480064389
- 0.0
- 0.0
effort:
- 0.32104969024658203
- -24.208040237426758
- -1.7604179382324219
- 23.605207443237305
- 1.7560001611709595
- 1.9832309484481812
- -0.374564528465271
- 0.0
- 0.0
---
header:
  stamp:
    sec: 1756281298
    nanosec: 845310133
  frame_id: ''
name:
- fr3_joint1
- fr3_joint2
- fr3_joint3
- fr3_joint4
- fr3_joint5
- fr3_joint6
- fr3_joint7
- fr3_finger_joint1
- fr3_finger_joint2
position:
- -0.11537668186740517
- -0.1373154473043876
- 0.32797926709578573
- -1.9353291732601643
- 0.49914188916113905
- 1.8187279098218982
- -0.34404635514000786
- 0.0
- 0.0
velocity:
- 0.05034213710090173
- 0.02003414192649964
- 0.0005695665576186204
- 0.06801781630283885
- 0.21521483022039586
- -0.034973513467266286
- -0.18873982421395577
- 0.0
- 0.0
effort:
- 0.551152229309082
- -24.057283401489258
- -1.5263481140136719
- 23.267988204956055
- 1.7560001611709595
- 1.9566806554794312
- -0.388297438621521
- 0.0
- 0.0
---
header:
  stamp:
    sec: 1756281298
    nanosec: 878652769
  frame_id: ''
name:
- fr3_joint1
- fr3_joint2
- fr3_joint3
- fr3_joint4
- fr3_joint5
- fr3_joint6
- fr3_joint7
- fr3_finger_joint1
- fr3_finger_joint2
position:
- -0.11370108894946389
- -0.13665797725079115
- 0.3279783550390917
- -1.9330820949736578
- 0.5063285232416388
- 1.8174521586503913
- -0.3512372092038346
- 0.0
- 0.0
velocity:
- 0.050244150485195566
- 0.02193821445541628
- -0.0006062461009399887
- 0.0655226804975774
- 0.21405750024203773
- -0.03844445035052697
- -0.23094345331660165
- 0.0
- 0.0
effort:
- 0.654301643371582
- -23.850984573364258
- -1.3716239929199219
- 23.450483322143555
- 1.7889591455459595
- 1.9566806554794312
- -0.334281325340271
- 0.0
- 0.0
---
header:
  stamp:
    sec: 1756281298
    nanosec: 912595807
  frame_id: ''
name:
- fr3_joint1
- fr3_joint2
- fr3_joint3
- fr3_joint4
- fr3_joint5
- fr3_joint6
- fr3_joint7
- fr3_finger_joint1
- fr3_finger_joint2
position:
- -0.11201340988507232
- -0.1358365255074943
- 0.32798044397469706
- -1.9308319308508242
- 0.5128706106886519
- 1.8161770240530517
- -0.3585286170140248
- 0.0
- 0.0
velocity:
- 0.05669906503126747
- 0.026881736442937704
- 0.0003648350758843487
- 0.0700228528978573
- 0.19473917891312048
- -0.03642567319054874
- -0.20402239690336496
- 0.0
- 0.0
effort:
- 0.626530647277832
- -24.005708694458008
- -1.3993949890136719
- 23.343366622924805
- 1.8475528955459595
- 1.9438632726669312
- -0.340690016746521
- 0.0
- 0.0
---
header:
  stamp:
    sec: 1756281298
    nanosec: 945288925
  frame_id: ''
name:
- fr3_joint1
- fr3_joint2
- fr3_joint3
- fr3_joint4
- fr3_joint5
- fr3_joint6
- fr3_joint7
- fr3_finger_joint1
- fr3_finger_joint2
position:
- -0.11017199075689277
- -0.13485677737914073
- 0.3279586232060148
- -1.928609859586438
- 0.5199012206376982
- 1.8148996518439529
- -0.36479684246069893
- 0.0
- 0.0
velocity:
- 0.05552852990667867
- 0.03063805596468721
- -0.0009601512625586906
- 0.06658875307955515
- 0.20925566263201864
- -0.039297409095816374
- -0.1863184571329221
- 0.0
- 0.0
effort:
- 0.832829475402832
- -24.029512405395508
- -1.1930961608886719
- 23.553632736206055
- 1.8081852197647095
- 1.9365390539169312
- -0.340690016746521
- 0.0
- 0.0
---
header:
  stamp:
    sec: 1756281298
    nanosec: 978693944
  frame_id: ''
name:
- fr3_joint1
- fr3_joint2
- fr3_joint3
- fr3_joint4
- fr3_joint5
- fr3_joint6
- fr3_joint7
- fr3_finger_joint1
- fr3_finger_joint2
position:
- -0.10821787994755935
- -0.13370792367780762
- 0.32797487013211246
- -1.9262331580438807
- 0.5271288594247178
- 1.8135400656464329
- -0.3716739014577272
- 0.0
- 0.0
velocity:
- 0.057813375605183216
- 0.03618602582818529
- 0.001586786062313243
- 0.07070037161477423
- 0.22432010432205302
- -0.038258133447691633
- -0.21274789793332965
- 0.0
- 0.0
effort:
- 0.654301643371582
- -24.358797073364258
- -1.4231986999511719
- 23.581403732299805
- 1.7495914697647095
- 1.9438632726669312
- -0.334281325340271
- 0.0
- 0.0
---
header:
  stamp:
    sec: 1756281299
    nanosec: 12550026
  frame_id: ''
name:
- fr3_joint1
- fr3_joint2
- fr3_joint3
- fr3_joint4
- fr3_joint5
- fr3_joint6
- fr3_joint7
- fr3_finger_joint1
- fr3_finger_joint2
position:
- -0.1063430538034562
- -0.1326120265420445
- 0.3279948607833334
- -1.9238564656562673
- 0.5339508911402578
- 1.8121498416331658
- -0.37831152658740724
- 0.0
- 0.0
velocity:
- 0.05925199530543669
- 0.030923510018640823
- -0.0007252190733945767
- 0.07230028724535038
- 0.2108808511281039
- -0.04175824416323749
- -0.1984142222878211
- 0.0
- 0.0
effort:
- 0.551152229309082
- -24.334993362426758
- -1.4231986999511719
- 23.581403732299805
- 1.8081852197647095
- 1.9099887609481812
- -0.402030348777771
- 0.0
- 0.0
---
header:
  stamp:
    sec: 1756281299
    nanosec: 45289572
  frame_id: ''
name:
- fr3_joint1
- fr3_joint2
- fr3_joint3
- fr3_joint4
- fr3_joint5
- fr3_joint6
- fr3_joint7
- fr3_finger_joint1
- fr3_finger_joint2
position:
- -0.1045117547017672
- -0.13164162845153107
- 0.32801262781248564
- -1.921569540946847
- 0.5411660226977633
- 1.8106316825979114
- -0.3847864882885306
- 0.0
- 0.0
velocity:
- 0.05493114290366047
- 0.02621230766239607
- -0.0007808698976317256
- 0.06365120646747292
- 0.20946774022143624
- -0.04541660432434871
- -0.1928013032327138
- 0.0
- 0.0
effort:
- 0.527348518371582
- -24.358797073364258
- -1.3993949890136719
- 23.712324142456055
- 1.8283268213272095
- 1.9905551671981812
- -0.300406813621521
- 0.0
- 0.0
---
header:
  stamp:
    sec: 1756281299
    nanosec: 78833932
  frame_id: ''
name:
- fr3_joint1
- fr3_joint2
- fr3_joint3
- fr3_joint4
- fr3_joint5
- fr3_joint6
- fr3_joint7
- fr3_finger_joint1
- fr3_finger_joint2
position:
- -0.10282048725007323
- -0.1307737793594876
- 0.3280883184119379
- -1.919334347312643
- 0.5481433502979343
- 1.8089862823034188
- -0.3922533470326679
- 0.0
- 0.0
velocity:
- 0.049842964330053544
- 0.02590486557283343
- 0.0007009991813379263
- 0.06939618343424997
- 0.2026468048707681
- -0.05305423304921596
- -0.24348055858850462
- 0.0
- 0.0
effort:
- 0.527348518371582
- -24.386568069458008
- -1.4509696960449219
- 24.105085372924805
- 1.8741031885147095
- 2.0171053409576416
- -0.272940993309021
- 0.0
- 0.0
---
header:
  stamp:
    sec: 1756281299
    nanosec: 112488400
  frame_id: ''
name:
- fr3_joint1
- fr3_joint2
- fr3_joint3
- fr3_joint4
- fr3_joint5
- fr3_joint6
- fr3_joint7
- fr3_finger_joint1
- fr3_finger_joint2
position:
- -0.10112361001878512
- -0.1298800168716589
- 0.32808347177186165
- -1.9169710794471726
- 0.5547706890565929
- 1.8075126654606575
- -0.3992170641734727
- 0.0
- 0.0
velocity:
- 0.052150561523732035
- 0.027058578046185916
- 0.000765494046334749
- 0.07066003455968312
- 0.20751548942462023
- -0.04091043375797011
- -0.19795605228097762
- 0.0
- 0.0
effort:
- 0.678105354309082
- -24.386568069458008
- -1.2684745788574219
- 23.871015548706055
- 1.8539615869522095
- 1.9630893468856812
- -0.306815505027771
- 0.0
- 0.0
---
header:
  stamp:
    sec: 1756281299
    nanosec: 145549575
  frame_id: ''
name:
- fr3_joint1
- fr3_joint2
- fr3_joint3
- fr3_joint4
- fr3_joint5
- fr3_joint6
- fr3_joint7
- fr3_finger_joint1
- fr3_finger_joint2
position:
- -0.09937871242566014
- -0.12903275797035926
- 0.32809092100454773
- -1.914619887710658
- 0.5618993152011328
- 1.8060963723572099
- -0.4057867821673925
- 0.0
- 0.0
velocity:
- 0.052169231539630906
- 0.024552304220287043
- 0.0011742910142842548
- 0.06963896653896567
- 0.21036829941550958
- -0.04319576686510832
- -0.19263687419619455
- 0.0
- 0.0
effort:
- 0.626530647277832
- -24.565095901489258
- -1.3716239929199219
- 24.025739669799805
- 1.8539615869522095
- 1.9502719640731812
- -0.320548415184021
- 0.0
- 0.0
---
header:
  stamp:
    sec: 1756281299
    nanosec: 178692722
  frame_id: ''
name:
- fr3_joint1
- fr3_joint2
- fr3_joint3
- fr3_joint4
- fr3_joint5
- fr3_joint6
- fr3_joint7
- fr3_finger_joint1
- fr3_finger_joint2
position:
- -0.09754205822790812
- -0.12818071548535032
- 0.32805899464999216
- -1.9121738996837474
- 0.5691266224231694
- 1.8045767498257008
- -0.4128043006445962
- 0.0
- 0.0
velocity:
- 0.05584428413083332
- 0.024670554392410823
- -0.0007875024454848801
- 0.07213810318451513
- 0.21097365272959612
- -0.04309416439525433
- -0.21742013685711206
- 0.0
- 0.0
effort:
- 0.935978889465332
- -24.664278030395508
- -1.0383720397949219
- 23.740095138549805
- 1.8475528955459595
- 1.9035800695419312
- -0.327872633934021
- 0.0
- 0.0
---
header:
  stamp:
    sec: 1756281299
    nanosec: 212519802
  frame_id: ''
name:
- fr3_joint1
- fr3_joint2
- fr3_joint3
- fr3_joint4
- fr3_joint5
- fr3_joint6
- fr3_joint7
- fr3_finger_joint1
- fr3_finger_joint2
position:
- -0.09562777799571187
- -0.1274054760724647
- 0.32804333950670933
- -1.9097703176257863
- 0.576046129244679
- 1.8032179716580679
- -0.41937410479933157
- 0.0
- 0.0
velocity:
- 0.06156641668315065
- 0.022115652992152228
- 0.00016189726153809753
- 0.07299117817524593
- 0.21637086120434373
- -0.039113945684943086
- -0.19107231066549954
- 0.0
- 0.0
effort:
- 0.935978889465332
- -24.616670608520508
- -0.9590262770652771
- 23.553632736206055
- 1.8805118799209595
- 1.8632968664169312
- -0.381888747215271
- 0.0
- 0.0
---
header:
  stamp:
    sec: 1756281299
    nanosec: 245304685
  frame_id: ''
name:
- fr3_joint1
- fr3_joint2
- fr3_joint3
- fr3_joint4
- fr3_joint5
- fr3_joint6
- fr3_joint7
- fr3_finger_joint1
- fr3_finger_joint2
position:
- -0.09363325586538372
- -0.12675786259912744
- 0.3280849973124798
- -1.9075367170521484
- 0.5832337283170713
- 1.8019079858270235
- -0.4259124791267348
- 0.0
- 0.0
velocity:
- 0.06042756219827482
- 0.017935709384618723
- -0.000419772250650661
- 0.06301400398642314
- 0.21127872236047016
- -0.04132005877330859
- -0.20378537425804835
- 0.0
- 0.0
effort:
- 0.729680061340332
- -24.386568069458008
- -1.2962455749511719
- 23.712324142456055
- 1.8869205713272095
- 1.8898471593856812
- -0.395621657371521
- 0.0
- 0.0
---
header:
  stamp:
    sec: 1756281299
    nanosec: 278547966
  frame_id: ''
name:
- fr3_joint1
- fr3_joint2
- fr3_joint3
- fr3_joint4
- fr3_joint5
- fr3_joint6
- fr3_joint7
- fr3_finger_joint1
- fr3_finger_joint2
position:
- -0.09175101004288047
- -0.12612488539862624
- 0.3281462564535631
- -1.9053664213009487
- 0.5898606802149609
- 1.8005224650612377
- -0.43329821640456617
- 0.0
- 0.0
velocity:
- 0.0557367048121538
- 0.021108632560908676
- 0.0024375098903460005
- 0.06873332848203728
- 0.1936011632137935
- -0.03994490676415691
- -0.23120188596790922
- 0.0
- 0.0
effort:
- 0.527348518371582
- -24.461946487426758
- -1.3716239929199219
- 23.632978439331055
- 1.8933292627334595
- 1.8632968664169312
- -0.354422926902771
- 0.0
- 0.0
---
header:
  stamp:
    sec: 1756281299
    nanosec: 312457951
  frame_id: ''
name:
- fr3_joint1
- fr3_joint2
- fr3_joint3
- fr3_joint4
- fr3_joint5
- fr3_joint6
- fr3_joint7
- fr3_finger_joint1
- fr3_finger_joint2
position:
- -0.09002897516160688
- -0.12544582173709828
- 0.32829774092703207
- -1.9031265098225727
- 0.5968248078804923
- 1.7991533635962034
- -0.44009281639657805
- 0.0
- 0.0
velocity:
- 0.04923144189689442
- 0.02015904658787396
- 0.00521773586542439
- 0.06789747655835493
- 0.2138667138152936
- -0.04180450115911747
- -0.18586297240435043
- 0.0
- 0.0
effort:
- 0.44800281524658203
- -24.386568069458008
- -1.5025444030761719
- 23.632978439331055
- 1.8869205713272095
- 1.8898471593856812
- -0.314139723777771
- 0.0
- 0.0
---
header:
  stamp:
    sec: 1756281299
    nanosec: 345483862
  frame_id: ''
name:
- fr3_joint1
- fr3_joint2
- fr3_joint3
- fr3_joint4
- fr3_joint5
- fr3_joint6
- fr3_joint7
- fr3_finger_joint1
- fr3_finger_joint2
position:
- -0.08830993986728282
- -0.12471871981045522
- 0.3283362890072964
- -1.9008026177325512
- 0.6039941609798409
- 1.7976828465863397
- -0.4465862342105721
- 0.0
- 0.0
velocity:
- 0.05231077480945975
- 0.021398849910173292
- 0.0001609531428174053
- 0.07006496800340628
- 0.21971797448932856
- -0.043659826159741025
- -0.2059771332393943
- 0.0
- 0.0
effort:
- 0.626530647277832
- -24.489717483520508
- -1.3716239929199219
- 23.740095138549805
- 1.9326969385147095
- 1.8971713781356812
- -0.293998122215271
- 0.0
- 0.0
---
header:
  stamp:
    sec: 1756281299
    nanosec: 378813576
  frame_id: ''
name:
- fr3_joint1
- fr3_joint2
- fr3_joint3
- fr3_joint4
- fr3_joint5
- fr3_joint6
- fr3_joint7
- fr3_finger_joint1
- fr3_finger_joint2
position:
- -0.08654663968109301
- -0.12394524374638459
- 0.32834082067050396
- -1.8982967110121238
- 0.6112237840650211
- 1.7963027344281999
- -0.45371798483494347
- 0.0
- 0.0
velocity:
- 0.051083053126376336
- 0.023720084857894355
- 0.00036962101919597325
- 0.07595476714341097
- 0.20538485850685947
- -0.03794762161540578
- -0.2005429319966366
- 0.0
- 0.0
effort:
- 0.602726936340332
- -24.565095901489258
- -1.3200492858886719
- 23.529829025268555
- 1.8805118799209595
- 1.8632968664169312
- -0.348014235496521
- 0.0
- 0.0
---
header:
  stamp:
    sec: 1756281299
    nanosec: 412480540
  frame_id: ''
name:
- fr3_joint1
- fr3_joint2
- fr3_joint3
- fr3_joint4
- fr3_joint5
- fr3_joint6
- fr3_joint7
- fr3_finger_joint1
- fr3_finger_joint2
position:
- -0.0848565087190291
- -0.12321976559106623
- 0.32833082658721763
- -1.8958788249554104
- 0.6182077005465962
- 1.7951314775549716
- -0.46019757022892366
- 0.0
- 0.0
velocity:
- 0.05518347026245204
- 0.022804482671314883
- -0.0020701706777885545
- 0.07155702202581059
- 0.214881178225
- -0.033269365332868554
- -0.19267163749535202
- 0.0
- 0.0
effort:
- 0.729680061340332
- -24.311189651489258
- -1.1137504577636719
- 23.291791915893555
- 1.8475528955459595
- 1.7635043859481812
- -0.361747145652771
- 0.0
- 0.0
---
header:
  stamp:
    sec: 1756281299
    nanosec: 445462587
  frame_id: ''
name:
- fr3_joint1
- fr3_joint2
- fr3_joint3
- fr3_joint4
- fr3_joint5
- fr3_joint6
- fr3_joint7
- fr3_finger_joint1
- fr3_finger_joint2
position:
- -0.08304730034842918
- -0.12246221724255202
- 0.32831774490956145
- -1.8934752175353318
- 0.6251607469367226
- 1.7939247483325567
- -0.46693786444232194
- 0.0
- 0.0
velocity:
- 0.0562594590233094
- 0.026712975369127052
- -0.0008133356683573432
- 0.07229098960821642
- 0.20411044366227418
- -0.03383685926976605
- -0.21719041879143564
- 0.0
- 0.0
effort:
- 0.959782600402832
- -24.386568069458008
- -1.0383720397949219
- 23.632978439331055
- 1.9134708642959595
- 1.7900546789169312
- -0.374564528465271
- 0.0
- 0.0
---
header:
  stamp:
    sec: 1756281299
    nanosec: 478779633
  frame_id: ''
name:
- fr3_joint1
- fr3_joint2
- fr3_joint3
- fr3_joint4
- fr3_joint5
- fr3_joint6
- fr3_joint7
- fr3_finger_joint1
- fr3_finger_joint2
position:
- -0.0811366242124996
- -0.1215771397880915
- 0.32834347201172626
- -1.890956989691631
- 0.6320184824449718
- 1.792474740017277
- -0.47455460489077195
- 0.0
- 0.0
velocity:
- 0.056762726460995054
- 0.028303897168705478
- 0.0009514494199734721
- 0.07357628665196099
- 0.20243368972764259
- -0.044487153804970356
- -0.20736208283304483
- 0.0
- 0.0
effort:
- 0.626530647277832
- -24.461946487426758
- -1.2684745788574219
- 23.529829025268555
- 1.9720646142959595
- 1.7964633703231812
- -0.354422926902771
- 0.0
- 0.0
---
header:
  stamp:
    sec: 1756281299
    nanosec: 511912181
  frame_id: ''
name:
- fr3_joint1
- fr3_joint2
- fr3_joint3
- fr3_joint4
- fr3_joint5
- fr3_joint6
- fr3_joint7
- fr3_finger_joint1
- fr3_finger_joint2
position:
- -0.07931502190917086
- -0.12068382062012827
- 0.328356175967383
- -1.8886402542381813
- 0.6388698056374527
- 1.7908635225088025
- -0.48085085564744906
- 0.0
- 0.0
velocity:
- 0.05475281298200131
- 0.02824125297700522
- 0.0007531922687584879
- 0.06896518208134168
- 0.21329144744909467
- -0.04842236784689368
- -0.19240570669536033
- 0.0
- 0.0
effort:
- 0.654301643371582
- -24.692049026489258
- -1.2962455749511719
- 23.815473556518555
- 1.9592472314834595
- 1.8770297765731812
- -0.348014235496521
- 0.0
- 0.0
---
header:
  stamp:
    sec: 1756281299
    nanosec: 545311586
  frame_id: ''
name:
- fr3_joint1
- fr3_joint2
- fr3_joint3
- fr3_joint4
- fr3_joint5
- fr3_joint6
- fr3_joint7
- fr3_finger_joint1
- fr3_finger_joint2
position:
- -0.07757015539857423
- -0.11972666874418428
- 0.3284714185151123
- -1.886219822576673
- 0.6461188834556134
- 1.7892368158287406
- -0.48743005778702364
- 0.0
- 0.0
velocity:
- 0.05027849055520735
- 0.03012043992356985
- 0.0059812332129054215
- 0.0724020097602397
- 0.21645119972542828
- -0.04697509275863352
- -0.20159266812942866
- 0.0
- 0.0
effort:
- 0.29724597930908203
- -24.743623733520508
- -1.5541191101074219
- 23.740095138549805
- 1.9262882471084595
- 1.8504794836044312
- -0.415763258934021
- 0.0
- 0.0
---
header:
  stamp:
    sec: 1756281299
    nanosec: 578586822
  frame_id: ''
name:
- fr3_joint1
- fr3_joint2
- fr3_joint3
- fr3_joint4
- fr3_joint5
- fr3_joint6
- fr3_joint7
- fr3_finger_joint1
- fr3_finger_joint2
position:
- -0.07596654985391137
- -0.11885501635390357
- 0.32852809735012517
- -1.8839002399897982
- 0.6530799952811275
- 1.7876878839654573
- -0.49450663378681714
- 0.0
- 0.0
velocity:
- 0.05094976613883203
- 0.024785196919772597
- -0.0004467691218457658
- 0.06775139338549395
- 0.21823126468654228
- -0.040532389492095394
- -0.2058335921714436
- 0.0
- 0.0
effort:
- 0.626530647277832
- -24.692049026489258
- -1.2446708679199219
- 23.632978439331055
- 1.8933292627334595
- 1.7570956945419312
- -0.374564528465271
- 0.0
- 0.0
---
header:
  stamp:
    sec: 1756281299
    nanosec: 611930679
  frame_id: ''
name:
- fr3_joint1
- fr3_joint2
- fr3_joint3
- fr3_joint4
- fr3_joint5
- fr3_joint6
- fr3_joint7
- fr3_finger_joint1
- fr3_finger_joint2
position:
- -0.0742514110580992
- -0.11805843694409432
- 0.3285133511459225
- -1.8816788140300285
- 0.660292549057826
- 1.7863571176867887
- -0.5009046157495383
- 0.0
- 0.0
velocity:
- 0.05042169350008962
- 0.024651113430517083
- 0.0004526932270674314
- 0.06534151996732661
- 0.21251468235575668
- -0.040293739333996
- -0.19118327277955122
- 0.0
- 0.0
effort:
- 0.757451057434082
- -24.640474319458008
- -1.0899467468261719
- 23.553632736206055
- 1.9061466455459595
- 1.7699130773544312
- -0.348014235496521
- 0.0
- 0.0
---
header:
  stamp:
    sec: 1756281299
