header:
  stamp:
    sec: 1756282012
    nanosec: 605662843
  frame_id: ''
name:
- fr3_joint1
- fr3_joint2
- fr3_joint3
- fr3_joint4
- fr3_joint5
- fr3_joint6
- fr3_joint7
- fr3_finger_joint1
- fr3_finger_joint2
position:
- -0.08113385048472838
- -0.30698304514063784
- -0.789112754710499
- -2.2214159767887525
- 1.212767945545675
- 4.000974436690988
- -0.3001773079469424
- 0.0
- 0.0
velocity:
- -0.06675883936243793
- 0.03639335041672148
- 0.10738583088266501
- 0.08784832655424808
- -0.021945429820977427
- -0.023932206683428197
- 0.15396698268037826
- 0.0
- 0.0
effort:
- -0.670771598815918
- -8.084993362426758
- 6.674030303955078
- 20.463117599487305
- -2.867412805557251
- 0.9569247364997864
- 0.0722128301858902
- 0.0
- 0.0
---
header:
  stamp:
    sec: 1756282012
    nanosec: 639457124
  frame_id: ''
name:
- fr3_joint1
- fr3_joint2
- fr3_joint3
- fr3_joint4
- fr3_joint5
- fr3_joint6
- fr3_joint7
- fr3_finger_joint1
- fr3_finger_joint2
position:
- -0.08333220207979596
- -0.30567415783860835
- -0.785663749667187
- -2.21853253641107
- 1.2121168890930234
- 4.000196248931587
- -0.29564231621261866
- 0.0
- 0.0
velocity:
- -0.06442062772224234
- 0.04206663865502107
- 0.10162160351145962
- 0.08718873006020633
- -0.020565841323339447
- -0.023006194411918434
- 0.13972067707350325
- 0.0
- 0.0
effort:
- -0.797724723815918
- -8.084993362426758
- 6.463764190673828
- 20.332197189331055
- -2.860088586807251
- 0.9569247364997864
- 0.1472860723733902
- 0.0
- 0.0
---
header:
  stamp:
    sec: 1756282012
    nanosec: 672407522
  frame_id: ''
name:
- fr3_joint1
- fr3_joint2
- fr3_joint3
- fr3_joint4
- fr3_joint5
- fr3_joint6
- fr3_joint7
- fr3_finger_joint1
- fr3_finger_joint2
position:
- -0.08567549052275732
- -0.3042061283950686
- -0.7822696592316154
- -2.215656033416242
- 1.2114808936104349
- 3.9994439248743157
- -0.2907942048235368
- 0.0
- 0.0
velocity:
- -0.07566161149217769
- 0.04514300613854177
- 0.1070245814045724
- 0.08982679726294572
- -0.019273853089461283
- -0.024297926387913872
- 0.15161650882550376
- 0.0
- 0.0
effort:
- -0.825495719909668
- -8.442049026489258
- 6.463764190673828
- 20.776533126831055
- -2.913189172744751
- 0.9505160450935364
- 0.1738363653421402
- 0.0
- 0.0
---
header:
  stamp:
    sec: 1756282012
    nanosec: 705625070
  frame_id: ''
name:
- fr3_joint1
- fr3_joint2
- fr3_joint3
- fr3_joint4
- fr3_joint5
- fr3_joint6
- fr3_joint7
- fr3_finger_joint1
- fr3_finger_joint2
position:
- -0.08816474376075459
- -0.3025895278304567
- -0.7786564077239337
- -2.2123831913149434
- 1.2108109291734097
- 3.998657141489071
- -0.2849172826684481
- 0.0
- 0.0
velocity:
- -0.07061231991480614
- 0.04485097036677704
- 0.10594927919922392
- 0.0990506735413075
- -0.02188120188747795
- -0.022025010994832363
- 0.17878382103263188
- 0.0
- 0.0
effort:
- -0.877070426940918
- -8.668184280395508
- 6.388385772705078
- 20.594038009643555
- -2.893047571182251
- 0.9642489552497864
- 0.1335531622171402
- 0.0
- 0.0
---
header:
  stamp:
    sec: 1756282012
    nanosec: 739435629
  frame_id: ''
name:
- fr3_joint1
- fr3_joint2
- fr3_joint3
- fr3_joint4
- fr3_joint5
- fr3_joint6
- fr3_joint7
- fr3_finger_joint1
- fr3_finger_joint2
position:
- -0.09062266533858446
- -0.30109806991348087
- -0.775107023810608
- -2.209217349326779
- 1.2099945333760558
- 3.9978515324419988
- -0.2796737121931118
- 0.0
- 0.0
velocity:
- -0.07094842811901186
- 0.041110943240624045
- 0.10425455837739543
- 0.0879208864530767
- -0.026383829521748815
- -0.022490547104834537
- 0.131885714236468
- 0.0
- 0.0
effort:
- -0.619196891784668
- -8.620576858520508
- 6.491535186767578
- 20.332197189331055
- -2.828045129776001
- 0.9441073536872864
- 0.1811605840921402
- 0.0
- 0.0
---
header:
  stamp:
    sec: 1756282012
    nanosec: 772545110
  frame_id: ''
name:
- fr3_joint1
- fr3_joint2
- fr3_joint3
- fr3_joint4
- fr3_joint5
- fr3_joint6
- fr3_joint7
- fr3_finger_joint1
- fr3_finger_joint2
position:
- -0.09269336747614652
- -0.2998661173939666
- -0.7718327246954886
- -2.2062659578063566
- 1.20934613246988
- 3.9970711696331733
- -0.27571801354971964
- 0.0
- 0.0
velocity:
- -0.0592775650190698
- 0.04004679806495607
- 0.09824040276673904
- 0.09170812101058609
- -0.019896194725128012
- -0.02543539291780034
- 0.1209607785482831
- 0.0
- 0.0
effort:
- -0.722346305847168
- -8.644380569458008
- 6.463764190673828
- 20.907453536987305
- -2.978191614151001
- 0.9376986622810364
- 0.1811605840921402
- 0.0
- 0.0
---
header:
  stamp:
    sec: 1756282012
    nanosec: 805602757
  frame_id: ''
name:
- fr3_joint1
- fr3_joint2
- fr3_joint3
- fr3_joint4
- fr3_joint5
- fr3_joint6
- fr3_joint7
- fr3_finger_joint1
- fr3_finger_joint2
position:
- -0.09476494155477662
- -0.2984729548628796
- -0.7684325420140626
- -2.2030827276261205
- 1.2086345019037181
- 3.9962324246413012
- -0.2710517554648262
- 0.0
- 0.0
velocity:
- -0.06197661237586596
- 0.04088210532238563
- 0.10429069664312002
- 0.09506790633772826
- -0.017387551189050224
- -0.025420898538406934
- 0.15383594020258534
- 0.0
- 0.0
effort:
- -0.750117301940918
- -8.922090530395508
- 6.388385772705078
- 20.594038009643555
- -2.899456262588501
- 0.9239657521247864
- 0.2013021856546402
- 0.0
- 0.0
---
header:
  stamp:
    sec: 1756282012
    nanosec: 839372924
  frame_id: ''
name:
- fr3_joint1
- fr3_joint2
- fr3_joint3
- fr3_joint4
- fr3_joint5
- fr3_joint6
- fr3_joint7
- fr3_finger_joint1
- fr3_finger_joint2
position:
- -0.09671563212282457
- -0.29712324410261853
- -0.7649575107421397
- -2.1998637665604637
- 1.2079875617727183
- 3.995392807800253
- -0.2654927649323242
- 0.0
- 0.0
velocity:
- -0.0621189007388762
- 0.04105098882390937
- 0.11013827197107835
- 0.09590757152101914
- -0.021108076313409153
- -0.024235112481251833
- 0.17410912319383778
- 0.0
- 0.0
effort:
- -0.670771598815918
- -8.973665237426758
- 6.515338897705078
- 20.673383712768555
- -2.945232629776001
- 0.9175570607185364
- 0.2013021856546402
- 0.0
- 0.0
---
header:
  stamp:
    sec: 1756282012
    nanosec: 872466441
  frame_id: ''
name:
- fr3_joint1
- fr3_joint2
- fr3_joint3
- fr3_joint4
- fr3_joint5
- fr3_joint6
- fr3_joint7
- fr3_finger_joint1
- fr3_finger_joint2
position:
- -0.09900616384680593
- -0.29578529235333834
- -0.7612865761079826
- -2.196770055851776
- 1.2072006628445355
- 3.9945573654857696
- -0.260000149573897
- 0.0
- 0.0
velocity:
- -0.07289286546832857
- 0.039948476479612895
- 0.11298820839419761
- 0.09234251762776846
- -0.025725898218050134
- -0.022575087054692432
- 0.14646786243657384
- 0.0
- 0.0
effort:
- -0.900874137878418
- -8.898286819458008
- 6.078937530517578
- 20.229047775268555
- -2.860088586807251
- 0.9102328419685364
- 0.1198202520608902
- 0.0
- 0.0
---
header:
  stamp:
    sec: 1756282012
    nanosec: 905576377
  frame_id: ''
name:
- fr3_joint1
- fr3_joint2
- fr3_joint3
- fr3_joint4
- fr3_joint5
- fr3_joint6
- fr3_joint7
- fr3_finger_joint1
- fr3_finger_joint2
position:
- -0.10143200467950893
- -0.2943573234274924
- -0.7576593964360958
- -2.193733450424211
- 1.206374500990738
- 3.993771958727895
- -0.25536691637442066
- 0.0
- 0.0
velocity:
- -0.06956156042130093
- 0.04408609884152882
- 0.10450055986486846
- 0.08971468144712236
- -0.021617219241227906
- -0.02030045603683426
- 0.14019607372226622
- 0.0
- 0.0
effort:
- -0.722346305847168
- -8.973665237426758
- 6.285236358642578
- 20.673383712768555
- -2.913189172744751
- 0.8836825489997864
- 0.2214437872171402
- 0.0
- 0.0
---
header:
  stamp:
    sec: 1756282012
    nanosec: 939462783
  frame_id: ''
name:
- fr3_joint1
- fr3_joint2
- fr3_joint3
- fr3_joint4
- fr3_joint5
- fr3_joint6
- fr3_joint7
- fr3_finger_joint1
- fr3_finger_joint2
position:
- -0.1038025316029794
- -0.2927537210661661
- -0.7541649681320737
- -2.190850318308627
- 1.2056361844616965
- 3.9929619486183983
- -0.2501059861165798
- 0.0
- 0.0
velocity:
- -0.07006863504442133
- 0.047992425446754965
- 0.10478366438274649
- 0.08709856330665933
- -0.018824914099529425
- -0.025583708515266486
- 0.1750381044416352
- 0.0
- 0.0
effort:
- -0.750117301940918
- -9.203767776489258
- 6.130512237548828
- 20.724958419799805
- -2.893047571182251
- 0.8708651661872864
- 0.1811605840921402
- 0.0
- 0.0
---
header:
  stamp:
    sec: 1756282012
    nanosec: 972307501
  frame_id: ''
name:
- fr3_joint1
- fr3_joint2
- fr3_joint3
- fr3_joint4
- fr3_joint5
- fr3_joint6
- fr3_joint7
- fr3_finger_joint1
- fr3_finger_joint2
position:
- -0.1059512018228864
- -0.2911288776059236
- -0.7507807483260669
- -2.1878587257099404
- 1.2050835346348086
- 3.992101858267854
- -0.244241249469577
- 0.0
- 0.0
velocity:
- -0.06733353203465615
- 0.0490118144537245
- 0.10555020389617158
- 0.0933628309184918
- -0.015016540275887474
- -0.0303295455626527
- 0.169311366980775
- 0.0
- 0.0
effort:
- -0.619196891784668
- -9.457674026489258
- 6.439960479736328
- 20.566267013549805
- -2.905864953994751
- 0.9239657521247864
- 0.1811605840921402
- 0.0
- 0.0
---
header:
  stamp:
    sec: 1756282013
    nanosec: 5591232
  frame_id: ''
name:
- fr3_joint1
- fr3_joint2
- fr3_joint3
- fr3_joint4
- fr3_joint5
- fr3_joint6
- fr3_joint7
- fr3_finger_joint1
- fr3_finger_joint2
position:
- -0.10823568840791103
- -0.2894070936939127
- -0.7472724275116641
- -2.1846041619722762
- 1.2043690784609067
- 3.990976209440072
- -0.239079617954208
- 0.0
- 0.0
velocity:
- -0.06668228256299916
- 0.04661160286979523
- 0.10599344434271955
- 0.0961382398701714
- -0.024977206106369543
- -0.03342634635486203
- 0.13861234508205283
- 0.0
- 0.0
effort:
- -0.595393180847168
- -9.560823440551758
- 6.205890655517578
- 20.542463302612305
- -2.899456262588501
- 0.8708651661872864
- 0.2013021856546402
- 0.0
- 0.0
---
header:
  stamp:
    sec: 1756282013
    nanosec: 39418153
  frame_id: ''
name:
- fr3_joint1
- fr3_joint2
- fr3_joint3
- fr3_joint4
- fr3_joint5
- fr3_joint6
- fr3_joint7
- fr3_finger_joint1
- fr3_finger_joint2
position:
- -0.1103393217560138
- -0.28791170930715065
- -0.7438524824233048
- -2.1816366459520284
- 1.2035943887716036
- 3.989859529822575
- -0.23463622513303403
- 0.0
- 0.0
velocity:
- -0.06630374865655445
- 0.04394129921838665
- 0.10887668670283841
- 0.08681531578328539
- -0.0192936307242897
- -0.033099030605069704
- 0.13514874505450433
- 0.0
- 0.0
effort:
- -0.928645133972168
- -9.660005569458008
- 5.920246124267578
- 20.776533126831055
- -2.905864953994751
- 0.8644564747810364
- 0.261726975440979
- 0.0
- 0.0
---
header:
  stamp:
    sec: 1756282013
    nanosec: 72471411
  frame_id: ''
name:
- fr3_joint1
- fr3_joint2
- fr3_joint3
- fr3_joint4
- fr3_joint5
- fr3_joint6
- fr3_joint7
- fr3_finger_joint1
- fr3_finger_joint2
position:
- -0.11262183795635701
- -0.2863617535192092
- -0.7403145406651898
- -2.178668223411255
- 1.202955961950674
- 3.988727949707219
- -0.22962509846705
- 0.0
- 0.0
velocity:
- -0.07196725095274877
- 0.05091527196197627
- 0.10844787851271105
- 0.09037860202354851
- -0.02516610549605368
- -0.03482823793161241
- 0.1695499512622404
- 0.0
- 0.0
effort:
- -0.928645133972168
- -10.195589065551758
- 5.793292999267578
- 20.752729415893555
- -2.867412805557251
- 0.8644564747810364
- 0.1674276739358902
- 0.0
- 0.0
---
header:
  stamp:
    sec: 1756282013
    nanosec: 105705127
  frame_id: ''
name:
- fr3_joint1
- fr3_joint2
- fr3_joint3
- fr3_joint4
- fr3_joint5
- fr3_joint6
- fr3_joint7
- fr3_finger_joint1
- fr3_finger_joint2
position:
- -0.11515566659423572
- -0.2847456721336635
- -0.7365312716337253
- -2.175520590628623
- 1.2023150448602375
- 3.987596692542053
- -0.2233926484807915
- 0.0
- 0.0
velocity:
- -0.07544641447480725
- 0.047677869587516464
- 0.11125011369769676
- 0.09528791699531049
- -0.017839244040121913
- -0.03589180548119886
- 0.17501076447732578
- 0.0
- 0.0
effort:
- -0.952448844909668
- -10.346345901489258
- 5.844867706298828
- 21.169294357299805
- -2.932415246963501
- 0.8772738575935364
- 0.2077108770608902
- 0.0
- 0.0
---
header:
  stamp:
    sec: 1756282013
    nanosec: 139509126
  frame_id: ''
name:
- fr3_joint1
- fr3_joint2
- fr3_joint3
- fr3_joint4
- fr3_joint5
- fr3_joint6
- fr3_joint7
- fr3_finger_joint1
- fr3_finger_joint2
position:
- -0.11750494009653702
- -0.28322453201869224
- -0.7330843556477241
- -2.1723103694281787
- 1.2016004482793188
- 3.9866171747445875
- -0.21840737722509607
- 0.0
- 0.0
velocity:
- -0.06164386753765945
- 0.04232215194524858
- 0.09818340586442269
- 0.09771867409134943
- -0.023163616431586157
- -0.024811891369055296
- 0.14237323952947187
- 0.0
- 0.0
effort:
- -0.750117301940918
- -10.322542190551758
- 5.817096710205078
- 20.752729415893555
- -2.893047571182251
- 0.8241732716560364
- 0.1198202520608902
- 0.0
- 0.0
---
header:
  stamp:
    sec: 1756282013
    nanosec: 172255020
  frame_id: ''
name:
- fr3_joint1
- fr3_joint2
- fr3_joint3
- fr3_joint4
- fr3_joint5
- fr3_joint6
- fr3_joint7
- fr3_finger_joint1
- fr3_finger_joint2
position:
- -0.11949998755079862
- -0.2820374718922666
- -0.7298231087278867
- -2.16926915341517
- 1.2008473611558443
- 3.9856976401531448
- -0.21347475422079223
- 0.0
- 0.0
velocity:
- -0.0633141279640631
- 0.03393634190586977
- 0.10254656873337034
- 0.08735085736444811
- -0.02188669928988607
- -0.029681993209673376
- 0.15124905013472686
- 0.0
- 0.0
effort:
- -0.670771598815918
- -10.144014358520508
- 5.920246124267578
- 20.697187423706055
- -2.899456262588501
- 0.8571322560310364
- 0.1875692754983902
- 0.0
- 0.0
---
header:
  stamp:
    sec: 1756282013
    nanosec: 205650959
  frame_id: ''
name:
- fr3_joint1
- fr3_joint2
- fr3_joint3
- fr3_joint4
- fr3_joint5
- fr3_joint6
- fr3_joint7
- fr3_finger_joint1
- fr3_finger_joint2
position:
- -0.12162279432975714
- -0.28075998210229786
- -0.7262958351778732
- -2.166268828271822
- 1.2001482365828486
- 3.9848608807174317
- -0.2076483907877924
- 0.0
- 0.0
velocity:
- -0.06198380342139701
- 0.04061189437029834
- 0.10213693002190202
- 0.08938642442148664
- -0.02458882990566719
- -0.025361340073208928
- 0.18206542762032824
- 0.0
- 0.0
effort:
- -0.619196891784668
- -10.374116897583008
- 5.948017120361328
- 20.594038009643555
- -2.880230188369751
- 0.8104403614997864
- 0.1335531622171402
- 0.0
- 0.0
---
header:
  stamp:
    sec: 1756282013
    nanosec: 239456024
  frame_id: ''
name:
- fr3_joint1
- fr3_joint2
- fr3_joint3
- fr3_joint4
- fr3_joint5
- fr3_joint6
- fr3_joint7
- fr3_finger_joint1
- fr3_finger_joint2
position:
- -0.12381212021346799
- -0.27936435644542723
- -0.7228739405723512
- -2.1632980731460227
- 1.1994901565739142
- 3.983956922514551
- -0.2019148613704048
- 0.0
- 0.0
velocity:
- -0.0704321479127238
- 0.047598157127613866
- 0.10335987341656541
- 0.09081617631402687
- -0.022932416264146292
- -0.02653609088974067
- 0.14951688686672554
- 0.0
- 0.0
effort:
- -0.595393180847168
- -10.346345901489258
- 5.999591827392578
- 21.014570236206055
- -2.932415246963501
- 0.7976229786872864
- 0.2351766973733902
- 0.0
- 0.0
---
header:
  stamp:
    sec: 1756282013
    nanosec: 272414637
  frame_id: ''
name:
- fr3_joint1
- fr3_joint2
- fr3_joint3
- fr3_joint4
- fr3_joint5
- fr3_joint6
- fr3_joint7
- fr3_finger_joint1
- fr3_finger_joint2
position:
- -0.1262402105894948
- -0.2778413973944152
- -0.7194602750833979
- -2.160171960349309
- 1.1987206938342474
- 3.983177067423312
- -0.1977314644883385
- 0.0
- 0.0
velocity:
- -0.07136732866030358
- 0.046358606551416444
- 0.10170131392271198
- 0.09767844434504569
- -0.02837924640751521
- -0.02574476593250179
- 0.12843556929439193
- 0.0
- 0.0
effort:
- -0.646967887878418
- -10.628023147583008
- 5.793292999267578
- 20.935224533081055
- -2.899456262588501
- 0.8040316700935364
- 0.1939779669046402
- 0.0
- 0.0
---
header:
  stamp:
    sec: 1756282013
    nanosec: 305663880
  frame_id: ''
name:
- fr3_joint1
- fr3_joint2
- fr3_joint3
- fr3_joint4
- fr3_joint5
- fr3_joint6
- fr3_joint7
- fr3_finger_joint1
- fr3_finger_joint2
position:
- -0.12869247867715963
- -0.2763321706502276
- -0.7159019394145282
- -2.156871826236907
- 1.1977860833657676
- 3.982346692914922
- -0.19298206112337246
- 0.0
- 0.0
velocity:
- -0.07493135856831037
- 0.04114763230534507
- 0.10655670694083305
- 0.09113450089401903
- -0.03032955332453946
- -0.022077081000472714
- 0.15409702247550694
- 0.0
- 0.0
effort:
- -0.750117301940918
- -10.628023147583008
- 5.638568878173828
- 20.304426193237305
- -2.795086145401001
- 0.8241732716560364
- 0.2013021856546402
- 0.0
- 0.0
---
header:
  stamp:
    sec: 1756282013
    nanosec: 339567341
  frame_id: ''
name:
- fr3_joint1
- fr3_joint2
- fr3_joint3
- fr3_joint4
- fr3_joint5
- fr3_joint6
- fr3_joint7
- fr3_finger_joint1
- fr3_finger_joint2
position:
- -0.13095242429601317
- -0.2748854705747166
- -0.7123379381486791
- -2.153850459577256
- 1.197033020298407
- 3.981598082791023
- -0.1873149295207411
- 0.0
- 0.0
velocity:
- -0.0648373389957491
- 0.042933262623558635
- 0.10728509914811113
- 0.09253107506070528
- -0.018204979303313707
- -0.02340584399085287
- 0.1805011615531386
- 0.0
- 0.0
effort:
- -0.571589469909668
- -10.703401565551758
- 5.896442413330078
- 20.935224533081055
- -2.880230188369751
- 0.8177645802497864
- 0.1738363653421402
- 0.0
- 0.0
---
header:
  stamp:
    sec: 1756282013
    nanosec: 372690310
  frame_id: ''
name:
- fr3_joint1
- fr3_joint2
- fr3_joint3
- fr3_joint4
- fr3_joint5
- fr3_joint6
- fr3_joint7
- fr3_finger_joint1
- fr3_finger_joint2
position:
- -0.13295748140118838
- -0.27351729344180276
- -0.7089320831576954
- -2.1509176126402396
- 1.1963843458832684
- 3.9808389755452285
- -0.18169029761287742
- 0.0
- 0.0
velocity:
- -0.06090274493716671
- 0.04185228369646634
- 0.10589676672252725
- 0.0891330108455603
- -0.021395195921256622
- -0.02116841865502326
- 0.1514023604536755
- 0.0
- 0.0
effort:
- -0.773921012878418
- -11.008882522583008
- 5.662372589111328
- 20.907453536987305
- -2.886638879776001
- 0.8177645802497864
- 0.1811605840921402
- 0.0
- 0.0
---
header:
  stamp:
    sec: 1756282013
    nanosec: 405630781
  frame_id: ''
name:
- fr3_joint1
- fr3_joint2
- fr3_joint3
- fr3_joint4
- fr3_joint5
- fr3_joint6
- fr3_joint7
- fr3_finger_joint1
- fr3_finger_joint2
position:
- -0.13504156507190893
- -0.27206240082114524
- -0.7054107129689206
- -2.1476604226114198
- 1.1956485612446097
- 3.9801228672519127
- -0.17687101132528144
- 0.0
- 0.0
velocity:
- -0.05984832604340275
- 0.04293657516026587
- 0.10262902400575115
- 0.10011915606399294
- -0.023344036579357113
- -0.022131485444601116
- 0.14759767969224372
- 0.0
- 0.0
effort:
- -0.670771598815918
- -11.338167190551758
- 5.690143585205078
- 20.986799240112305
- -2.886638879776001
- 0.7838900685310364
- 0.1399618536233902
- 0.0
- 0.0
---
header:
  stamp:
    sec: 1756282013
    nanosec: 438917282
  frame_id: ''
name:
- fr3_joint1
- fr3_joint2
- fr3_joint3
- fr3_joint4
- fr3_joint5
- fr3_joint6
- fr3_joint7
- fr3_finger_joint1
- fr3_finger_joint2
position:
- -0.13727851129840576
- -0.2706831726278704
- -0.7017482884372751
- -2.1444403901752285
- 1.1948540123684144
- 3.979340952052995
- -0.1715752371416971
- 0.0
- 0.0
velocity:
- -0.07018284082662604
- 0.04196171835373652
- 0.1115948786463482
- 0.0923819763416019
- -0.027042151187865394
- -0.023088133918973013
- 0.17451924724152054
- 0.0
- 0.0
effort:
- -0.900874137878418
- -11.084260940551758
- 5.249774932861328
- 20.359968185424805
- -2.788677453994751
- 0.7976229786872864
- 0.1875692754983902
- 0.0
- 0.0
---
header:
  stamp:
    sec: 1756282013
    nanosec: 472575163
  frame_id: ''
name:
- fr3_joint1
- fr3_joint2
- fr3_joint3
- fr3_joint4
- fr3_joint5
- fr3_joint6
- fr3_joint7
- fr3_finger_joint1
- fr3_finger_joint2
position:
- -0.13973919835199308
- -0.2693919768371864
- -0.6980705726004487
- -2.1415679430263688
- 1.1940416367317748
- 3.9786420360320993
- -0.1658275057194669
- 0.0
- 0.0
velocity:
- -0.07168595512078178
- 0.04090253226103231
- 0.10597906268709298
- 0.0863663722218627
- -0.019569233544443315
- -0.025176000932353476
- 0.16986066858926235
- 0.0
- 0.0
effort:
- -0.849299430847168
- -11.135835647583008
- 5.432270050048828
- 20.907453536987305
- -2.847271203994751
- 0.7902987599372864
- 0.1811605840921402
- 0.0
- 0.0
---
header:
  stamp:
    sec: 1756282013
    nanosec: 505710520
  frame_id: ''
name:
- fr3_joint1
- fr3_joint2
- fr3_joint3
- fr3_joint4
- fr3_joint5
- fr3_joint6
- fr3_joint7
- fr3_finger_joint1
- fr3_finger_joint2
position:
- -0.14225970248951794
- -0.2679033468154034
- -0.6945468956260442
- -2.138629733607538
- 1.193443365426982
- 3.977869256759709
- -0.1606877262411808
- 0.0
- 0.0
velocity:
- -0.0731397657922542
- 0.04505511927467611
- 0.1017097128078968
- 0.08548204122412988
- -0.018938113154015643
- -0.023593489510977318
- 0.1369983900579102
- 0.0
- 0.0
effort:
- -0.825495719909668
- -11.314363479614258
- 5.301349639892578
- 21.038373947143555
- -2.899456262588501
- 0.7838900685310364
- 0.2077108770608902
- 0.0
- 0.0
---
header:
  stamp:
    sec: 1756282013
    nanosec: 539528916
  frame_id: ''
name:
- fr3_joint1
- fr3_joint2
- fr3_joint3
- fr3_joint4
- fr3_joint5
- fr3_joint6
- fr3_joint7
- fr3_finger_joint1
- fr3_finger_joint2
position:
- -0.14448414028671963
- -0.2663599879789856
- -0.6913655840720728
- -2.1355223532825365
- 1.1928326412763781
- 3.9771003611975555
- -0.1562870794636181
- 0.0
- 0.0
velocity:
- -0.06354201162549517
- 0.04704007821386708
- 0.09332167316171681
- 0.09657094356301225
- -0.016527813242631598
- -0.02284996217678543
- 0.13579575731742843
- 0.0
- 0.0
effort:
- -0.543818473815918
- -11.290559768676758
- 5.690143585205078
- 20.883649826049805
- -2.873821496963501
- 0.7509310841560364
- 0.261726975440979
- 0.0
- 0.0
---
header:
  stamp:
    sec: 1756282013
    nanosec: 572373363
  frame_id: ''
name:
- fr3_joint1
- fr3_joint2
- fr3_joint3
- fr3_joint4
- fr3_joint5
- fr3_joint6
- fr3_joint7
- fr3_finger_joint1
- fr3_finger_joint2
position:
- -0.1465490190350875
- -0.2648181280599443
- -0.6881225060198704
- -2.1322794880763456
- 1.1922117129447065
- 3.9763005387598818
- -0.15135587971804398
- 0.0
- 0.0
velocity:
- -0.06126386518618296
- 0.046175396537538715
- 0.09996818010804451
- 0.09721376700213916
- -0.022891745082576964
- -0.025367728953115377
- 0.16479916392389565
- 0.0
- 0.0
effort:
- -0.619196891784668
- -11.417512893676758
- 5.483844757080078
- 20.724958419799805
- -2.840862512588501
- 0.7307894825935364
- 0.1875692754983902
- 0.0
- 0.0
---
header:
  stamp:
    sec: 1756282013
    nanosec: 605644197
  frame_id: ''
name:
- fr3_joint1
- fr3_joint2
- fr3_joint3
- fr3_joint4
- fr3_joint5
- fr3_joint6
- fr3_joint7
- fr3_finger_joint1
- fr3_finger_joint2
position:
- -0.14867527844807948
- -0.26335035233191373
- -0.68455016415692
- -2.1291794193657743
- 1.1914306506463808
- 3.975518708511739
- -0.14520750334237306
- 0.0
- 0.0
velocity:
- -0.06077889206636952
- 0.04162283936680228
- 0.10297168802811735
- 0.08766819055143782
- -0.02087392006406241
- -0.021331871819862853
- 0.17357643236529233
- 0.0
- 0.0
effort:
- -0.44066905975341797
- -11.469087600708008
- 5.586994171142578
- 20.828107833862305
- -2.867412805557251
- 0.7170565724372864
- 0.2489096075296402
- 0.0
- 0.0
---
header:
  stamp:
    sec: 1756282013
    nanosec: 638944721
  frame_id: ''
name:
- fr3_joint1
- fr3_joint2
- fr3_joint3
- fr3_joint4
- fr3_joint5
- fr3_joint6
- fr3_joint7
- fr3_finger_joint1
- fr3_finger_joint2
position:
- -0.15092218389733086
- -0.2617502456176096
- -0.6809626396819233
- -2.12610626545638
- 1.1908014498298394
- 3.9746210386067187
- -0.14020977432701795
- 0.0
- 0.0
velocity:
- -0.06918567716059157
- 0.05178916862886252
- 0.10610834999678766
- 0.0906431469606647
- -0.0204484209552731
- -0.028097001859295694
- 0.1383870679527285
- 0.0
- 0.0
effort:
- -0.849299430847168
- -11.849946975708008
- 5.170429229736328
- 20.907453536987305
- -2.860088586807251
- 0.7445223927497864
- 0.282784104347229
- 0.0
- 0.0
---
header:
  stamp:
    sec: 1756282013
    nanosec: 672489405
  frame_id: ''
name:
- fr3_joint1
- fr3_joint2
- fr3_joint3
- fr3_joint4
- fr3_joint5
- fr3_joint6
- fr3_joint7
- fr3_finger_joint1
- fr3_finger_joint2
position:
- -0.15317321273082865
- -0.26018707713465533
- -0.6774916317464621
- -2.1231119600640462
- 1.1900963476620254
- 3.97376948631139
- -0.13541879749917998
- 0.0
- 0.0
velocity:
- -0.0643668679721506
- 0.04608915925452591
- 0.10500825849249337
- 0.09439472578770454
- -0.020353489485556667
- -0.026774858226261154
- 0.148260237434547
- 0.0
- 0.0
effort:
- -0.900874137878418
- -12.103853225708008
- 5.301349639892578
- 21.355756759643555
- -2.899456262588501
- 0.7307894825935364
- 0.269051194190979
- 0.0
- 0.0
---
header:
  stamp:
    sec: 1756282013
    nanosec: 705756108
  frame_id: ''
name:
- fr3_joint1
- fr3_joint2
- fr3_joint3
- fr3_joint4
- fr3_joint5
- fr3_joint6
- fr3_joint7
- fr3_finger_joint1
- fr3_finger_joint2
position:
- -0.1554660393216652
- -0.25861135220940956
- -0.673823128968409
- -2.1198873641282665
- 1.1894073600305257
- 3.972786670970267
- -0.12978839467597136
- 0.0
- 0.0
velocity:
- -0.06691504624128691
- 0.04289637852930906
- 0.11055801923755292
- 0.09758387202688772
- -0.019375284008225257
- -0.02516528334688153
- 0.17907391949808465
- 0.0
- 0.0
effort:
- -0.877070426940918
- -12.230806350708008
- 5.067279815673828
- 20.855878829956055
- -2.860088586807251
- 0.7170565724372864
- 0.2077108770608902
- 0.0
- 0.0
---
header:
  stamp:
    sec: 1756282013
    nanosec: 739431908
  frame_id: ''
name:
- fr3_joint1
- fr3_joint2
- fr3_joint3
- fr3_joint4
- fr3_joint5
- fr3_joint6
- fr3_joint7
- fr3_finger_joint1
- fr3_finger_joint2
position:
- -0.15766294290433217
- -0.25725361782853273
- -0.6702931775103472
- -2.1168504048839805
- 1.1887001126909227
- 3.971782761114403
- -0.1240350823827604
- 0.0
- 0.0
velocity:
- -0.06288085705552471
- 0.0384213609465078
- 0.10220023650478163
- 0.08555498347585808
- -0.021103957099066054
- -0.030542266583909537
- 0.15397581175630995
- 0.0
- 0.0
effort:
- -0.722346305847168
- -12.028474807739258
- 5.170429229736328
- 20.883649826049805
- -2.886638879776001
- 0.6703646779060364
- 0.316658616065979
- 0.0
- 0.0
---
header:
  stamp:
    sec: 1756282013
    nanosec: 772278203
  frame_id: ''
name:
- fr3_joint1
- fr3_joint2
- fr3_joint3
- fr3_joint4
- fr3_joint5
- fr3_joint6
- fr3_joint7
- fr3_finger_joint1
- fr3_finger_joint2
position:
- -0.1597382779367002
- -0.256012190249665
- -0.6669098911172703
- -2.114040053842895
- 1.188080866671601
- 3.97069423660686
- -0.11975155202666317
- 0.0
- 0.0
velocity:
- -0.06160817326443522
- 0.04216765270335842
- 0.09897630177243256
- 0.08816115771297209
- -0.019479563943604006
- -0.03515283882849034
- 0.12837347945603492
- 0.0
- 0.0
effort:
- -0.849299430847168
- -12.306184768676758
- 5.043476104736328
- 20.752729415893555
- -2.867412805557251
- 0.7042391896247864
- 0.1875692754983902
- 0.0
- 0.0
---
header:
  stamp:
    sec: 1756282013
    nanosec: 805650295
  frame_id: ''
name:
- fr3_joint1
- fr3_joint2
- fr3_joint3
- fr3_joint4
- fr3_joint5
- fr3_joint6
- fr3_joint7
- fr3_finger_joint1
- fr3_finger_joint2
position:
- -0.16189188515092207
- -0.2546100796128238
- -0.6634733664422626
- -2.110990985680839
- 1.187415752852016
- 3.969564810651618
- -0.1150964912281795
- 0.0
- 0.0
velocity:
- -0.06281382193770989
- 0.04346285217394975
- 0.10185065244375491
- 0.0934928186966532
- -0.017616871170565002
- -0.034074462719238405
- 0.15040085586442842
- 0.0
- 0.0
effort:
- -0.797724723815918
- -12.357759475708008
- 5.118854522705078
- 21.117719650268555
- -2.880230188369751
- 0.6978304982185364
- 0.2214437872171402
- 0.0
- 0.0
---
header:
  stamp:
    sec: 1756282013
    nanosec: 839390766
  frame_id: ''
name:
- fr3_joint1
- fr3_joint2
- fr3_joint3
- fr3_joint4
- fr3_joint5
- fr3_joint6
- fr3_joint7
- fr3_finger_joint1
- fr3_finger_joint2
position:
- -0.1642700052417091
- -0.25307009278713716
- -0.6598684444218454
- -2.1077753741517626
- 1.1867180805426523
- 3.968490180368468
- -0.10941180592642664
- 0.0
- 0.0
velocity:
- -0.07905553619133768
- 0.04663299385830974
- 0.11412056203463083
- 0.09859802645196046
- -0.022527819260146537
- -0.030664031822861336
- 0.1808944938896602
- 0.0
- 0.0
effort:
- -0.928645133972168
- -12.484712600708008
- 4.837177276611328
- 21.038373947143555
- -2.880230188369751
- 0.6776888966560364
- 0.2489096075296402
- 0.0
- 0.0
---
header:
  stamp:
    sec: 1756282013
    nanosec: 872294241
  frame_id: ''
name:
- fr3_joint1
- fr3_joint2
- fr3_joint3
- fr3_joint4
- fr3_joint5
- fr3_joint6
- fr3_joint7
- fr3_finger_joint1
- fr3_finger_joint2
position:
- -0.1667788317254818
- -0.25164110036810866
- -0.6562747389962448
- -2.1046354062307913
- 1.1859456271247337
- 3.967496311936558
- -0.10367449108855652
- 0.0
- 0.0
velocity:
- -0.07628613826967787
- 0.040814047526049
- 0.10944471109184666
- 0.08861545763209139
- -0.02526173518577388
- -0.030327570562882853
- 0.16022162956453737
- 0.0
- 0.0
effort:
- -0.877070426940918
- -12.536287307739258
- 4.757831573486328
- 20.542463302612305
- -2.807903528213501
- 0.7042391896247864
- 0.255318284034729
- 0.0
- 0.0
---
header:
  stamp:
    sec: 1756282013
    nanosec: 905569911
  frame_id: ''
name:
- fr3_joint1
- fr3_joint2
- fr3_joint3
- fr3_joint4
- fr3_joint5
- fr3_joint6
- fr3_joint7
- fr3_finger_joint1
- fr3_finger_joint2
position:
- -0.1692430353857842
- -0.2502648045885288
- -0.6527639014874586
- -2.1015805144055126
- 1.185281159014431
- 3.96652247934841
- -0.09884878314664296
- 0.0
- 0.0
velocity:
- -0.07148970734377187
- 0.04236436553174646
- 0.10116150498459345
- 0.09547859116533375
- -0.017076549722990938
- -0.02887166829727677
- 0.14324552257030304
- 0.0
- 0.0
effort:
- -0.646967887878418
- -12.663240432739258
- 4.991901397705078
- 21.066144943237305
- -2.938823938369751
- 0.6575472950935364
- 0.1811605840921402
- 0.0
- 0.0
---
header:
  stamp:
    sec: 1756282013
    nanosec: 939473107
  frame_id: ''
name:
- fr3_joint1
- fr3_joint2
- fr3_joint3
- fr3_joint4
- fr3_joint5
- fr3_joint6
- fr3_joint7
- fr3_finger_joint1
- fr3_finger_joint2
position:
- -0.17138394845163146
- -0.24877956511389815
- -0.6494466748199443
- -2.0984431548776152
- 1.184652579337859
- 3.9654725681264273
- -0.0937296014550261
- 0.0
- 0.0
velocity:
- -0.06062312772554693
- 0.04677787180177175
- 0.0989982819803738
- 0.09302884516894332
- -0.01660195256027452
- -0.030007602936141266
- 0.16789464974774618
- 0.0
- 0.0
effort:
- -0.698542594909668
- -12.917146682739258
- 5.015705108642578
- 20.986799240112305
- -2.926006555557251
- 0.6840975880622864
- 0.2415853887796402
- 0.0
- 0.0
---
header:
  stamp:
    sec: 1756282013
    nanosec: 972441724
  frame_id: ''
name:
- fr3_joint1
- fr3_joint2
- fr3_joint3
- fr3_joint4
- fr3_joint5
- fr3_joint6
- fr3_joint7
- fr3_finger_joint1
- fr3_finger_joint2
position:
- -0.1734623271590149
- -0.24734128170118952
- -0.6460770649962893
- -2.095352609714203
- 1.184021822109483
- 3.964390119186897
- -0.08792641233302327
- 0.0
- 0.0
velocity:
- -0.06432027380294139
- 0.04269255918713082
- 0.10364501179508981
- 0.09522337926401707
- -0.022259629910809996
- -0.03263565965050758
- 0.1775018029623825
- 0.0
- 0.0
effort:
- -0.619196891784668
- -13.119478225708008
- 5.118854522705078
- 21.145490646362305
- -2.945232629776001
- 0.7170565724372864
- 0.2415853887796402
- 0.0
- 0.0
---
header:
  stamp:
    sec: 1756282014
    nanosec: 5654068
  frame_id: ''
name:
- fr3_joint1
- fr3_joint2
- fr3_joint3
- fr3_joint4
- fr3_joint5
- fr3_joint6
- fr3_joint7
- fr3_finger_joint1
- fr3_finger_joint2
position:
- -0.17555642456170864
- -0.24600037001503933
- -0.6425785740570059
- -2.092162911039313
- 1.1832729108325921
- 3.9634161952513915
- -0.08262012100633358
- 0.0
- 0.0
velocity:
- -0.0666024753537962
- 0.03705989304578684
- 0.10775293041596684
- 0.08987192432855991
- -0.02506360780228763
- -0.026695516842489206
- 0.14232219681844205
- 0.0
- 0.0
effort:
- -0.670771598815918
- -12.841768264770508
- 4.964130401611328
- 20.697187423706055
- -2.905864953994751
- 0.6703646779060364
- 0.255318284034729
- 0.0
- 0.0
---
header:
  stamp:
    sec: 1756282014
    nanosec: 39393380
  frame_id: ''
name:
- fr3_joint1
- fr3_joint2
- fr3_joint3
- fr3_joint4
- fr3_joint5
- fr3_joint6
- fr3_joint7
- fr3_finger_joint1
- fr3_finger_joint2
position:
- -0.17785257712034652
- -0.24474848092816287
- -0.6389872942960722
- -2.089241564287455
- 1.182467374830845
- 3.962608920282407
- -0.07811494209067128
- 0.0
- 0.0
velocity:
- -0.07143606966709974
- 0.03955884870563351
- 0.10959954285349892
- 0.08834092722468632
- -0.022571788551802592
- -0.020203241865368263
- 0.13868839484329654
- 0.0
- 0.0
effort:
- -0.877070426940918
- -13.067903518676758
- 4.654682159423828
- 21.066144943237305
- -2.913189172744751
- 0.6511386036872864
- 0.255318284034729
- 0.0
- 0.0
---
header:
  stamp:
    sec: 1756282014
    nanosec: 72429271
  frame_id: ''
name:
- fr3_joint1
- fr3_joint2
- fr3_joint3
- fr3_joint4
- fr3_joint5
- fr3_joint6
- fr3_joint7
- fr3_finger_joint1
- fr3_finger_joint2
position:
- -0.1801254103997182
- -0.24338897403968646
- -0.6355073439404271
- -2.0863757331400365
- 1.1817867081488853
- 3.961857343083734
- -0.07307754661491123
- 0.0
- 0.0
velocity:
- -0.07045592576585938
- 0.042126916562663694
- 0.10642282689626045
- 0.08840245418656253
- -0.021445315782533222
- -0.02401481058176534
- 0.16668122441036554
- 0.0
- 0.0
effort:
- -0.825495719909668
- -13.298006057739258
- 4.654682159423828
- 21.169294357299805
- -2.932415246963501
- 0.6309970021247864
- 0.275459885597229
- 0.0
- 0.0
---
header:
  stamp:
    sec: 1756282014
    nanosec: 105814633
  frame_id: ''
name:
- fr3_joint1
- fr3_joint2
- fr3_joint3
- fr3_joint4
- fr3_joint5
- fr3_joint6
- fr3_joint7
- fr3_finger_joint1
- fr3_finger_joint2
position:
- -0.1826411421365008
- -0.24186206854847508
- -0.6317951366921009
- -2.08323177021485
- 1.1810279169204823
- 3.9610931606099777
- -0.06675289028881717
- 0.0
- 0.0
velocity:
- -0.0724110428054552
- 0.048491989212032176
- 0.10576417624061553
- 0.09640577240715205
- -0.020598942573870183
- -0.020808193807917954
- 0.1839386637763839
- 0.0
- 0.0
effort:
- -0.619196891784668
- -13.222627639770508
- 4.785602569580078
- 20.907453536987305
- -2.899456262588501
- 0.6438143849372864
- 0.2214437872171402
- 0.0
- 0.0
---
header:
  stamp:
    sec: 1756282014
    nanosec: 138922641
  frame_id: ''
name:
- fr3_joint1
- fr3_joint2
- fr3_joint3
- fr3_joint4
- fr3_joint5
- fr3_joint6
- fr3_joint7
- fr3_finger_joint1
- fr3_finger_joint2
position:
- -0.18479295662458475
- -0.24033815581475318
- -0.6284452563909593
- -2.079912292197694
- 1.1802418844014948
- 3.9604043290078135
- -0.06165119151528431
- 0.0
- 0.0
velocity:
- -0.06297436897462638
- 0.04440259259786671
- 0.09833590067041224
- 0.0970912624583989
- -0.023826489657954853
- -0.021751845092040367
- 0.14397610548425285
- 0.0
- 0.0
effort:
- -0.722346305847168
- -13.246431350708008
- 4.654682159423828
- 20.855878829956055
- -2.893047571182251
- 0.6245883107185364
- 0.2077108770608902
- 0.0
- 0.0
---
header:
  stamp:
    sec: 1756282014
    nanosec: 172371131
  frame_id: ''
name:
- fr3_joint1
- fr3_joint2
- fr3_joint3
- fr3_joint4
- fr3_joint5
- fr3_joint6
- fr3_joint7
- fr3_finger_joint1
- fr3_finger_joint2
position:
- -0.18687038066993514
- -0.23891233674753165
- -0.6250919863720531
- -2.076923658306111
- 1.1793324666314118
- 3.95968265519018
- -0.056835829462499786
- 0.0
- 0.0
velocity:
- -0.06397343963836177
- 0.04293817014832558
- 0.10529757122057831
- 0.08922050997415638
- -0.02252938664606563
- -0.02057730741822461
- 0.1484624520402462
- 0.0
- 0.0
effort:
- -0.670771598815918
- -13.349580764770508
- 4.626911163330078
- 20.986799240112305
- -2.893047571182251
- 0.6172640919685364
- 0.295601487159729
- 0.0
- 0.0
---
header:
  stamp:
    sec: 1756282014
    nanosec: 205676946
  frame_id: ''
name:
- fr3_joint1
- fr3_joint2
- fr3_joint3
- fr3_joint4
- fr3_joint5
- fr3_joint6
- fr3_joint7
- fr3_finger_joint1
- fr3_finger_joint2
position:
- -0.1890837369166543
- -0.23723008342029456
- -0.6215476641587849
- -2.073768948279526
- 1.1785700455955808
- 3.9588889635485125
- -0.051191425461239205
- 0.0
- 0.0
velocity:
- -0.06936126071868416
- 0.05285251499329137
- 0.10752125474424547
- 0.09192481344732834
- -0.02435005464368092
- -0.026593329573749748
- 0.17946994261848695
- 0.0
- 0.0
effort:
- -0.722346305847168
- -13.603487014770508
- 4.499958038330078
- 20.986799240112305
- -2.860088586807251
- 0.6044467091560364
- 0.2150350958108902
- 0.0
- 0.0
---
header:
  stamp:
    sec: 1756282014
    nanosec: 238894524
  frame_id: ''
name:
- fr3_joint1
- fr3_joint2
- fr3_joint3
- fr3_joint4
- fr3_joint5
- fr3_joint6
- fr3_joint7
- fr3_finger_joint1
- fr3_finger_joint2
position:
- -0.191595903
- -0.23549814963256824
- -0.6179131896944923
- -2.0706971792328583
- 1.1778022889985111
- 3.958010215164793
- -0.04539249993649871
- 0.0
- 0.0
velocity:
- -0.07163188230226611
- 0.05181513195847077
- 0.10575510479991777
- 0.09431794282127859
- -0.019414298160761397
- -0.02817279896146916
- 0.15499231944684197
- 0.0
- 0.0
effort:
- -0.750117301940918
- -14.035921096801758
- 4.523761749267578
- 21.355756759643555
- -2.938823938369751
- 0.6108554005622864
- 0.261726975440979
- 0.0
- 0.0
---
header:
  stamp:
    sec: 1756282014
    nanosec: 272464666
  frame_id: ''
name:
- fr3_joint1
- fr3_joint2
- fr3_joint3
- fr3_joint4
- fr3_joint5
- fr3_joint6
- fr3_joint7
- fr3_finger_joint1
- fr3_finger_joint2
position:
- -0.19394571215464626
- -0.2338946039386315
- -0.6144914298970595
- -2.067636283399047
- 1.17703357612389
- 3.957171179272901
- -0.04108631373750174
- 0.0
- 0.0
velocity:
- -0.06735808639834143
- 0.04735646151851897
- 0.1033010808318228
- 0.09360057234753165
- -0.027418784848847216
- -0.025696076503301968
- 0.12566297991489642
- 0.0
- 0.0
effort:
- -0.877070426940918
- -14.214448928833008
- 4.317462921142578
- 20.935224533081055
- -2.853679895401001
- 0.6044467091560364
- 0.261726975440979
- 0.0
- 0.0
---
header:
  stamp:
    sec: 1756282014
    nanosec: 305707055
  frame_id: ''
name:
- fr3_joint1
- fr3_joint2
- fr3_joint3
- fr3_joint4
- fr3_joint5
- fr3_joint6
- fr3_joint7
- fr3_finger_joint1
- fr3_finger_joint2
position:
- -0.19620995759018972
- -0.23241391604298253
- -0.6109739062678793
- -2.0645623464532
- 1.1761010095319966
- 3.9562745736124945
- -0.03632980981699509
- 0.0
- 0.0
velocity:
- -0.06291091439116342
- 0.03911975487418616
- 0.10290696789588195
- 0.08618387697869041
- -0.02794038127938745
- -0.02529064439930531
- 0.15408129637017332
- 0.0
- 0.0
effort:
- -0.698542594909668
- -14.111299514770508
- 4.396808624267578
- 21.145490646362305
- -2.860088586807251
- 0.5778964161872864
- 0.289192795753479
- 0.0
- 0.0
---
header:
  stamp:
    sec: 1756282014
    nanosec: 338998606
  frame_id: ''
name:
- fr3_joint1
- fr3_joint2
- fr3_joint3
- fr3_joint4
- fr3_joint5
- fr3_joint6
- fr3_joint7
- fr3_finger_joint1
- fr3_finger_joint2
position:
- -0.19821215792077193
- -0.2310951919627313
- -0.6075005484925904
- -2.061720557337128
- 1.1753686581171583
- 3.955395622965385
- -0.030606666639019595
- 0.0
- 0.0
velocity:
- -0.062463865868103485
- 0.03964813660971187
- 0.10849509257140866
- 0.08663499595264881
- -0.01965649482771863
- -0.029032086747460634
- 0.17836660484963066
- 0.0
- 0.0
effort:
- -0.698542594909668
- -14.162874221801758
- 4.420612335205078
- 20.986799240112305
- -2.860088586807251
- 0.6309970021247864
- 0.2351766973733902
- 0.0
- 0.0
---
header:
  stamp:
    sec: 1756282014
    nanosec: 372447863
  frame_id: ''
name:
- fr3_joint1
- fr3_joint2
- fr3_joint3
- fr3_joint4
- fr3_joint5
- fr3_joint6
- fr3_joint7
- fr3_finger_joint1
- fr3_finger_joint2
position:
- -0.20025706946580107
- -0.22979043667625068
- -0.6040824289181435
- -2.0588966472953163
- 1.1746576661899488
- 3.9545720643769475
- -0.024858619791207914
- 0.0
- 0.0
velocity:
- -0.059611984007384745
- 0.04176561571417826
- 0.1021005468829543
- 0.09114268393482229
- -0.0230079495506803
- -0.02514501284752529
- 0.15964741630028126
- 0.0
- 0.0
effort:
- -0.595393180847168
- -14.341402053833008
- 4.523761749267578
- 21.327985763549805
- -2.886638879776001
- 0.5971224904060364
- 0.2077108770608902
- 0.0
- 0.0
---
header:
  stamp:
    sec: 1756282014
    nanosec: 405680917
  frame_id: ''
name:
- fr3_joint1
- fr3_joint2
- fr3_joint3
- fr3_joint4
- fr3_joint5
- fr3_joint6
- fr3_joint7
- fr3_finger_joint1
- fr3_finger_joint2
position:
- -0.2023960940414553
- -0.2283766387462187
- -0.6005687535419219
- -2.0556167070854405
- 1.173950154099122
- 3.953728552563935
- -0.02005294058621486
- 0.0
- 0.0
velocity:
- -0.06960591802415171
- 0.0414106523730668
- 0.10631368438889713
- 0.09907268056015853
- -0.022213781755020045
- -0.026322893314158533
- 0.14008385221702324
- 0.0
- 0.0
effort:
- -0.646967887878418
- -14.214448928833008
- 4.345233917236328
- 21.276411056518555
- -2.880230188369751
- 0.5440219044685364
- 0.2150350958108902
- 0.0
- 0.0
---
header:
  stamp:
    sec: 1756282014
    nanosec: 439487230
  frame_id: ''
name:
- fr3_joint1
- fr3_joint2
- fr3_joint3
- fr3_joint4
- fr3_joint5
- fr3_joint6
- fr3_joint7
- fr3_finger_joint1
- fr3_finger_joint2
position:
- -0.20481604572463366
- -0.22697488952313452
- -0.5968968960956798
- -2.0522903967841377
- 1.1731460799521085
- 3.9528109814491676
- -0.014904164561904866
- 0.0
- 0.0
velocity:
- -0.0729683395389776
- 0.041478690039393536
- 0.10922302887183696
- 0.09352011751220192
- -0.02797881797037891
- -0.029083323001827498
- 0.1693069208647029
- 0.0
- 0.0
effort:
- -0.773921012878418
- -14.266023635864258
- 4.059589385986328
- 20.514692306518555
- -2.749309778213501
- 0.5440219044685364
- 0.255318284034729
- 0.0
- 0.0
---
header:
  stamp:
    sec: 1756282014
    nanosec: 472610994
  frame_id: ''
name:
- fr3_joint1
- fr3_joint2
- fr3_joint3
- fr3_joint4
- fr3_joint5
- fr3_joint6
- fr3_joint7
- fr3_finger_joint1
- fr3_finger_joint2
position:
- -0.2071651956118715
- -0.22565346056187058
- -0.5933781067003838
- -2.0492549704493315
- 1.172422250004201
- 3.951840093502505
- -0.00913741525920332
- 0.0
- 0.0
velocity:
- -0.0739468130209727
- 0.0427417773645434
- 0.10395559754643686
- 0.09371447740071294
- -0.019131609066639004
- -0.033009622608557096
- 0.1746594577633096
- 0.0
- 0.0
effort:
- -0.773921012878418
- -14.468355178833008
- 4.317462921142578
- 21.197065353393555
- -2.860088586807251
- 0.5843051075935364
- 0.255318284034729
- 0.0
- 0.0
---
header:
  stamp:
    sec: 1756282014
    nanosec: 505705407
  frame_id: ''
name:
- fr3_joint1
- fr3_joint2
- fr3_joint3
- fr3_joint4
- fr3_joint5
- fr3_joint6
- fr3_joint7
- fr3_finger_joint1
- fr3_finger_joint2
position:
- -0.2095688168493957
- -0.22412873857736118
- -0.5899261978792082
- -2.046107530106259
- 1.1717394246426107
- 3.950764009716875
- -0.003818893215413733
- 0.0
- 0.0
velocity:
- -0.06465248478870621
- 0.044091007419492095
- 0.09894363099341034
- 0.09322871010059279
- -0.020905758367192686
- -0.028550501853738378
- 0.13821471211649416
- 0.0
- 0.0
effort:
- -0.595393180847168
- -14.492158889770508
- 4.369037628173828
- 21.093915939331055
- -2.834453821182251
- 0.5641635060310364
- 0.2415853887796402
- 0.0
- 0.0
---
header:
  stamp:
    sec: 1756282014
    nanosec: 539013928
  frame_id: ''
name:
- fr3_joint1
- fr3_joint2
- fr3_joint3
- fr3_joint4
- fr3_joint5
- fr3_joint6
- fr3_joint7
- fr3_finger_joint1
- fr3_finger_joint2
position:
- -0.21167981397999003
- -0.22257310217696447
- -0.5866472113920642
- -2.0429122387769594
- 1.171050290816086
- 3.9497121280464067
- 0.0005849163046092094
- 0.0
- 0.0
velocity:
- -0.06505155160717109
- 0.04627942070688909
- 0.10250699662054924
- 0.09712945868057245
- -0.019647679349845036
- -0.031445189797857806
- 0.13645476961699188
- 0.0
- 0.0
effort:
- -0.698542594909668
- -14.849214553833008
- 4.214313507080078
- 21.145490646362305
- -2.860088586807251
- 0.5577548146247864
- 0.309334397315979
- 0.0
- 0.0
---
header:
  stamp:
    sec: 1756282014
    nanosec: 572324217
  frame_id: ''
name:
- fr3_joint1
- fr3_joint2
- fr3_joint3
- fr3_joint4
- fr3_joint5
- fr3_joint6
- fr3_joint7
- fr3_finger_joint1
- fr3_finger_joint2
position:
- -0.2137073292716773
- -0.22115781960767733
- -0.5832211563298263
- -2.0398293231168076
- 1.170292671207325
- 3.9487640676875038
- 0.005619337281804064
- 0.0
- 0.0
velocity:
- -0.060574378797150934
- 0.04122761199274632
- 0.10570643806457017
- 0.08989886389593453
- -0.024247407935979372
- -0.031249091808951183
- 0.16617540001122177
- 0.0
- 0.0
effort:
- -0.797724723815918
- -14.900789260864258
- 4.008014678955078
- 20.776533126831055
- -2.768535852432251
- 0.5440219044685364
- 0.323067307472229
- 0.0
- 0.0
---
header:
  stamp:
    sec: 1756282014
    nanosec: 605678136
  frame_id: ''
name:
- fr3_joint1
- fr3_joint2
- fr3_joint3
- fr3_joint4
- fr3_joint5
- fr3_joint6
- fr3_joint7
- fr3_finger_joint1
- fr3_finger_joint2
position:
- -0.21594462183088467
- -0.21987189083946526
- -0.5794419067515117
- -2.036946452585964
- 1.1695257319223686
- 3.9477737993925794
- 0.011953580612601825
- 0.0
- 0.0
velocity:
- -0.07345688452579176
- 0.04003502031854773
- 0.11479806081155731
- 0.08442290578862431
- -0.019295015399100023
- -0.02541297402501767
- 0.1806182002530983
- 0.0
- 0.0
effort:
- -0.877070426940918
- -14.924592971801758
- 3.956439971923828
- 21.300214767456055
- -2.840862512588501
- 0.5504305958747864
- 0.1939779669046402
- 0.0
- 0.0
---
header:
  stamp:
    sec: 1756282014
    nanosec: 638920271
  frame_id: ''
name:
- fr3_joint1
- fr3_joint2
- fr3_joint3
- fr3_joint4
- fr3_joint5
- fr3_joint6
- fr3_joint7
- fr3_finger_joint1
- fr3_finger_joint2
position:
- -0.21843396146224545
- -0.21848048943885007
- -0.5757833141258221
- -2.034078362256514
- 1.1688498182173375
- 3.9468334609348377
- 0.017063541570298487
- 0.0
- 0.0
velocity:
- -0.0670077232670929
- 0.03989262963117405
- 0.10176917331594865
- 0.08519364444507918
- -0.021965980994291784
- -0.026895823329873343
- 0.1404061672573674
- 0.0
- 0.0
effort:
- -1.107172966003418
- -15.103120803833008
- 3.670795440673828
- 21.379560470581055
- -2.821636438369751
- 0.5504305958747864
- 0.282784104347229
- 0.0
- 0.0
---
header:
  stamp:
    sec: 1756282014
    nanosec: 672272133
  frame_id: ''
name:
- fr3_joint1
- fr3_joint2
- fr3_joint3
- fr3_joint4
- fr3_joint5
- fr3_joint6
- fr3_joint7
- fr3_finger_joint1
- fr3_finger_joint2
position:
- -0.22082416612117267
- -0.21703394708100845
- -0.5723587085103861
- -2.0310803336086396
- 1.168195318786162
- 3.9460026404009887
- 0.021943919234729912
- 0.0
- 0.0
velocity:
- -0.07352724660159696
- 0.046870085465487724
- 0.10287334341389409
- 0.0960183827782632
- -0.019331608989439378
- -0.026615171086031446
- 0.155205152788844
- 0.0
- 0.0
effort:
- -0.877070426940918
- -15.408601760864258
- 3.853290557861328
- 21.169294357299805
- -2.774944543838501
- 0.5440219044685364
- 0.2489096075296402
- 0.0
- 0.0
---
header:
  stamp:
    sec: 1756282014
    nanosec: 705532674
  frame_id: ''
name:
- fr3_joint1
- fr3_joint2
- fr3_joint3
- fr3_joint4
- fr3_joint5
- fr3_joint6
- fr3_joint7
- fr3_finger_joint1
- fr3_finger_joint2
position:
- -0.22304372791357735
- -0.21557682564246008
- -0.5689903426956148
- -2.0277536655235617
- 1.1674991026899382
- 3.9451049209764686
- 0.027555713491283874
- 0.0
- 0.0
velocity:
- -0.06499756973929775
- 0.04195315774024281
- 0.10084085572271778
- 0.09871751010215896
- -0.020307106218512398
- -0.024136754882737758
- 0.17989992028785298
- 0.0
- 0.0
effort:
- -0.543818473815918
- -15.178499221801758
- 4.059589385986328
- 21.014570236206055
- -2.814312219619751
- 0.5110629200935364
- 0.2415853887796402
- 0.0
- 0.0
---
header:
  stamp:
    sec: 1756282014
    nanosec: 738920466
  frame_id: ''
name:
- fr3_joint1
- fr3_joint2
- fr3_joint3
- fr3_joint4
- fr3_joint5
- fr3_joint6
- fr3_joint7
- fr3_finger_joint1
- fr3_finger_joint2
position:
- -0.22528233371230166
- -0.21427627288796453
- -0.5655504651796295
- -2.024682376647913
- 1.1667778955249832
- 3.944248180418787
- 0.03338767616816888
- 0.0
- 0.0
velocity:
- -0.06680290954593114
- 0.038385677368933765
- 0.10046507989024574
- 0.08852183691907445
- -0.019971241900103843
- -0.021574013109834957
- 0.1561219512323375
- 0.0
- 0.0
effort:
- -0.49224376678466797
- -14.976167678833008
- 4.111164093017578
- 21.117719650268555
- -2.828045129776001
- 0.4973300099372864
- 0.275459885597229
- 0.0
- 0.0
---
header:
  stamp:
    sec: 1756282014
    nanosec: 772419366
  frame_id: ''
name:
- fr3_joint1
- fr3_joint2
- fr3_joint3
- fr3_joint4
- fr3_joint5
- fr3_joint6
- fr3_joint7
- fr3_finger_joint1
- fr3_finger_joint2
position:
- -0.22735549472334696
- -0.21286136872957354
- -0.5623630630149735
- -2.021595452830277
- 1.1661796986352126
- 3.9434799822697295
- 0.037593274500322835
- 0.0
- 0.0
velocity:
- -0.061732267954488065
- 0.04553499640313198
- 0.09486231041913323
- 0.09490008197952592
- -0.021257573372612214
- -0.024728922551502133
- 0.12733959408646234
- 0.0
- 0.0
effort:
- -0.543818473815918
- -15.257844924926758
- 4.083393096923828
- 20.883649826049805
- -2.795086145401001
- 0.5110629200935364
- 0.255318284034729
- 0.0
- 0.0
---
header:
  stamp:
    sec: 1756282014
    nanosec: 805702973
  frame_id: ''
name:
- fr3_joint1
- fr3_joint2
- fr3_joint3
- fr3_joint4
- fr3_joint5
- fr3_joint6
- fr3_joint7
- fr3_finger_joint1
- fr3_finger_joint2
position:
- -0.22967290166450846
- -0.2111872159882082
- -0.5588757684570762
- -2.018336234931742
- 1.165490246731331
- 3.942671883167486
- 0.0423720870368298
- 0.0
- 0.0
velocity:
- -0.07221104075910582
- 0.05113699542942891
- 0.10597694849775113
- 0.09845636922833431
- -0.023079882322162203
- -0.02342386308736445
- 0.15260882631340272
- 0.0
- 0.0
effort:
- -0.750117301940918
- -15.432405471801758
- 3.877094268798828
- 21.169294357299805
- -2.847271203994751
- 0.4845126271247864
- 0.255318284034729
- 0.0
- 0.0
---
header:
  stamp:
    sec: 1756282014
    nanosec: 839499113
  frame_id: ''
name:
- fr3_joint1
- fr3_joint2
- fr3_joint3
- fr3_joint4
- fr3_joint5
- fr3_joint6
- fr3_joint7
- fr3_finger_joint1
- fr3_finger_joint2
position:
- -0.2320588277592534
- -0.20945698820521588
- -0.5552618575770979
- -2.015107766437093
- 1.1647309942228494
- 3.9418568244965484
- 0.04807403643184316
- 0.0
- 0.0
velocity:
- -0.07111031772622561
- 0.05021062298851417
- 0.1089681660650639
- 0.09649213082676991
- -0.021929508603080152
- -0.02469807487738246
- 0.177113208992907
- 0.0
- 0.0
effort:
- -0.825495719909668
- -15.563325881958008
- 3.801715850830078
- 21.014570236206055
- -2.807903528213501
- 0.5110629200935364
- 0.269051194190979
- 0.0
- 0.0
---
header:
  stamp:
    sec: 1756282014
    nanosec: 872260881
  frame_id: ''
name:
- fr3_joint1
- fr3_joint2
- fr3_joint3
- fr3_joint4
- fr3_joint5
- fr3_joint6
- fr3_joint7
- fr3_finger_joint1
- fr3_finger_joint2
position:
- -0.23438368683058938
- -0.20793209462651632
- -0.551662999756486
- -2.0121975194002863
- 1.16397862247875
- 3.9410949559869097
- 0.05372670281894612
- 0.0
- 0.0
velocity:
- -0.06506207450125644
- 0.04270717301560753
- 0.10763974744372241
- 0.08364734621152077
- -0.024519389688078465
- -0.02078660785255142
- 0.16379107963985376
- 0.0
- 0.0
effort:
- -0.900874137878418
- -15.841035842895508
- 3.595417022705078
- 21.093915939331055
- -2.801494836807251
- 0.4771884083747864
- 0.2013021856546402
- 0.0
- 0.0
---
header:
  stamp:
    sec: 1756282014
    nanosec: 905904831
  frame_id: ''
name:
- fr3_joint1
- fr3_joint2
- fr3_joint3
- fr3_joint4
- fr3_joint5
- fr3_joint6
- fr3_joint7
- fr3_finger_joint1
- fr3_finger_joint2
position:
- -0.23645015827734847
- -0.20649554886421248
- -0.548137866137575
- -2.0093468467453337
- 1.1632918507422112
- 3.9403212721399363
- 0.05844170633032596
- 0.0
- 0.0
velocity:
- -0.05902229422821171
- 0.041667907466933
- 0.1042046324964836
- 0.08722930836220466
- -0.01901944759614399
- -0.02400923134060692
- 0.14070312904524998
- 0.0
- 0.0
effort:
- -0.722346305847168
- -15.944185256958008
- 3.750141143798828
- 20.959028244018555
- -2.821636438369751
- 0.4973300099372864
- 0.2278524786233902
- 0.0
- 0.0
---
header:
  stamp:
    sec: 1756282014
    nanosec: 938917482
  frame_id: ''
name:
- fr3_joint1
- fr3_joint2
- fr3_joint3
- fr3_joint4
- fr3_joint5
- fr3_joint6
- fr3_joint7
- fr3_finger_joint1
- fr3_finger_joint2
position:
- -0.23845909557638764
- -0.20501190743749276
- -0.5446123563596846
- -2.0064498625035814
- 1.1625898382153483
- 3.9395307015962246
- 0.06363341937992824
- 0.0
- 0.0
velocity:
- -0.060248188098264654
- 0.04556378722845645
- 0.1069487103931692
- 0.08967104795324962
- -0.01910317005658489
- -0.02312124526734326
- 0.1715303970847028
- 0.0
- 0.0
effort:
- -0.849299430847168
- -16.221895217895508
- 3.543842315673828
- 21.379560470581055
- -2.847271203994751
- 0.4771884083747864
- 0.302925705909729
- 0.0
- 0.0
---
header:
  stamp:
    sec: 1756282014
    nanosec: 972404839
  frame_id: ''
name:
- fr3_joint1
- fr3_joint2
- fr3_joint3
- fr3_joint4
- fr3_joint5
- fr3_joint6
- fr3_joint7
- fr3_finger_joint1
- fr3_finger_joint2
position:
- -0.24057344081367765
- -0.20355359205385817
- -0.5410829496909149
- -2.0033541491634757
- 1.1618548605509385
- 3.938725431388205
- 0.06944948741753879
- 0.0
- 0.0
velocity:
- -0.0671911248069639
- 0.041713876378527706
- 0.10817492878360936
- 0.0940182510972556
- -0.02274853101768035
- -0.025999820703627035
- 0.17807095747853802
- 0.0
- 0.0
effort:
- -0.773921012878418
- -16.273469924926758
- 3.670795440673828
- 21.458906173706055
- -2.867412805557251
- 0.4909213185310364
- 0.2214437872171402
- 0.0
- 0.0
---
header:
  stamp:
    sec: 1756282015
    nanosec: 5800232
  frame_id: ''
name:
- fr3_joint1
- fr3_joint2
- fr3_joint3
- fr3_joint4
- fr3_joint5
- fr3_joint6
- fr3_joint7
- fr3_finger_joint1
- fr3_finger_joint2
position:
- -0.24304640558494814
- -0.20217683643347037
- -0.537362812533327
- -2.0000541396413856
- 1.1610889966656657
- 3.937931572964805
- 0.0746368054061551
- 0.0
- 0.0
velocity:
- -0.07495465539892583
- 0.038708877296955366
- 0.11074850336520511
- 0.09359167743052452
- -0.026433011207310286
- -0.02297871916090101
- 0.1385200040356947
- 0.0
- 0.0
effort:
- -0.900874137878418
- -16.122713088989258
- 3.333576202392578
- 20.566267013549805
- -2.709942102432251
- 0.4771884083747864
- 0.2214437872171402
- 0.0
- 0.0
---
header:
  stamp:
    sec: 1756282015
    nanosec: 38921158
  frame_id: ''
name:
- fr3_joint1
- fr3_joint2
- fr3_joint3
- fr3_joint4
- fr3_joint5
- fr3_joint6
- fr3_joint7
- fr3_finger_joint1
- fr3_finger_joint2
position:
- -0.24543601968474218
- -0.20088766362564825
- -0.5338684905947569
- -1.9969529800306671
- 1.1603073224338234
- 3.9371667659229406
- 0.07917317608224625
- 0.0
- 0.0
velocity:
- -0.07336219224507924
- 0.04181308200098096
- 0.10406951805710497
- 0.0963628647885681
- -0.020985990928219844
- -0.024804415993213185
- 0.13913831477325644
- 0.0
- 0.0
effort:
- -0.849299430847168
- -16.249666213989258
- 3.361347198486328
- 21.248640060424805
- -2.821636438369751
- 0.4442294239997864
- 0.295601487159729
- 0.0
- 0.0
---
header:
  stamp:
    sec: 1756282015
    nanosec: 72323296
  frame_id: ''
name:
- fr3_joint1
- fr3_joint2
- fr3_joint3
- fr3_joint4
- fr3_joint5
- fr3_joint6
- fr3_joint7
- fr3_finger_joint1
- fr3_finger_joint2
position:
- -0.24776071281065698
- -0.19945768511160905
- -0.5304865832607282
- -1.9938686051691612
- 1.159592401775011
- 3.936422595435309
- 0.08427997035459706
- 0.0
- 0.0
velocity:
- -0.06925747546346685
- 0.04455621396747239
- 0.10194050360624282
- 0.09681777499473267
- -0.021873736784404848
- -0.023553238837202905
- 0.1723349412627794
- 0.0
- 0.0
effort:
- -0.877070426940918
- -16.527376174926758
- 3.333576202392578
- 21.197065353393555
- -2.801494836807251
- 0.4378207325935364
- 0.2351766973733902
- 0.0
- 0.0
---
header:
  stamp:
    sec: 1756282015
    nanosec: 105670067
  frame_id: ''
name:
- fr3_joint1
- fr3_joint2
- fr3_joint3
- fr3_joint4
- fr3_joint5
- fr3_joint6
- fr3_joint7
- fr3_finger_joint1
- fr3_finger_joint2
position:
- -0.25001565935227277
- -0.19793232482780532
- -0.5270629607386224
- -1.9905132377585806
- 1.1589057023793963
- 3.935530984055206
- 0.09054891010613537
- 0.0
- 0.0
velocity:
- -0.06504024261244754
- 0.045771558174226054
- 0.1014357953598238
- 0.09972160406643545
- -0.021029028507336567
- -0.0284243015519104
- 0.18368465260537456
- 0.0
- 0.0
effort:
- -0.619196891784668
- -16.503572463989258
- 3.646991729736328
- 21.117719650268555
- -2.860088586807251
- 0.4378207325935364
- 0.2150350958108902
- 0.0
- 0.0
---
header:
  stamp:
    sec: 1756282015
    nanosec: 139442879
  frame_id: ''
name:
- fr3_joint1
- fr3_joint2
- fr3_joint3
- fr3_joint4
- fr3_joint5
- fr3_joint6
- fr3_joint7
- fr3_finger_joint1
- fr3_finger_joint2
position:
- -0.2521884726533356
- -0.19652151275871155
- -0.5236686543950851
- -1.987339820289632
- 1.1581842583090407
- 3.93466073244663
- 0.09555335406101076
- 0.0
- 0.0
velocity:
- -0.059704796328625485
- 0.04099764493078627
- 0.09737816353027008
- 0.09135719338834335
- -0.023158506902180527
- -0.025423538395577303
- 0.13798432155148943
- 0.0
- 0.0
effort:
- -0.722346305847168
- -16.451997756958008
- 3.385150909423828
- 20.645612716674805
- -2.774944543838501
- 0.4506381154060364
- 0.269051194190979
- 0.0
- 0.0
---
header:
  stamp:
    sec: 1756282015
    nanosec: 172304509
  frame_id: ''
name:
- fr3_joint1
- fr3_joint2
- fr3_joint3
- fr3_joint4
- fr3_joint5
- fr3_joint6
- fr3_joint7
- fr3_finger_joint1
- fr3_finger_joint2
position:
- -0.25415006562494785
- -0.19526345249836224
- -0.5203559102237992
- -1.9845314000345207
- 1.1575474989068275
- 3.9338097021108918
- 0.10036451585583404
- 0.0
- 0.0
velocity:
- -0.06493849730648246
- 0.039935306054524604
- 0.10529513565377117
- 0.08510495108001566
- -0.01602242183184727
- -0.02571164565793382
- 0.15167613456064225
- 0.0
- 0.0
effort:
- -0.750117301940918
- -16.729707717895508
- 3.412921905517578
- 21.145490646362305
- -2.821636438369751
- 0.4304965138435364
- 0.323067307472229
- 0.0
- 0.0
---
header:
  stamp:
    sec: 1756282015
    nanosec: 205701757
  frame_id: ''
name:
- fr3_joint1
- fr3_joint2
- fr3_joint3
- fr3_joint4
- fr3_joint5
- fr3_joint6
- fr3_joint7
- fr3_finger_joint1
- fr3_finger_joint2
position:
- -0.25647603668249275
- -0.19382105774849712
- -0.5166531323743935
- -1.9816524143118948
- 1.156874139103413
- 3.932771084840223
- 0.10601028987850739
- 0.0
- 0.0
velocity:
- -0.07057537467448476
- 0.04267361138547014
- 0.11146085298160091
- 0.08410091564138802
- -0.018260536245055255
- -0.033729071700006524
- 0.17625654494797366
- 0.0
- 0.0
effort:
- -0.900874137878418
- -16.832857131958008
- 3.178852081298828
- 21.431135177612305
- -2.873821496963501
- 0.3911288380622864
- 0.282784104347229
- 0.0
- 0.0
---
header:
  stamp:
    sec: 1756282015
    nanosec: 238916655
  frame_id: ''
name:
- fr3_joint1
- fr3_joint2
- fr3_joint3
- fr3_joint4
- fr3_joint5
- fr3_joint6
- fr3_joint7
- fr3_finger_joint1
- fr3_finger_joint2
position:
- -0.2588681689512581
- -0.19235370513558137
- -0.5131173612761949
- -1.978612430820871
- 1.1562411743932939
- 3.9316655753973286
- 0.11178623326677817
- 0.0
- 0.0
velocity:
- -0.07062442897755407
- 0.04366800631340236
- 0.1009197907754924
- 0.094296344507557
- -0.01868910442588389
- -0.03750257565638077
- 0.15457899676358394
- 0.0
- 0.0
effort:
- -0.773921012878418
- -17.062959671020508
- 3.385150909423828
- 21.117719650268555
- -2.807903528213501
- 0.4176791310310364
- 0.269051194190979
- 0.0
- 0.0
---
header:
  stamp:
    sec: 1756282015
    nanosec: 272430152
  frame_id: ''
name:
- fr3_joint1
- fr3_joint2
- fr3_joint3
- fr3_joint4
- fr3_joint5
- fr3_joint6
- fr3_joint7
- fr3_finger_joint1
- fr3_finger_joint2
position:
- -0.2611700279947671
- -0.1909459712051749
- -0.5097421041754815
- -1.9754214279251319
- 1.1555379432828585
- 3.9305821454580596
- 0.11597809874971722
- 0.0
- 0.0
velocity:
- -0.06817869118693563
- 0.04303273166778249
- 0.09984018077570965
- 0.09822812200193035
- -0.024050829973942794
- -0.03155172023316163
- 0.1242508316437427
- 0.0
- 0.0
effort:
- -0.722346305847168
- -17.265291213989258
- 3.309772491455078
- 21.038373947143555
- -2.807903528213501
- 0.4039462208747864
- 0.323067307472229
- 0.0
- 0.0
---
header:
  stamp:
    sec: 1756282015
    nanosec: 305669662
  frame_id: ''
name:
- fr3_joint1
- fr3_joint2
- fr3_joint3
- fr3_joint4
- fr3_joint5
- fr3_joint6
- fr3_joint7
- fr3_finger_joint1
- fr3_finger_joint2
position:
- -0.26329367897833406
- -0.18967767605140745
- -0.5062532647138634
- -1.9723063303088497
- 1.1546671474730281
- 3.929565910466728
