header:
  stamp:
    sec: 1756279691
    nanosec: 224544708
  frame_id: ''
name:
- fr3_joint1
- fr3_joint2
- fr3_joint3
- fr3_joint4
- fr3_joint5
- fr3_joint6
- fr3_joint7
- fr3_finger_joint1
- fr3_finger_joint2
position:
- -0.029524398313611203
- 0.12146038904599851
- -0.17643740001029598
- -2.2387891013860326
- -0.3089435536035347
- 2.3546841404977603
- 0.7770050058650556
- 0.0
- 0.0
velocity:
- -0.12871016242858382
- -0.11592596960724265
- -0.14365662326601747
- -0.03267683444526819
- 0.16941387678519917
- -0.02444264625946172
- -0.2991676863490312
- 0.0
- 0.0
effort:
- -0.03600597381591797
- -31.964082717895508
- 0.0486641526222229
- 19.649824142456055
- 1.2780948877334595
- 2.0500643253326416
- -0.2051919549703598
- 0.0
- 0.0
---
header:
  stamp:
    sec: 1756279691
    nanosec: 257900012
  frame_id: ''
name:
- fr3_joint1
- fr3_joint2
- fr3_joint3
- fr3_joint4
- fr3_joint5
- fr3_joint6
- fr3_joint7
- fr3_finger_joint1
- fr3_finger_joint2
position:
- -0.0336772173784964
- 0.11786053317150912
- -0.18122426089178442
- -2.2398287527253333
- -0.3033206329952379
- 2.35391697545972
- 0.7665032571769596
- 0.0
- 0.0
velocity:
- -0.12660867287181682
- -0.1033472509364695
- -0.1290021829917378
- -0.03206910945313041
- 0.1611275298266937
- -0.020006969496754592
- -0.34119992567991797
- 0.0
- 0.0
effort:
- -0.543818473815918
- -32.118804931640625
- -0.5186576247215271
- 19.518903732299805
- 1.2716861963272095
- 1.9905551671981812
- -0.2125161737203598
- 0.0
- 0.0
---
header:
  stamp:
    sec: 1756279691
    nanosec: 291262198
  frame_id: ''
name:
- fr3_joint1
- fr3_joint2
- fr3_joint3
- fr3_joint4
- fr3_joint5
- fr3_joint6
- fr3_joint7
- fr3_finger_joint1
- fr3_finger_joint2
position:
- -0.037639053693687224
- 0.11440488907969038
- -0.18556287224281226
- -2.2410067525670705
- -0.29784998060811885
- 2.3532454623541903
- 0.7557891912016508
- 0.0
- 0.0
velocity:
- -0.11365531336748533
- -0.10199356441396588
- -0.1273183605059749
- -0.03798436572446521
- 0.16641041550216848
- -0.020141503798280922
- -0.2832177858380249
- 0.0
- 0.0
effort:
- -0.571589469909668
- -32.039459228515625
- -0.5186576247215271
- 19.677595138549805
- 1.2716861963272095
- 2.0299227237701416
- -0.2463906854391098
- 0.0
- 0.0
---
header:
  stamp:
    sec: 1756279691
    nanosec: 324539136
  frame_id: ''
name:
- fr3_joint1
- fr3_joint2
- fr3_joint3
- fr3_joint4
- fr3_joint5
- fr3_joint6
- fr3_joint7
- fr3_finger_joint1
- fr3_finger_joint2
position:
- -0.04110305741426349
- 0.11101765138279363
- -0.18984467353850418
- -2.242275587787473
- -0.2924610990947868
- 2.3525163933510638
- 0.7456217516671376
- 0.0
- 0.0
velocity:
- -0.10145097214674487
- -0.10420695284098806
- -0.13561643589751154
- -0.042929372981719886
- 0.16858470501541198
- -0.022120542188349912
- -0.3463912959051578
- 0.0
- 0.0
effort:
- -0.46844005584716797
- -32.194183349609375
- -0.5186576247215271
- 19.677595138549805
- 1.2909122705459595
- 2.0436556339263916
- -0.2189248651266098
- 0.0
- 0.0
---
header:
  stamp:
    sec: 1756279691
    nanosec: 357943856
  frame_id: ''
name:
- fr3_joint1
- fr3_joint2
- fr3_joint3
- fr3_joint4
- fr3_joint5
- fr3_joint6
- fr3_joint7
- fr3_finger_joint1
- fr3_finger_joint2
position:
- -0.044309511514215354
- 0.1075897352406546
- -0.19435358143663078
- -2.243738580160875
- -0.2866198745297006
- 2.3517649786620174
- 0.7351808392433055
- 0.0
- 0.0
velocity:
- -0.09477134016224792
- -0.09732847479195898
- -0.13114705259225717
- -0.04112151882516321
- 0.1707949405695015
- -0.025585255253605277
- -0.2803886514514036
- 0.0
- 0.0
effort:
- -0.49224376678466797
- -31.733980178833008
- -0.5464286208152771
- 19.860090255737305
- 1.3110538721084595
- 2.0830233097076416
- -0.260123610496521
- 0.0
- 0.0
---
header:
  stamp:
    sec: 1756279691
    nanosec: 391271406
  frame_id: ''
name:
- fr3_joint1
- fr3_joint2
- fr3_joint3
- fr3_joint4
- fr3_joint5
- fr3_joint6
- fr3_joint7
- fr3_finger_joint1
- fr3_finger_joint2
position:
- -0.04790736742917807
- 0.10447115257726763
- -0.19833405013567623
- -2.245097413165911
- -0.28093531836646796
- 2.3510370620462453
- 0.724419338833502
- 0.0
- 0.0
velocity:
- -0.10863607429118062
- -0.09016950866911598
- -0.11836738614595729
- -0.0414826748540605
- 0.1725388990835961
- -0.01985892828476143
- -0.3377570936825812
- 0.0
- 0.0
effort:
- -0.900874137878418
- -32.118804931640625
- -0.8796805739402771
- 19.836286544799805
- 1.2057682275772095
- 2.0436556339263916
- -0.2262490838766098
- 0.0
- 0.0
---
header:
  stamp:
    sec: 1756279691
    nanosec: 424707593
  frame_id: ''
name:
- fr3_joint1
- fr3_joint2
- fr3_joint3
- fr3_joint4
- fr3_joint5
- fr3_joint6
- fr3_joint7
- fr3_finger_joint1
- fr3_finger_joint2
position:
- -0.051573843339899776
- 0.10140972542580455
- -0.20250456268524755
- -2.2463999117465807
- -0.2753017612278352
- 2.3503295480332516
- 0.7142978713801539
- 0.0
- 0.0
velocity:
- -0.11073690944359331
- -0.08896878361428506
- -0.12326456072155102
- -0.03617504014060557
- 0.16492626513202446
- -0.023060836409824637
- -0.2819749984159278
- 0.0
- 0.0
effort:
- -0.797724723815918
- -31.964082717895508
- -0.7527274489402771
- 19.808515548706055
- 1.2121769189834595
- 2.0436556339263916
- -0.280265212059021
- 0.0
- 0.0
---
header:
  stamp:
    sec: 1756279691
    nanosec: 457881640
  frame_id: ''
name:
- fr3_joint1
- fr3_joint2
- fr3_joint3
- fr3_joint4
- fr3_joint5
- fr3_joint6
- fr3_joint7
- fr3_finger_joint1
- fr3_finger_joint2
position:
- -0.05489580800477181
- 0.0982755952279191
- -0.20672053971315707
- -2.2477115752811128
- -0.27003204272145576
- 2.3496012772264065
- 0.7036269638447417
- 0.0
- 0.0
velocity:
- -0.10304609729804186
- -0.09906987093928388
- -0.12541675328938728
- -0.043519949298211597
- 0.1690154361955673
- -0.023829865667545455
- -0.3422138597025769
- 0.0
- 0.0
effort:
- -0.976252555847168
- -32.269561767578125
- -0.9312552809715271
- 20.121931076049805
- 1.2845035791397095
- 2.0830233097076416
- -0.2463906854391098
- 0.0
- 0.0
---
header:
  stamp:
    sec: 1756279691
    nanosec: 491271025
  frame_id: ''
name:
- fr3_joint1
- fr3_joint2
- fr3_joint3
- fr3_joint4
- fr3_joint5
- fr3_joint6
- fr3_joint7
- fr3_finger_joint1
- fr3_finger_joint2
position:
- -0.058323193306251055
- 0.09484374195802947
- -0.21095528111082534
- -2.249049796109362
- -0.2644472539802433
- 2.3488688937753532
- 0.6933980831410721
- 0.0
- 0.0
velocity:
- -0.10828210986462071
- -0.09966703320766808
- -0.12056510225100377
- -0.03718495313923468
- 0.16153843207997923
- -0.023810375196608852
- -0.3034861972261531
- 0.0
- 0.0
effort:
- -1.079401969909668
- -31.480073928833008
- -0.9867972731590271
- 20.121931076049805
- 1.2909122705459595
- 2.1104891300201416
- -0.2262490838766098
- 0.0
- 0.0
---
header:
  stamp:
    sec: 1756279691
    nanosec: 524719045
  frame_id: ''
name:
- fr3_joint1
- fr3_joint2
- fr3_joint3
- fr3_joint4
- fr3_joint5
- fr3_joint6
- fr3_joint7
- fr3_finger_joint1
- fr3_finger_joint2
position:
- -0.06217286020140073
- 0.09152079971115744
- -0.2150424379243859
- -2.2501012369684465
- -0.2588396023404032
- 2.3481283898841565
- 0.6821553206736327
- 0.0
- 0.0
velocity:
- -0.11375449298638288
- -0.09650255959787156
- -0.12348124412785813
- -0.027526806888269667
- 0.17121274709209347
- -0.024464359910996533
- -0.32665688649835084
- 0.0
- 0.0
effort:
- -1.154780387878418
- -31.634798049926758
- -1.0899467468261719
- 20.121931076049805
- 1.3110538721084595
- 2.1233065128326416
- -0.252799391746521
- 0.0
- 0.0
---
header:
  stamp:
    sec: 1756279691
    nanosec: 557909369
  frame_id: ''
name:
- fr3_joint1
- fr3_joint2
- fr3_joint3
- fr3_joint4
- fr3_joint5
- fr3_joint6
- fr3_joint7
- fr3_finger_joint1
- fr3_finger_joint2
position:
- -0.0657262117061622
- 0.08841264661158678
- -0.2193138450393775
- -2.251010543921877
- -0.25360665269348237
- 2.347428896738372
- 0.672533509070015
- 0.0
- 0.0
velocity:
- -0.10527421872143805
- -0.09635760775083738
- -0.1355699889225151
- -0.029380945956500214
- 0.155583975931345
- -0.023438881402671943
- -0.3085244876518899
- 0.0
- 0.0
effort:
- -0.670771598815918
- -31.507844924926758
- -0.6733817458152771
- 19.939435958862305
- 1.3430973291397095
- 2.1031649112701416
- -0.2262490838766098
- 0.0
- 0.0
---
header:
  stamp:
    sec: 1756279691
    nanosec: 591546808
  frame_id: ''
name:
- fr3_joint1
- fr3_joint2
- fr3_joint3
- fr3_joint4
- fr3_joint5
- fr3_joint6
- fr3_joint7
- fr3_finger_joint1
- fr3_finger_joint2
position:
- -0.0692163556937849
- 0.08500830877439705
- -0.22375150784011238
- -2.252108959334144
- -0.2478385451128151
- 2.3466792569322763
- 0.6612844471635859
- 0.0
- 0.0
velocity:
- -0.10623245416132064
- -0.1038716271006733
- -0.13011710707043148
- -0.037045260859719466
- 0.17635543354691074
- -0.02317785398332861
- -0.31446347568266214
- 0.0
- 0.0
effort:
- -0.722346305847168
- -31.860933303833008
- -0.6733817458152771
- 20.252851486206055
- 1.2780948877334595
- 2.1168978214263916
- -0.2262490838766098
- 0.0
- 0.0
---
header:
  stamp:
    sec: 1756279691
    nanosec: 624607457
  frame_id: ''
name:
- fr3_joint1
- fr3_joint2
- fr3_joint3
- fr3_joint4
- fr3_joint5
- fr3_joint6
- fr3_joint7
- fr3_finger_joint1
- fr3_finger_joint2
position:
- -0.07282160343912647
- 0.08165302912904303
- -0.22806428293022735
- -2.253178594753144
- -0.24236057204046257
- 2.345932791312978
- 0.651624689070426
- 0.0
- 0.0
velocity:
- -0.1268673490812714
- -0.10001799330270957
- -0.12688098419010907
- -0.03156702150107142
- 0.1632437120803569
- -0.02216590357650516
- -0.3201484233377867
- 0.0
- 0.0
effort:
- -0.646967887878418
- -31.253938674926758
- -0.6495780348777771
- 20.121931076049805
- 1.3037296533584595
- 2.0967562198638916
- -0.252799391746521
- 0.0
- 0.0
---
header:
  stamp:
    sec: 1756279691
    nanosec: 657843388
  frame_id: ''
name:
- fr3_joint1
- fr3_joint2
- fr3_joint3
- fr3_joint4
- fr3_joint5
- fr3_joint6
- fr3_joint7
- fr3_finger_joint1
- fr3_finger_joint2
position:
- -0.07682377993422153
- 0.07837475142225239
- -0.23255168170286802
- -2.2542021112397204
- -0.236681544489517
- 2.345237256780945
- 0.6405207830972256
- 0.0
- 0.0
velocity:
- -0.11958213475169024
- -0.09502501440437096
- -0.12776805790962606
- -0.02935292080049917
- 0.16987588500457132
- -0.021687706173397697
- -0.30394567012909646
- 0.0
- 0.0
effort:
- -0.698542594909668
- -31.329317092895508
- -0.6218070387840271
- 20.042585372924805
- 1.2515445947647095
- 2.1104891300201416
- -0.2262490838766098
- 0.0
- 0.0
---
header:
  stamp:
    sec: 1756279691
    nanosec: 691523029
  frame_id: ''
name:
- fr3_joint1
- fr3_joint2
- fr3_joint3
- fr3_joint4
- fr3_joint5
- fr3_joint6
- fr3_joint7
- fr3_finger_joint1
- fr3_finger_joint2
position:
- -0.08047783304434103
- 0.07507694312043618
- -0.2370463949436059
- -2.2552864349683674
- -0.23103558936587792
- 2.3445260161210935
- 0.6303953261682106
- 0.0
- 0.0
velocity:
- -0.10178644125318723
- -0.0970088336746009
- -0.13225412408574594
- -0.032300288310283705
- 0.17042290420019365
- -0.0215278204516266
- -0.33457250142586237
- 0.0
- 0.0
effort:
- -0.670771598815918
- -30.948457717895508
- -0.5702323317527771
- 19.939435958862305
- 1.2716861963272095
- 2.0967562198638916
- -0.1923745721578598
- 0.0
- 0.0
---
header:
  stamp:
    sec: 1756279691
    nanosec: 724651746
  frame_id: ''
name:
- fr3_joint1
- fr3_joint2
- fr3_joint3
- fr3_joint4
- fr3_joint5
- fr3_joint6
- fr3_joint7
- fr3_finger_joint1
- fr3_finger_joint2
position:
- -0.08407778596967777
- 0.07155757458699377
- -0.24143618514996398
- -2.256564153880296
- -0.22538076869171098
- 2.343831136634876
- 0.6192125575528195
- 0.0
- 0.0
velocity:
- -0.10934631873880488
- -0.10713864466636733
- -0.12940398331670794
- -0.041241264396786007
- 0.16031238435799564
- -0.02164949435414114
- -0.3008733982496427
- 0.0
- 0.0
effort:
- -0.750117301940918
- -31.277742385864258
- -0.6218070387840271
- 20.252851486206055
- 1.2973209619522095
- 2.1370394229888916
- -0.1923745721578598
- 0.0
- 0.0
---
header:
  stamp:
    sec: 1756279691
    nanosec: 758517591
  frame_id: ''
name:
- fr3_joint1
- fr3_joint2
- fr3_joint3
- fr3_joint4
- fr3_joint5
- fr3_joint6
- fr3_joint7
- fr3_finger_joint1
- fr3_finger_joint2
position:
- -0.08767333907523878
- 0.06808493829352011
- -0.2455551584841156
- -2.2578160657118405
- -0.22010382759434383
- 2.3430343011842805
- 0.6089742383304373
- 0.0
- 0.0
velocity:
- -0.10694704876837398
- -0.10323263927083548
- -0.1261539084182499
- -0.03475522020734004
- 0.16556260105590376
- -0.025065528622139007
- -0.3375881238363212
- 0.0
- 0.0
effort:
- -1.055598258972168
- -30.591402053833008
- -0.8558768630027771
- 20.252851486206055
- 1.2973209619522095
- 2.1370394229888916
- -0.252799391746521
- 0.0
- 0.0
---
header:
  stamp:
    sec: 1756279691
    nanosec: 791548142
  frame_id: ''
name:
- fr3_joint1
- fr3_joint2
- fr3_joint3
- fr3_joint4
- fr3_joint5
- fr3_joint6
- fr3_joint7
- fr3_finger_joint1
- fr3_finger_joint2
position:
- -0.09138146379374933
- 0.0647753939782893
- -0.249715143450171
- -2.2589475431511525
- -0.2145868608662732
- 2.3422211683893375
- 0.598366222871058
- 0.0
- 0.0
velocity:
- -0.11121504350266871
- -0.09720294130982317
- -0.1236979281669298
- -0.03427506848515248
- 0.1614456315211562
- -0.02725126236662929
- -0.2835270321388205
- 0.0
- 0.0
effort:
- -0.773921012878418
- -30.920686721801758
- -0.7011527419090271
- 20.332197189331055
- 1.3366886377334595
- 2.1233065128326416
- -0.252799391746521
- 0.0
- 0.0
---
header:
  stamp:
    sec: 1756279691
    nanosec: 824734105
  frame_id: ''
name:
- fr3_joint1
- fr3_joint2
- fr3_joint3
- fr3_joint4
- fr3_joint5
- fr3_joint6
- fr3_joint7
- fr3_finger_joint1
- fr3_finger_joint2
position:
- -0.09486587046685903
- 0.06152430355726507
- -0.2542091454202811
- -2.260104417194899
- -0.20876909045432746
- 2.341218258396408
- 0.5874833126919682
- 0.0
- 0.0
velocity:
- -0.10854348416161097
- -0.09765514066829224
- -0.13067990411652283
- -0.0363294070911097
- 0.17391275755469518
- -0.0310949367216351
- -0.35096139561738693
- 0.0
- 0.0
effort:
- -0.595393180847168
- -30.769929885864258
- -0.4948539137840271
- 20.201276779174805
- 1.2579532861709595
- 2.1434481143951416
- -0.280265212059021
- 0.0
- 0.0
---
header:
  stamp:
    sec: 1756279691
    nanosec: 858640487
  frame_id: ''
name:
- fr3_joint1
- fr3_joint2
- fr3_joint3
- fr3_joint4
- fr3_joint5
- fr3_joint6
- fr3_joint7
- fr3_finger_joint1
- fr3_finger_joint2
position:
- -0.09836582743472037
- 0.05819794830470958
- -0.25862391369804594
- -2.26141615590138
- -0.20325647011932182
- 2.3403070544069746
- 0.5775441199331552
- 0.0
- 0.0
velocity:
- -0.11726638944103696
- -0.10312232695050125
- -0.12787754997119535
- -0.041265456797558324
- 0.16685616696063718
- -0.028339113175453817
- -0.28350893437192093
- 0.0
- 0.0
effort:
- -0.773921012878418
- -30.666780471801758
- -0.5702323317527771
- 20.229047775268555
- 1.2780948877334595
- 2.1233065128326416
- -0.2326577752828598
- 0.0
- 0.0
---
header:
  stamp:
    sec: 1756279691
    nanosec: 891590199
  frame_id: ''
name:
- fr3_joint1
- fr3_joint2
- fr3_joint3
- fr3_joint4
- fr3_joint5
- fr3_joint6
- fr3_joint7
- fr3_finger_joint1
- fr3_finger_joint2
position:
- -0.10222093748487829
- 0.05481438131691398
- -0.2629221430339932
- -2.2627279659507993
- -0.1976609732487122
- 2.3393560391264927
- 0.5666523050265101
- 0.0
- 0.0
velocity:
- -0.11399443354764777
- -0.09740186022417278
- -0.12917521623329886
- -0.036499343713992355
- 0.15988601044918352
- -0.024679991464150574
- -0.3319344801398175
- 0.0
- 0.0
effort:
- -0.750117301940918
- -30.210542678833008
- -0.5980033278465271
- 20.252851486206055
- 1.2845035791397095
- 2.1562654972076416
- -0.266532301902771
- 0.0
- 0.0
---
header:
  stamp:
    sec: 1756279691
    nanosec: 924660208
  frame_id: ''
name:
- fr3_joint1
- fr3_joint2
- fr3_joint3
- fr3_joint4
- fr3_joint5
- fr3_joint6
- fr3_joint7
- fr3_finger_joint1
- fr3_finger_joint2
position:
- -0.10593443993057572
- 0.05164334996364634
- -0.2673365486212667
- -2.2638270937993106
- -0.192296563780029
- 2.3384792333234503
- 0.5565772481707815
- 0.0
- 0.0
velocity:
- -0.1047558295037253
- -0.09410663124677064
- -0.13155937854508706
- -0.03242459713719651
- 0.1650386442467855
- -0.026466180134757645
- -0.28722460210298756
- 0.0
- 0.0
effort:
- -0.646967887878418
- -30.412874221801758
- -0.4432792067527771
- 20.252851486206055
- 1.3110538721084595
- 2.1297152042388916
- -0.2189248651266098
- 0.0
- 0.0
---
header:
  stamp:
    sec: 1756279691
    nanosec: 958550770
  frame_id: ''
name:
- fr3_joint1
- fr3_joint2
- fr3_joint3
- fr3_joint4
- fr3_joint5
- fr3_joint6
- fr3_joint7
- fr3_finger_joint1
- fr3_finger_joint2
position:
- -0.10929292815522418
- 0.0485099184839255
- -0.27166771631725034
- -2.264996977750985
- -0.18676194882616684
- 2.3376850307281605
- 0.5456852215899515
- 0.0
- 0.0
velocity:
- -0.10366324004084103
- -0.09860863100981071
- -0.13121635338150606
- -0.038113170138520426
- 0.16515220809158626
- -0.02132035891196563
- -0.3316963018466916
- 0.0
- 0.0
effort:
- -0.571589469909668
- -30.158967971801758
- -0.4155082106590271
- 20.383771896362305
- 1.3238712549209595
- 2.1699984073638916
- -0.2326577752828598
- 0.0
- 0.0
---
header:
  stamp:
    sec: 1756279691
    nanosec: 991406537
  frame_id: ''
name:
- fr3_joint1
- fr3_joint2
- fr3_joint3
- fr3_joint4
- fr3_joint5
- fr3_joint6
- fr3_joint7
- fr3_finger_joint1
- fr3_finger_joint2
position:
- -0.11298199157642334
- 0.04504499633821326
- -0.27574052642296265
- -2.266330517883572
- -0.18122622902552157
- 2.3368976844617415
- 0.5355310588725727
- 0.0
- 0.0
velocity:
- -0.11834132376655254
- -0.10726959418152993
- -0.11407124340562179
- -0.04065398529906527
- 0.17114080175219698
- -0.022457236214594025
- -0.29886328010637886
- 0.0
- 0.0
effort:
- -1.004023551940918
- -30.285921096801758
- -0.8558768630027771
- 20.383771896362305
- 1.3430973291397095
- 2.1297152042388916
- -0.2125161737203598
- 0.0
- 0.0
---
header:
  stamp:
    sec: 1756279692
    nanosec: 24707186
  frame_id: ''
name:
- fr3_joint1
- fr3_joint2
- fr3_joint3
- fr3_joint4
- fr3_joint5
- fr3_joint6
- fr3_joint7
- fr3_finger_joint1
- fr3_finger_joint2
position:
- -0.11681981762264075
- 0.04154475351912425
- -0.2798591052202367
- -2.267611240378467
- -0.17562868149455987
- 2.3360684015786326
- 0.5244485751482763
- 0.0
- 0.0
velocity:
- -0.11644299001342565
- -0.1024622769232201
- -0.12356042971942632
- -0.03452934580517501
- 0.15915447852209208
- -0.02386525684704555
- -0.3200636723962024
- 0.0
- 0.0
effort:
- -0.773921012878418
- -29.905061721801758
- -0.6495780348777771
- 20.490888595581055
- 1.3037296533584595
- 2.1562654972076416
- -0.2051919549703598
- 0.0
- 0.0
---
header:
  stamp:
    sec: 1756279692
    nanosec: 58510219
  frame_id: ''
name:
- fr3_joint1
- fr3_joint2
- fr3_joint3
- fr3_joint4
- fr3_joint5
- fr3_joint6
- fr3_joint7
- fr3_finger_joint1
- fr3_finger_joint2
position:
- -0.12023965961333474
- 0.03838279860554832
- -0.2843549358619113
- -2.268819942656699
- -0.17008551606477587
- 2.335396987851825
- 0.5148108572988354
- 0.0
- 0.0
velocity:
- -0.10629622779649973
- -0.09829061139275216
- -0.13489243380699717
- -0.038983759364066284
- 0.17525549539519789
- -0.022408520664507655
- -0.31551406324668624
- 0.0
- 0.0
effort:
- -0.670771598815918
- -29.956636428833008
- -0.4155082106590271
- 20.229047775268555
- 1.2716861963272095
- 2.1699984073638916
- -0.2189248651266098
- 0.0
- 0.0
---
header:
  stamp:
    sec: 1756279692
    nanosec: 91479883
  frame_id: ''
name:
- fr3_joint1
- fr3_joint2
- fr3_joint3
- fr3_joint4
- fr3_joint5
- fr3_joint6
- fr3_joint7
- fr3_finger_joint1
- fr3_finger_joint2
position:
- -0.12379128458443953
- 0.03509958236456731
- -0.288853514843267
- -2.2702493949115747
- -0.1643717568945962
- 2.334656808641331
- 0.5035185412615558
- 0.0
- 0.0
velocity:
- -0.10900122160253178
- -0.09797883992627916
- -0.12868103396503205
- -0.04215900839291508
- 0.16760403478313432
- -0.023758836935029098
- -0.30873663333676193
- 0.0
- 0.0
effort:
- -0.670771598815918
- -29.877290725708008
- -0.4155082106590271
- 20.332197189331055
- 1.2387272119522095
- 2.1434481143951416
- -0.2125161737203598
- 0.0
- 0.0
---
header:
  stamp:
    sec: 1756279692
    nanosec: 124731641
  frame_id: ''
name:
- fr3_joint1
- fr3_joint2
- fr3_joint3
- fr3_joint4
- fr3_joint5
- fr3_joint6
- fr3_joint7
- fr3_finger_joint1
- fr3_finger_joint2
position:
- -0.12771669160092652
- 0.03166114873407604
- -0.29313699373497926
- -2.2717695437018857
- -0.15873884815844877
- 2.3338438049842773
- 0.4936104974149166
- 0.0
- 0.0
velocity:
- -0.11695798886401929
- -0.10247312070778707
- -0.12813579713151727
- -0.04429672489969691
- 0.1683224622074239
- -0.026144854240415797
- -0.32306292792423147
- 0.0
- 0.0
effort:
- -0.595393180847168
- -29.496431350708008
- -0.2607840895652771
- 20.752729415893555
- 1.2845035791397095
- 2.2432405948638916
- -0.266532301902771
- 0.0
- 0.0
---
header:
  stamp:
    sec: 1756279692
    nanosec: 158501309
  frame_id: ''
name:
- fr3_joint1
- fr3_joint2
- fr3_joint3
- fr3_joint4
- fr3_joint5
- fr3_joint6
- fr3_joint7
- fr3_finger_joint1
- fr3_finger_joint2
position:
- -0.131274769243567
- 0.02848060779201849
- -0.2975317751742517
- -2.2730295873184088
- -0.15340997784958396
- 2.3330802081119097
- 0.4831193340111705
- 0.0
- 0.0
velocity:
- -0.10313920927616381
- -0.09487065177884547
- -0.13949103075601196
- -0.036499973723568724
- 0.16426902351382874
- -0.021508064683833743
- -0.29644157430018137
- 0.0
- 0.0
effort:
- -0.571589469909668
- -29.270296096801758
- -0.2607840895652771
- 20.673383712768555
- 1.3302799463272095
- 2.2230989933013916
- -0.293998122215271
- 0.0
- 0.0
---
header:
  stamp:
    sec: 1756279692
    nanosec: 191471275
  frame_id: ''
name:
- fr3_joint1
- fr3_joint2
- fr3_joint3
- fr3_joint4
- fr3_joint5
- fr3_joint6
- fr3_joint7
- fr3_finger_joint1
- fr3_finger_joint2
position:
- -0.1347489566272645
- 0.025345108011411106
- -0.30190933214440596
- -2.2742358282399486
- -0.147790791027626
- 2.332378951030911
- 0.4729475704471085
- 0.0
- 0.0
velocity:
- -0.10873389887992328
- -0.09337316367384489
- -0.1234386442693494
- -0.03666819600627526
- 0.1641166665812195
- -0.020987604606053784
- -0.3386968691861742
- 0.0
- 0.0
effort:
- -0.619196891784668
- -29.524202346801758
- -0.3123587965965271
- 20.594038009643555
- 1.2973209619522095
- 2.2304232120513916
- -0.2326577752828598
- 0.0
- 0.0
---
header:
  stamp:
    sec: 1756279692
    nanosec: 224714745
  frame_id: ''
name:
- fr3_joint1
- fr3_joint2
- fr3_joint3
- fr3_joint4
- fr3_joint5
- fr3_joint6
- fr3_joint7
- fr3_finger_joint1
- fr3_finger_joint2
position:
- -0.13847644436383086
- 0.022117460404094246
- -0.3061369042699223
- -2.275426976442169
- -0.14229988905232893
- 2.331717316262687
- 0.4618982372402098
- 0.0
- 0.0
velocity:
- -0.12015084134320955
- -0.09688130846795222
- -0.1199719209874917
- -0.03323507188483393
- 0.1666276093136404
- -0.017131553607452835
- -0.3017792538509218
- 0.0
- 0.0
effort:
- -0.928645133972168
- -29.575777053833008
- -0.6218070387840271
- 20.645612716674805
- 1.2909122705459595
- 2.1764070987701416
- -0.2326577752828598
- 0.0
- 0.0
---
header:
  stamp:
    sec: 1756279692
    nanosec: 257931160
  frame_id: ''
name:
- fr3_joint1
- fr3_joint2
- fr3_joint3
- fr3_joint4
- fr3_joint5
- fr3_joint6
- fr3_joint7
- fr3_finger_joint1
- fr3_finger_joint2
position:
- -0.1421917574028654
- 0.01878467343651011
- -0.3102634453140977
- -2.276504600068565
- -0.13685969462976066
- 2.3310508622993495
- 0.45162033623573045
- 0.0
- 0.0
velocity:
- -0.1151340312957869
- -0.1077562442753989
- -0.12555794740173892
- -0.03180106464127211
- 0.16396918819164838
- -0.02184097035808368
- -0.3439341990135062
- 0.0
- 0.0
effort:
- -0.928645133972168
- -29.674959182739258
- -0.5464286208152771
- 20.828107833862305
- 1.2845035791397095
- 2.2368319034576416
- -0.2125161737203598
- 0.0
- 0.0
---
header:
  stamp:
    sec: 1756279692
    nanosec: 291259090
  frame_id: ''
name:
- fr3_joint1
- fr3_joint2
- fr3_joint3
- fr3_joint4
- fr3_joint5
- fr3_joint6
- fr3_joint7
- fr3_finger_joint1
- fr3_finger_joint2
position:
- -0.14571727101841042
- 0.015279686021215958
- -0.31469720394853173
- -2.277475510718659
- -0.13104113361619837
- 2.3304144473680544
- 0.44110590009579453
- 0.0
- 0.0
velocity:
- -0.10067928319058365
- -0.10078696967542582
- -0.1336543309632522
- -0.027876642848684026
- 0.1745915113698668
- -0.01782905937416926
- -0.28236332641908407
- 0.0
- 0.0
effort:
- -0.797724723815918
- -28.964815139770508
- -0.3401297926902771
- 20.514692306518555
- 1.2652775049209595
- 2.2029573917388916
- -0.272940993309021
- 0.0
- 0.0
---
header:
  stamp:
    sec: 1756279692
    nanosec: 324581989
  frame_id: ''
name:
- fr3_joint1
- fr3_joint2
- fr3_joint3
- fr3_joint4
- fr3_joint5
- fr3_joint6
- fr3_joint7
- fr3_finger_joint1
- fr3_finger_joint2
position:
- -0.1490855917102464
- 0.011952108441417324
- -0.31905026518714785
- -2.278400636537768
- -0.12549831090440533
- 2.329834236228303
- 0.43057615076952493
- 0.0
- 0.0
velocity:
- -0.0997803525520578
- -0.1018803919574737
- -0.13655720001170896
- -0.03137419241081108
- 0.1688941847357539
- -0.017352268471264264
- -0.35170918787062694
- 0.0
- 0.0
effort:
- -0.595393180847168
- -28.988618850708008
- -0.1576346755027771
- 20.594038009643555
- 1.2387272119522095
- 2.2102816104888916
- -0.252799391746521
- 0.0
- 0.0
---
header:
  stamp:
    sec: 1756279692
    nanosec: 358619443
  frame_id: ''
name:
- fr3_joint1
- fr3_joint2
- fr3_joint3
- fr3_joint4
- fr3_joint5
- fr3_joint6
- fr3_joint7
- fr3_finger_joint1
- fr3_finger_joint2
position:
- -0.15283818130152205
- 0.008504201054930695
- -0.3234505003433839
- -2.279493614901038
- -0.11983347714221698
- 2.3292099370196833
- 0.4202085479631864
- 0.0
- 0.0
velocity:
- -0.111448132932369
- -0.10483778638383505
- -0.13224503178162705
- -0.0339167837988095
- 0.15661073442969436
- -0.019833896987471126
- -0.2875966036155477
- 0.0
- 0.0
effort:
- -0.825495719909668
- -28.837862014770508
- -0.3401297926902771
- 20.697187423706055
- 1.3504215478897095
- 2.2230989933013916
- -0.2189248651266098
- 0.0
- 0.0
---
header:
  stamp:
    sec: 1756279692
    nanosec: 391495344
  frame_id: ''
name:
- fr3_joint1
- fr3_joint2
- fr3_joint3
- fr3_joint4
- fr3_joint5
- fr3_joint6
- fr3_joint7
- fr3_finger_joint1
- fr3_finger_joint2
position:
- -0.15656448317496496
- 0.004990679350477312
- -0.3277269093719886
- -2.2806538317805956
- -0.1145436869491972
- 2.32851760467342
- 0.4094346528977894
- 0.0
- 0.0
velocity:
- -0.10988462455094117
- -0.1015969275609869
- -0.12519985333769731
- -0.03320444336077232
- 0.16129371817595292
- -0.02251610234135919
- -0.32652407010242845
- 0.0
- 0.0
effort:
- -0.797724723815918
- -28.405427932739258
- -0.2607840895652771
- 20.673383712768555
- 1.3302799463272095
- 2.2102816104888916
- -0.252799391746521
- 0.0
- 0.0
---
header:
  stamp:
    sec: 1756279692
    nanosec: 424700781
  frame_id: ''
name:
- fr3_joint1
- fr3_joint2
- fr3_joint3
- fr3_joint4
- fr3_joint5
- fr3_joint6
- fr3_joint7
- fr3_finger_joint1
- fr3_finger_joint2
position:
- -0.16013930324035966
- 0.0015962018413022763
- -0.33206808290655726
- -2.2817870812423275
- -0.10878288222972562
- 2.327853075488315
- 0.3993830597050206
- 0.0
- 0.0
velocity:
- -0.10911888878106005
- -0.0948478765808724
- -0.12687770561468878
- -0.03237907537062601
- 0.16765191174789487
- -0.01836467255589662
- -0.29227500239051707
- 0.0
- 0.0
effort:
- -0.698542594909668
- -28.226900100708008
- -0.1576346755027771
- 20.542463302612305
- 1.2451359033584595
- 2.2102816104888916
- -0.2125161737203598
- 0.0
- 0.0
---
header:
  stamp:
    sec: 1756279692
    nanosec: 458586798
  frame_id: ''
name:
- fr3_joint1
- fr3_joint2
- fr3_joint3
- fr3_joint4
- fr3_joint5
- fr3_joint6
- fr3_joint7
- fr3_finger_joint1
- fr3_finger_joint2
position:
- -0.16368765466856985
- -0.0014991520941433417
- -0.3363589992505939
- -2.2829383325253305
- -0.10344246479060312
- 2.3272011696565427
- 0.388404133240935
- 0.0
- 0.0
velocity:
- -0.11383800997103395
- -0.09360041992417141
- -0.1273291836675189
- -0.03687882965567543
- 0.17071796711337034
- -0.020581884844672434
- -0.33732104432273374
- 0.0
- 0.0
effort:
- -0.900874137878418
- -28.326082229614258
- -0.3639335036277771
- 20.724958419799805
- 1.3037296533584595
- 2.2230989933013916
- -0.272940993309021
- 0.0
- 0.0
---
header:
  stamp:
    sec: 1756279692
    nanosec: 491478768
  frame_id: ''
name:
- fr3_joint1
- fr3_joint2
- fr3_joint3
- fr3_joint4
- fr3_joint5
- fr3_joint6
- fr3_joint7
- fr3_finger_joint1
- fr3_finger_joint2
position:
- -0.16759156394589284
- -0.004708642091509407
- -0.3404763199774522
- -2.284168414243477
- -0.09788879421781499
- 2.3264106186533007
- 0.37815054112960045
- 0.0
- 0.0
velocity:
- -0.11451209323290032
- -0.09490816016870647
- -0.12287887057248552
- -0.0351513055520538
- 0.1590000284895268
- -0.0231624285955784
- -0.3045969028367545
- 0.0
- 0.0
effort:
- -1.107172966003418
- -28.607759475708008
- -0.4948539137840271
- 20.673383712768555
- 1.3110538721084595
- 2.2697908878326416
- -0.252799391746521
- 0.0
- 0.0
---
header:
  stamp:
    sec: 1756279692
    nanosec: 524790143
  frame_id: ''
name:
- fr3_joint1
- fr3_joint2
- fr3_joint3
- fr3_joint4
- fr3_joint5
- fr3_joint6
- fr3_joint7
- fr3_finger_joint1
- fr3_finger_joint2
position:
- -0.17122154439948808
- -0.008106937755426825
- -0.34487778163510197
- -2.285427852864726
- -0.09224285513437355
- 2.325667612309981
- 0.36706116434095376
- 0.0
- 0.0
velocity:
- -0.10187250635529041
- -0.10247976700338551
- -0.1378180984347083
- -0.03588840142036483
- 0.1771500920947102
- -0.022546958177051143
- -0.31629937839623895
- 0.0
- 0.0
effort:
- -0.619196891784668
- -28.302278518676758
- 0.0486641526222229
- 20.752729415893555
- 1.2716861963272095
- 2.2432405948638916
- -0.2051919549703598
- 0.0
- 0.0
---
header:
  stamp:
    sec: 1756279692
    nanosec: 557891745
  frame_id: ''
name:
- fr3_joint1
- fr3_joint2
- fr3_joint3
- fr3_joint4
- fr3_joint5
- fr3_joint6
- fr3_joint7
- fr3_finger_joint1
- fr3_finger_joint2
position:
- -0.17451177410758276
- -0.01141008971236129
- -0.34933820638091917
- -2.28661525995017
- -0.08665660079445861
- 2.3249497615387
- 0.35747922996478537
- 0.0
- 0.0
velocity:
- -0.09490585824366478
- -0.10177182225179913
- -0.14214781755428957
- -0.03577673848562531
- 0.16605527979470533
- -0.01883766536492719
- -0.31609614226620053
- 0.0
- 0.0
effort:
- -0.797724723815918
- -27.921419143676758
- -0.0782889723777771
- 20.566267013549805
- 1.2387272119522095
- 2.2368319034576416
- -0.286673903465271
- 0.0
- 0.0
---
header:
  stamp:
    sec: 1756279692
    nanosec: 591536869
  frame_id: ''
name:
- fr3_joint1
- fr3_joint2
- fr3_joint3
- fr3_joint4
- fr3_joint5
- fr3_joint6
- fr3_joint7
- fr3_finger_joint1
- fr3_finger_joint2
position:
- -0.17818848271020954
- -0.014714146077792619
- -0.35366840377081005
- -2.287884578728739
- -0.08103143489201099
- 2.324258866540954
- 0.3460916385612688
- 0.0
- 0.0
velocity:
- -0.11766003881208123
- -0.09611246319580743
- -0.12052768071599504
- -0.037131182859953316
- 0.16556268074063168
- -0.0197181978754628
- -0.3106113164022905
- 0.0
- 0.0
effort:
- -0.825495719909668
- -27.667512893676758
- -0.0782889723777771
- 20.645612716674805
- 1.2973209619522095
- 2.2230989933013916
- -0.252799391746521
- 0.0
- 0.0
---
header:
  stamp:
    sec: 1756279692
    nanosec: 624662422
  frame_id: ''
name:
- fr3_joint1
- fr3_joint2
- fr3_joint3
- fr3_joint4
- fr3_joint5
- fr3_joint6
- fr3_joint7
- fr3_finger_joint1
- fr3_finger_joint2
position:
- -0.18213555160749176
- -0.018017121090590445
- -0.35794548074670984
- -2.2891762520844186
- -0.0754973748493392
- 2.3234867289612278
- 0.33592937923921073
- 0.0
- 0.0
velocity:
- -0.116398434969146
- -0.10093325553122258
- -0.1284209847119093
- -0.03937053644747601
- 0.16083368885531307
- -0.02511916515562112
- -0.3280152706911656
- 0.0
- 0.0
effort:
- -0.849299430847168
- -28.048372268676758
- -0.1576346755027771
- 20.986799240112305
- 1.3110538721084595
- 2.2697908878326416
- -0.306815505027771
- 0.0
- 0.0
---
header:
  stamp:
    sec: 1756279692
    nanosec: 658610807
  frame_id: ''
name:
- fr3_joint1
- fr3_joint2
- fr3_joint3
- fr3_joint4
- fr3_joint5
- fr3_joint6
- fr3_joint7
- fr3_finger_joint1
- fr3_finger_joint2
position:
- -0.18563297826953598
- -0.021309480947699758
- -0.3623950430873958
- -2.2903633320941617
- -0.07005534772882134
- 2.3226208322525466
- 0.3254790566820622
- 0.0
- 0.0
velocity:
- -0.10736831696757769
- -0.1017453799409553
- -0.13680611005808294
- -0.0338600905660394
- 0.16853791595458495
- -0.027981690757730448
- -0.29566300511736254
- 0.0
- 0.0
effort:
- -0.571589469909668
- -27.465181350708008
- 0.1002388596534729
- 20.907453536987305
- 1.2579532861709595
- 2.2899324893951416
- -0.252799391746521
- 0.0
- 0.0
---
header:
  stamp:
    sec: 1756279692
    nanosec: 691586953
  frame_id: ''
name:
- fr3_joint1
- fr3_joint2
- fr3_joint3
- fr3_joint4
- fr3_joint5
- fr3_joint6
- fr3_joint7
- fr3_finger_joint1
- fr3_finger_joint2
position:
- -0.18920150563703006
- -0.024629839701259336
- -0.36676187664382087
- -2.2914954424415304
- -0.06455536221441704
- 2.3217414036759387
- 0.3150975831081204
- 0.0
- 0.0
velocity:
- -0.10851399340833273
- -0.09767905603322195
- -0.12619379976211162
- -0.03219189952435587
- 0.16505401981855417
- -0.025826524134912876
- -0.34463356426181924
- 0.0
- 0.0
effort:
- -0.825495719909668
- -27.385835647583008
- -0.0267142653465271
- 20.828107833862305
- 1.2845035791397095
- 2.2633821964263916
- -0.2390664666891098
- 0.0
- 0.0
---
header:
  stamp:
    sec: 1756279692
    nanosec: 724593772
  frame_id: ''
name:
- fr3_joint1
- fr3_joint2
- fr3_joint3
- fr3_joint4
- fr3_joint5
- fr3_joint6
- fr3_joint7
- fr3_finger_joint1
- fr3_finger_joint2
position:
- -0.19295319964958044
- -0.02773452756852685
- -0.37075166966629697
- -2.2925813720845247
- -0.059130312173525414
- 2.3208987465346094
- 0.30453524116427444
- 0.0
- 0.0
velocity:
- -0.10972011575085103
- -0.09668462418926649
- -0.1267705373098096
- -0.033373574762378705
- 0.167557312674533
- -0.0237089126749467
- -0.29448359319142803
- 0.0
- 0.0
effort:
- -0.849299430847168
- -27.334260940551758
- -0.0544852614402771
- 20.855878829956055
- 1.2716861963272095
- 2.2029573917388916
- -0.300406813621521
- 0.0
- 0.0
---
header:
  stamp:
    sec: 1756279692
    nanosec: 758053040
  frame_id: ''
name:
- fr3_joint1
- fr3_joint2
- fr3_joint3
- fr3_joint4
- fr3_joint5
- fr3_joint6
- fr3_joint7
- fr3_finger_joint1
- fr3_finger_joint2
position:
- -0.1964767153042971
- -0.030907985291221206
- -0.37501015372665186
- -2.293777523761966
- -0.053494162114776735
- 2.320022600792145
- 0.29427352056531625
- 0.0
- 0.0
velocity:
- -0.09953170224078103
- -0.0996093090762474
- -0.13628894981191939
- -0.03819485122010307
- 0.17824689605338176
- -0.026843804276770907
- -0.3426771357893254
- 0.0
- 0.0
effort:
- -0.849299430847168
- -27.465181350708008
- -0.0267142653465271
- 20.883649826049805
- 1.2515445947647095
- 2.2697908878326416
- -0.2125161737203598
- 0.0
- 0.0
---
header:
  stamp:
    sec: 1756279692
    nanosec: 791483005
  frame_id: ''
name:
- fr3_joint1
- fr3_joint2
- fr3_joint3
- fr3_joint4
- fr3_joint5
- fr3_joint6
- fr3_joint7
- fr3_finger_joint1
- fr3_finger_joint2
position:
- -0.20000268799722012
- -0.034556305243925625
- -0.3795296882393773
- -2.2952661920308883
- -0.04767602165649081
- 2.319097483863158
- 0.28350660489257967
- 0.0
- 0.0
velocity:
- -0.1043692056120036
- -0.10884160072726666
- -0.1293792669604556
- -0.04581732630188634
- 0.16280533245401818
- -0.025625196641924836
- -0.28824214463806785
- 0.0
- 0.0
effort:
- -0.619196891784668
- -26.901826858520508
- 0.1518135666847229
- 20.883649826049805
- 1.3366886377334595
- 2.2835237979888916
- -0.2125161737203598
- 0.0
- 0.0
---
header:
  stamp:
    sec: 1756279692
    nanosec: 824539383
  frame_id: ''
name:
- fr3_joint1
- fr3_joint2
- fr3_joint3
- fr3_joint4
- fr3_joint5
- fr3_joint6
- fr3_joint7
- fr3_finger_joint1
- fr3_finger_joint2
position:
- -0.2034664984863638
- -0.03800748162703574
- -0.38375166891606644
- -2.296680539080461
- -0.04221936163676543
- 2.318157141846928
- 0.2728018986275135
- 0.0
- 0.0
velocity:
- -0.11628116109155148
- -0.10220196908756715
- -0.12741168630126337
- -0.0405660764860049
- 0.16639667802401265
- -0.027889243096106183
- -0.35143758912032425
- 0.0
- 0.0
effort:
- -0.952448844909668
- -26.878023147583008
- 0.0486641526222229
- 20.855878829956055
- 1.2780948877334595
- 2.2633821964263916
- -0.1987832635641098
- 0.0
- 0.0
---
header:
  stamp:
    sec: 1756279692
    nanosec: 857940475
  frame_id: ''
name:
- fr3_joint1
- fr3_joint2
- fr3_joint3
- fr3_joint4
- fr3_joint5
- fr3_joint6
- fr3_joint7
- fr3_finger_joint1
- fr3_finger_joint2
position:
- -0.20742368086084706
- -0.041285126720338725
- -0.3881790419117296
- -2.2980248278770903
- -0.03678730641507075
- 2.31725030839514
- 0.2626026335418724
- 0.0
- 0.0
velocity:
- -0.1108619959460585
- -0.09589242088350097
- -0.13906734500460932
- -0.03781885832534776
- 0.16427051406595783
- -0.02818726707630899
- -0.286003406129391
- 0.0
- 0.0
effort:
- -0.952448844909668
- -26.953401565551758
- 0.0486641526222229
- 21.197065353393555
- 1.2387272119522095
- 2.2899324893951416
- -0.280265212059021
- 0.0
- 0.0
---
header:
  stamp:
    sec: 1756279692
    nanosec: 891548154
  frame_id: ''
name:
- fr3_joint1
- fr3_joint2
- fr3_joint3
- fr3_joint4
- fr3_joint5
- fr3_joint6
- fr3_joint7
- fr3_finger_joint1
- fr3_finger_joint2
position:
- -0.21107878923359033
- -0.044547107666427235
- -0.3926346335306032
- -2.2992812978401984
- -0.031037584827356288
- 2.316307409367626
- 0.2517102117710127
- 0.0
- 0.0
velocity:
- -0.10218645391676218
- -0.09920546508874324
- -0.1320510946031448
- -0.03785356847266066
- 0.16723351635611092
- -0.0251044262752882
- -0.32525479150838976
- 0.0
- 0.0
effort:
- -0.825495719909668
- -27.004976272583008
- 0.2311592698097229
- 21.169294357299805
- 1.2652775049209595
- 2.2761995792388916
- -0.252799391746521
- 0.0
- 0.0
---
header:
  stamp:
    sec: 1756279692
    nanosec: 924587238
  frame_id: ''
name:
- fr3_joint1
- fr3_joint2
- fr3_joint3
- fr3_joint4
- fr3_joint5
- fr3_joint6
- fr3_joint7
- fr3_finger_joint1
- fr3_finger_joint2
position:
- -0.2144990493508875
- -0.047856364258987164
- -0.3968629150752669
- -2.3005594664542386
- -0.02568926456612969
- 2.315408229006871
- 0.2420592904166928
- 0.0
- 0.0
velocity:
- -0.10413811687512546
- -0.10169969867357874
- -0.1328433571469777
- -0.03962891366444215
- 0.16477815720396471
- -0.02803416622554001
- -0.29588671086723584
- 0.0
- 0.0
effort:
- -0.773921012878418
- -26.497163772583008
- 0.3343086838722229
- 21.197065353393555
- 1.2973209619522095
- 2.2899324893951416
- -0.2125161737203598
- 0.0
- 0.0
---
header:
  stamp:
    sec: 1756279692
    nanosec: 957899427
  frame_id: ''
name:
- fr3_joint1
- fr3_joint2
- fr3_joint3
- fr3_joint4
- fr3_joint5
- fr3_joint6
- fr3_joint7
- fr3_finger_joint1
- fr3_finger_joint2
position:
- -0.21828345836164942
- -0.05111901404607538
- -0.4011058595368719
- -2.301701209026693
- -0.020046211547634658
- 2.3145445775041233
- 0.2306672669419118
- 0.0
- 0.0
velocity:
- -0.10889247997830384
- -0.09435886980928607
- -0.1265523597847612
- -0.030415648089587896
- 0.1655127085414346
- -0.023818258540390238
- -0.33546685791367525
- 0.0
- 0.0
effort:
- -1.182551383972168
- -26.445589065551758
- -0.0782889723777771
- 20.986799240112305
- 1.2909122705459595
- 2.2633821964263916
- -0.2125161737203598
- 0.0
- 0.0
---
header:
  stamp:
    sec: 1756279692
    nanosec: 991512528
  frame_id: ''
name:
- fr3_joint1
- fr3_joint2
- fr3_joint3
- fr3_joint4
- fr3_joint5
- fr3_joint6
- fr3_joint7
- fr3_finger_joint1
- fr3_finger_joint2
position:
- -0.2220005697773179
- -0.054211406487255295
- -0.4053779948182156
- -2.3026716694591696
- -0.014508808675007652
- 2.3137996420174387
- 0.22043334679936386
- 0.0
- 0.0
velocity:
- -0.10810152810115149
- -0.09074661291097122
- -0.13010437794646207
- -0.026196218959485932
- 0.17626452991984462
- -0.02355921513532908
- -0.30572428501657656
- 0.0
- 0.0
effort:
- -0.797724723815918
- -26.548738479614258
- 0.3343086838722229
- 21.066144943237305
- 1.2515445947647095
- 2.2899324893951416
- -0.2125161737203598
- 0.0
- 0.0
---
header:
  stamp:
    sec: 1756279693
    nanosec: 24693861
  frame_id: ''
name:
- fr3_joint1
- fr3_joint2
- fr3_joint3
- fr3_joint4
- fr3_joint5
- fr3_joint6
- fr3_joint7
- fr3_finger_joint1
- fr3_finger_joint2
position:
- -0.22551845642217092
- -0.05749621737774239
- -0.40981437775993595
- -2.3036930518987395
- -0.008574017768315801
- 2.313091625067998
- 0.20942310206059772
- 0.0
- 0.0
velocity:
- -0.10597745281714438
- -0.09987887512028647
- -0.13348204637665934
- -0.031850781009053405
- 0.16836203962728075
- -0.0203107367816955
- -0.3029882361984757
- 0.0
- 0.0
effort:
- -0.750117301940918
- -26.520967483520508
- 0.3620796799659729
- 21.038373947143555
- 1.2259098291397095
- 2.3036653995513916
- -0.280265212059021
- 0.0
- 0.0
---
header:
  stamp:
    sec: 1756279693
    nanosec: 58554984
  frame_id: ''
name:
- fr3_joint1
- fr3_joint2
- fr3_joint3
- fr3_joint4
- fr3_joint5
- fr3_joint6
- fr3_joint7
- fr3_finger_joint1
- fr3_finger_joint2
position:
- -0.22900083025215093
- -0.06092816429770948
- -0.41421754707246133
- -2.304769202345999
- -0.0032062041027766815
- 2.312440294680784
- 0.1997467238601359
- 0.0
- 0.0
velocity:
- -0.11128286403400638
- -0.10630582481011211
- -0.13402548900246902
- -0.03318530910441173
- 0.16361830367815755
- -0.019822792834597147
- -0.3260343176802618
- 0.0
- 0.0
effort:
- -0.877070426940918
- -25.783052444458008
- 0.3343086838722229
- 21.169294357299805
- 1.2515445947647095
- 2.2899324893951416
- -0.272940993309021
- 0.0
- 0.0
---
header:
  stamp:
    sec: 1756279693
    nanosec: 91488520
  frame_id: ''
name:
- fr3_joint1
- fr3_joint2
- fr3_joint3
- fr3_joint4
- fr3_joint5
- fr3_joint6
- fr3_joint7
- fr3_finger_joint1
- fr3_finger_joint2
position:
- -0.23291553186473932
- -0.06441769719972681
- -0.4185563117743297
- -2.305793526564197
- 0.002231779905513425
- 2.311781936935452
- 0.18849376966041403
- 0.0
- 0.0
velocity:
- -0.11225343672385507
- -0.09958843882087025
- -0.12949670339985087
- -0.029641058896847417
- 0.1605678259789052
- -0.016673846590108614
- -0.3022088028753727
- 0.0
- 0.0
effort:
- -0.900874137878418
- -25.707674026489258
- 0.3858833909034729
- 21.066144943237305
- 1.2387272119522095
- 2.2761995792388916
- -0.1987832635641098
- 0.0
- 0.0
---
header:
  stamp:
    sec: 1756279693
    nanosec: 124688825
  frame_id: ''
name:
- fr3_joint1
- fr3_joint2
- fr3_joint3
- fr3_joint4
- fr3_joint5
- fr3_joint6
- fr3_joint7
- fr3_finger_joint1
- fr3_finger_joint2
position:
- -0.23668811114931088
- -0.06775099259995533
- -0.42294950018761174
- -2.3068410219911257
- 0.007903335548139117
- 2.3111838969861846
- 0.1784138139224807
- 0.0
- 0.0
velocity:
- -0.10091066334230638
- -0.10025117954785409
- -0.13483807913277912
- -0.03099685690254588
- 0.16915006113094463
- -0.01976419190400064
- -0.3313799844158206
- 0.0
- 0.0
effort:
- -0.750117301940918
- -25.707674026489258
- 0.6437569260597229
- 21.093915939331055
- 1.2121769189834595
- 2.3100740909576416
- -0.2189248651266098
- 0.0
- 0.0
---
header:
  stamp:
    sec: 1756279693
    nanosec: 158423050
  frame_id: ''
name:
- fr3_joint1
- fr3_joint2
- fr3_joint3
- fr3_joint4
- fr3_joint5
- fr3_joint6
- fr3_joint7
- fr3_finger_joint1
- fr3_finger_joint2
position:
- -0.24000567856103272
- -0.07099837179711124
- -0.42731516766635935
- -2.307959099031404
- 0.013275644700553885
- 2.310568790820599
- 0.16814714904238445
- 0.0
- 0.0
velocity:
- -0.10073374677870832
- -0.10206406014427709
- -0.13330430062558704
- -0.03655214064695442
- 0.16310624426290135
- -0.01962736327140374
- -0.29076819544882165
- 0.0
- 0.0
effort:
- -0.849299430847168
- -26.013154983520508
- 0.4652290940284729
- 21.066144943237305
- 1.2451359033584595
- 2.2633821964263916
- -0.300406813621521
- 0.0
- 0.0
---
header:
  stamp:
    sec: 1756279693
    nanosec: 191251140
  frame_id: ''
name:
- fr3_joint1
- fr3_joint2
- fr3_joint3
- fr3_joint4
- fr3_joint5
- fr3_joint6
- fr3_joint7
- fr3_finger_joint1
- fr3_finger_joint2
position:
- -0.2436563243923458
- -0.07450200900182595
- -0.4314603074347225
- -2.3093319518640225
- 0.018827066954481286
- 2.3098802702556105
- 0.15772321323032346
- 0.0
- 0.0
velocity:
- -0.11470926375483832
- -0.09908754927936604
- -0.1175362820116943
- -0.040046086818137476
- 0.1643210289691282
- -0.02144844848857679
- -0.3479252523882599
- 0.0
- 0.0
effort:
- -1.130976676940918
- -25.402193069458008
- 0.2311592698097229
- 21.145490646362305
- 1.2780948877334595
- 2.2697908878326416
- -0.2125161737203598
- 0.0
- 0.0
---
header:
  stamp:
    sec: 1756279693
    nanosec: 224556045
  frame_id: ''
name:
- fr3_joint1
- fr3_joint2
- fr3_joint3
- fr3_joint4
- fr3_joint5
- fr3_joint6
- fr3_joint7
- fr3_finger_joint1
- fr3_finger_joint2
position:
- -0.24730138708451305
- -0.07767228502925934
- -0.4354342209816509
- -2.3105086363879725
- 0.02436474892569332
- 2.3091515071406894
- 0.14712006883953285
- 0.0
- 0.0
velocity:
- -0.11074042492574404
- -0.09250845041234405
- -0.12410055338645634
- -0.033900231808390406
- 0.17851885054204375
- -0.02059463101244266
- -0.30042384986102616
- 0.0
- 0.0
effort:
- -1.107172966003418
- -25.326814651489258
- 0.3105049729347229
- 20.986799240112305
- 1.2451359033584595
- 2.2569735050201416
- -0.272940993309021
- 0.0
- 0.0
---
header:
  stamp:
    sec: 1756279693
    nanosec: 257902334
  frame_id: ''
name:
- fr3_joint1
- fr3_joint2
- fr3_joint3
- fr3_joint4
- fr3_joint5
- fr3_joint6
- fr3_joint7
- fr3_finger_joint1
- fr3_finger_joint2
position:
- -0.2509010388770394
- -0.0808058335188178
- -0.4399208223426448
- -2.3116585895008352
- 0.030098752747745195
- 2.308324149070602
- 0.13647316285243055
- 0.0
- 0.0
velocity:
- -0.10058114651871596
- -0.09478938071848352
- -0.14168417168018843
- -0.03641678236918216
- 0.16558118424563886
- -0.024604173908843154
- -0.3391895302953272
- 0.0
- 0.0
effort:
- -1.055598258972168
- -25.199861526489258
- 0.4652290940284729
- 21.117719650268555
- 1.2652775049209595
- 2.3302156925201416
- -0.252799391746521
- 0.0
- 0.0
---
header:
  stamp:
    sec: 1756279693
    nanosec: 291462486
  frame_id: ''
name:
- fr3_joint1
- fr3_joint2
- fr3_joint3
- fr3_joint4
- fr3_joint5
- fr3_joint6
- fr3_joint7
- fr3_finger_joint1
- fr3_finger_joint2
position:
- -0.2543753279077275
- -0.08409609107501201
- -0.4444687408328657
- -2.312906046288284
- 0.035807372254371216
- 2.307584608913114
- 0.12624953739945358
- 0.0
- 0.0
velocity:
- -0.10470246603312232
- -0.10258938636870096
- -0.13283482403390137
- -0.040341957088175937
- 0.16695839466781223
- -0.0234831946878482
- -0.28472403231647475
- 0.0
- 0.0
effort:
- -0.773921012878418
- -25.402193069458008
- 0.6953316330909729
- 21.197065353393555
- 1.2515445947647095
- 2.3100740909576416
- -0.293998122215271
- 0.0
- 0.0
---
header:
  stamp:
    sec: 1756279693
    nanosec: 324617103
  frame_id: ''
name:
- fr3_joint1
- fr3_joint2
- fr3_joint3
- fr3_joint4
- fr3_joint5
- fr3_joint6
- fr3_joint7
- fr3_finger_joint1
- fr3_finger_joint2
position:
- -0.2581102177721842
- -0.08757755555563441
- -0.448561025043372
- -2.314239223756054
- 0.04102623202956328
- 2.3068178502109578
- 0.11552383242280867
- 0.0
- 0.0
velocity:
- -0.10986646572891651
- -0.10530589509209841
- -0.1310831040916662
- -0.03911760663278517
- 0.15756107012372045
- -0.02233729491664685
- -0.3491192307854053
- 0.0
- 0.0
effort:
- -0.877070426940918
- -24.842805862426758
- 0.7469063401222229
- 21.327985763549805
- 1.2259098291397095
- 2.3164827823638916
- -0.260123610496521
- 0.0
- 0.0
---
header:
  stamp:
    sec: 1756279693
    nanosec: 358611560
  frame_id: ''
name:
- fr3_joint1
- fr3_joint2
- fr3_joint3
- fr3_joint4
- fr3_joint5
- fr3_joint6
- fr3_joint7
- fr3_finger_joint1
- fr3_finger_joint2
position:
- -0.26186711404703905
- -0.09103946960419074
- -0.45301784043996374
- -2.315460374534211
- 0.046701415770657895
- 2.3060669684710953
- 0.10529411339050694
- 0.0
- 0.0
velocity:
- -0.10164855919411708
- -0.09802282623879766
- -0.14324363313709548
- -0.035763062531526765
- 0.16915678619367458
- -0.023208717375980924
- -0.2913319633430847
- 0.0
- 0.0
effort:
- -0.877070426940918
- -24.743623733520508
- 0.8262520432472229
- 21.327985763549805
- 1.2057682275772095
- 2.2963411808013916
- -0.272940993309021
- 0.0
- 0.0
---
header:
  stamp:
    sec: 1756279693
    nanosec: 391521118
  frame_id: ''
name:
- fr3_joint1
- fr3_joint2
- fr3_joint3
- fr3_joint4
- fr3_joint5
- fr3_joint6
- fr3_joint7
- fr3_finger_joint1
- fr3_finger_joint2
position:
- -0.26528977145115407
- -0.09431419603002383
- -0.45750830769181333
- -2.316546479005993
- 0.05216493185676115
- 2.3052570954257363
- 0.0944003697675465
- 0.0
- 0.0
velocity:
- -0.10283932847278171
- -0.09758167557125862
- -0.130589869194852
- -0.03305930162941376
- 0.16153821198718038
- -0.021824775513974565
- -0.3231491301517147
- 0.0
- 0.0
effort:
- -0.928645133972168
- -24.743623733520508
- 0.8500557541847229
- 21.276411056518555
- 1.2716861963272095
- 2.2963411808013916
- -0.272940993309021
- 0.0
- 0.0
---
header:
  stamp:
    sec: 1756279693
    nanosec: 424703953
  frame_id: ''
name:
- fr3_joint1
- fr3_joint2
- fr3_joint3
- fr3_joint4
- fr3_joint5
- fr3_joint6
- fr3_joint7
- fr3_finger_joint1
- fr3_finger_joint2
position:
- -0.2689633777299103
- -0.09769220490204401
- -0.4617286212384571
- -2.317769358941007
- 0.05788107940787127
- 2.304583497830242
- 0.08439035144285016
- 0.0
- 0.0
velocity:
- -0.11284551443745712
- -0.10166356377602415
- -0.12214762277252547
- -0.03603781796424893
- 0.1654869549145518
- -0.020558555756923
- -0.2991924724314196
- 0.0
- 0.0
effort:
- -1.206355094909668
- -24.918184280395508
- 0.5406075119972229
- 21.248640060424805
- 1.2323185205459595
- 2.2761995792388916
- -0.327872633934021
- 0.0
- 0.0
---
header:
  stamp:
    sec: 1756279693
    nanosec: 458469620
  frame_id: ''
name:
- fr3_joint1
- fr3_joint2
- fr3_joint3
- fr3_joint4
- fr3_joint5
- fr3_joint6
- fr3_joint7
- fr3_finger_joint1
- fr3_finger_joint2
position:
- -0.2727883241584882
- -0.1010380970074668
- -0.46576991434484155
- -2.3190152330299063
- 0.06327469410026813
- 2.3038111238002923
- 0.07336444173717203
- 0.0
- 0.0
velocity:
- -0.1147622126198268
- -0.10149652607853721
- -0.13176241842675088
- -0.03740889991952946
- 0.1713973546112407
- -0.026236177079845067
- -0.3335872826907357
- 0.0
- 0.0
effort:
- -1.257929801940918
- -24.438142776489258
- 0.4890328049659729
- 21.276411056518555
- 1.2579532861709595
- 2.3100740909576416
- -0.1923745721578598
- 0.0
- 0.0
---
header:
  stamp:
    sec: 1756279693
    nanosec: 491591195
  frame_id: ''
name:
- fr3_joint1
- fr3_joint2
- fr3_joint3
- fr3_joint4
- fr3_joint5
- fr3_joint6
- fr3_joint7
- fr3_finger_joint1
- fr3_finger_joint2
position:
- -0.27639123614001515
- -0.10431862986358417
- -0.47029292350962953
- -2.3202302120256064
- 0.06906363284101699
- 2.3029794845317864
- 0.06320694945603839
- 0.0
- 0.0
velocity:
- -0.09961137332350854
- -0.09317287809832128
- -0.13870375369041824
- -0.03514854793872149
- 0.16751350040470453
- -0.025888047334649788
- -0.30203319651463584
- 0.0
- 0.0
effort:
- -0.952448844909668
- -23.977937698364258
- 0.9294014573097229
- 21.169294357299805
- 1.2451359033584595
- 2.2496492862701416
- -0.306815505027771
- 0.0
- 0.0
---
header:
  stamp:
    sec: 1756279693
    nanosec: 524577065
  frame_id: ''
name:
- fr3_joint1
- fr3_joint2
- fr3_joint3
- fr3_joint4
- fr3_joint5
- fr3_joint6
- fr3_joint7
- fr3_finger_joint1
- fr3_finger_joint2
position:
- -0.2798427847878621
- -0.10747994031891282
- -0.4746323703810084
- -2.321479843674946
- 0.0744060178190358
- 2.3021029002791615
- 0.052540471944414316
- 0.0
- 0.0
velocity:
- -0.10390742462577887
- -0.09710617319132196
- -0.13716966622453963
- -0.04113001216332843
- 0.16852079283147436
- -0.02613422416805239
- -0.3053114613253076
- 0.0
- 0.0
effort:
- -0.571589469909668
- -23.926362991333008
- 1.2150459289550781
- 21.117719650268555
- 1.2387272119522095
- 2.2496492862701416
- -0.306815505027771
- 0.0
- 0.0
---
header:
  stamp:
    sec: 1756279693
    nanosec: 557991551
  frame_id: ''
name:
- fr3_joint1
- fr3_joint2
- fr3_joint3
- fr3_joint4
- fr3_joint5
- fr3_joint6
- fr3_joint7
- fr3_finger_joint1
- fr3_finger_joint2
position:
- -0.2836148239673258
- -0.1108823616758721
- -0.4790450968198182
- -2.3229538720393643
- 0.07989981218855383
- 2.3012486015572926
- 0.042419924983110584
- 0.0
- 0.0
velocity:
- -0.11006085353397177
- -0.10378525876231684
- -0.13199024184789374
- -0.0446394191535183
- 0.16369659344600554
- -0.02275595313751154
- -0.3289924549806978
- 0.0
- 0.0
effort:
- -0.952448844909668
- -24.156465530395508
- 0.9571724534034729
- 21.300214767456055
- 1.2185856103897095
- 2.2633821964263916
- -0.252799391746521
- 0.0
- 0.0
---
header:
  stamp:
    sec: 1756279693
    nanosec: 591284343
  frame_id: ''
name:
- fr3_joint1
- fr3_joint2
- fr3_joint3
- fr3_joint4
- fr3_joint5
- fr3_joint6
- fr3_joint7
- fr3_finger_joint1
- fr3_finger_joint2
position:
- -0.2873823489757179
- -0.11433593125588871
- -0.4834232950473435
- -2.324409934377991
- 0.08548949879981622
- 2.300395111396555
- 0.031155240305750405
- 0.0
- 0.0
velocity:
- -0.10689489409972408
- -0.10193559613832764
- -0.13093372855993832
- -0.041015455326398574
- 0.16667716268610566
- -0.02594228555677324
- -0.2983836469844627
- 0.0
- 0.0
effort:
- -0.928645133972168
- -23.902559280395508
- 1.0603218078613281
- 21.617597579956055
- 1.2579532861709595
- 2.3302156925201416
- -0.306815505027771
- 0.0
- 0.0
---
header:
  stamp:
    sec: 1756279693
    nanosec: 624719931
  frame_id: ''
name:
- fr3_joint1
- fr3_joint2
- fr3_joint3
- fr3_joint4
- fr3_joint5
- fr3_joint6
- fr3_joint7
- fr3_finger_joint1
- fr3_finger_joint2
position:
- -0.29089816543526903
- -0.11761460808205708
- -0.48779841295490983
- -2.3256561218751073
- 0.091069072853125
- 2.2995797588829068
- 0.02116457235039483
- 0.0
- 0.0
velocity:
- -0.1058283800407899
- -0.09673734619153945
- -0.13066135763379952
- -0.03679478350364006
- 0.16543672236693566
- -0.02457872454373006
- -0.3259821966297568
- 0.0
- 0.0
effort:
- -0.773921012878418
- -23.597078323364258
- 1.3181953430175781
- 21.327985763549805
- 1.2451359033584595
- 2.2899324893951416
- -0.293998122215271
- 0.0
- 0.0
---
header:
  stamp:
    sec: 1756279693
    nanosec: 658465259
  frame_id: ''
name:
- fr3_joint1
- fr3_joint2
- fr3_joint3
- fr3_joint4
- fr3_joint5
- fr3_joint6
- fr3_joint7
- fr3_finger_joint1
- fr3_finger_joint2
position:
- -0.29443782470540303
- -0.12071863730675539
- -0.49198895445732366
- -2.326904335024074
- 0.09646189920124065
- 2.298772061943508
- 0.010896636676247917
- 0.0
- 0.0
velocity:
- -0.11153090036337522
- -0.09653351383115338
- -0.13025240073242966
- -0.03928439772361577
- 0.16564102304103118
- -0.02474622784035533
- -0.29493337049870194
- 0.0
- 0.0
effort:
- -1.154780387878418
- -23.545503616333008
- 0.9809761643409729
- 21.458906173706055
- 1.2716861963272095
- 2.3164827823638916
- -0.260123610496521
- 0.0
- 0.0
---
header:
  stamp:
    sec: 1756279693
    nanosec: 691484565
  frame_id: ''
name:
- fr3_joint1
- fr3_joint2
- fr3_joint3
- fr3_joint4
- fr3_joint5
- fr3_joint6
- fr3_joint7
- fr3_finger_joint1
- fr3_finger_joint2
position:
- -0.2982121961172621
- -0.12399720463249005
- -0.49620749498464034
- -2.328130338386339
- 0.1020874042596467
- 2.297970348481613
- 0.0003838878046445881
- 0.0
- 0.0
velocity:
- -0.10613253084611406
- -0.10087954740609276
- -0.12746469699257135
- -0.03318500726736395
- 0.174928028512503
- -0.02257931429377876
- -0.3516910948312019
- 0.0
- 0.0
effort:
- -1.234126091003418
- -23.724031448364258
- 1.0325508117675781
- 21.562055587768555
- 1.2451359033584595
- 2.3036653995513916
- -0.272940993309021
- 0.0
- 0.0
---
header:
  stamp:
    sec: 1756279693
    nanosec: 724644150
  frame_id: ''
name:
- fr3_joint1
- fr3_joint2
- fr3_joint3
- fr3_joint4
- fr3_joint5
- fr3_joint6
- fr3_joint7
- fr3_finger_joint1
- fr3_finger_joint2
position:
- -0.3017477139854951
- -0.12727507233499852
- -0.5003236364114344
- -2.329150884796908
- 0.10785500453807387
- 2.2971227714344176
- -0.010180264476019014
- 0.0
- 0.0
velocity:
- -0.10036604612840938
- -0.09796529831225854
- -0.13292954632806459
- -0.027072835819470478
- 0.17034412351802766
- -0.023330099158142867
- -0.29558199454571854
- 0.0
- 0.0
effort:
- -0.722346305847168
- -23.343172073364258
- 1.4213447570800781
- 21.538251876831055
- 1.2323185205459595
- 2.3100740909576416
- -0.286673903465271
- 0.0
- 0.0
---
header:
  stamp:
    sec: 1756279693
    nanosec: 757899737
  frame_id: ''
name:
- fr3_joint1
- fr3_joint2
- fr3_joint3
- fr3_joint4
- fr3_joint5
- fr3_joint6
- fr3_joint7
- fr3_finger_joint1
- fr3_finger_joint2
position:
- -0.30522107045640895
- -0.13057927928420415
- -0.5048206846389224
- -2.330066633341109
- 0.11358427328845137
- 2.296397974212558
- -0.020695367366391965
- 0.0
- 0.0
velocity:
- -0.10117261892539899
- -0.09755225321290589
- -0.14001155645266752
- -0.03019962628796021
- 0.17127141351141376
- -0.020093683126417662
- -0.3335431621413806
- 0.0
- 0.0
effort:
- -0.773921012878418
- -23.037691116333008
- 1.5244941711425781
- 21.355756759643555
- 1.1929508447647095
- 2.2835237979888916
- -0.340690016746521
- 0.0
- 0.0
---
header:
  stamp:
    sec: 1756279693
    nanosec: 791383282
  frame_id: ''
name:
- fr3_joint1
- fr3_joint2
- fr3_joint3
- fr3_joint4
- fr3_joint5
- fr3_joint6
- fr3_joint7
- fr3_finger_joint1
- fr3_finger_joint2
position:
- -0.308735406096306
- -0.13391984080985553
- -0.5093158685784925
- -2.3310437345398998
- 0.11902454757323559
- 2.2956685537731794
- -0.030970244968926093
- 0.0
- 0.0
velocity:
- -0.11378272438472156
- -0.10090513352965777
- -0.12893855540374297
- -0.03128349371681373
- 0.15784248684463767
- -0.02256666982150399
- -0.29024160923564535
- 0.0
- 0.0
effort:
- -1.234126091003418
- -22.835359573364258
- 1.2150459289550781
- 21.458906173706055
- 1.1801334619522095
- 2.3100740909576416
- -0.272940993309021
- 0.0
- 0.0
---
header:
  stamp:
    sec: 1756279693
    nanosec: 824575421
  frame_id: ''
name:
- fr3_joint1
- fr3_joint2
- fr3_joint3
- fr3_joint4
- fr3_joint5
- fr3_joint6
- fr3_joint7
- fr3_finger_joint1
- fr3_finger_joint2
position:
- -0.3125055813032346
- -0.13725637339643376
- -0.5134374889204583
- -2.3321000811764367
- 0.12450765235776491
- 2.2949845299809026
- -0.0416853543802844
- 0.0
- 0.0
velocity:
- -0.11405408137176755
- -0.10697041716271316
- -0.1308587682472148
- -0.03365109811938715
- 0.17068770420786938
- -0.021796884928637617
- -0.3525374081219799
- 0.0
- 0.0
effort:
- -0.952448844909668
- -23.037691116333008
- 1.4451484680175781
- 21.431135177612305
- 1.1929508447647095
- 2.2835237979888916
- -0.280265212059021
- 0.0
- 0.0
---
header:
  stamp:
    sec: 1756279693
    nanosec: 857856943
  frame_id: ''
name:
- fr3_joint1
- fr3_joint2
- fr3_joint3
- fr3_joint4
- fr3_joint5
- fr3_joint6
- fr3_joint7
- fr3_finger_joint1
- fr3_finger_joint2
position:
- -0.3161939918210616
- -0.14083469277857974
- -0.5179170205187372
- -2.3332727850978254
- 0.12995364886752242
- 2.294249848440316
- -0.05186921811938377
- 0.0
- 0.0
velocity:
- -0.10614416548482396
- -0.10423899533983294
- -0.1361268826421632
- -0.0343814113418978
- 0.1605830033639396
- -0.02356939920648818
- -0.28441829902631804
- 0.0
- 0.0
effort:
- -0.877070426940918
- -22.553682327270508
- 1.5244941711425781
- 21.458906173706055
- 1.2057682275772095
- 2.2899324893951416
- -0.300406813621521
- 0.0
- 0.0
---
header:
  stamp:
    sec: 1756279693
    nanosec: 891263252
  frame_id: ''
name:
- fr3_joint1
- fr3_joint2
- fr3_joint3
- fr3_joint4
- fr3_joint5
- fr3_joint6
- fr3_joint7
- fr3_finger_joint1
- fr3_finger_joint2
position:
- -0.31979687252465533
- -0.1442219006937341
- -0.5224165726645226
- -2.3343818797868123
- 0.13562197780581925
- 2.2935840916555343
- -0.06269920967850727
- 0.0
- 0.0
velocity:
- -0.1061146307254942
- -0.09839906980319628
- -0.1329569188951622
- -0.03544191244157487
- 0.16818407317052578
- -0.01858665484936414
- -0.3204888555662482
- 0.0
- 0.0
effort:
- -0.900874137878418
- -22.375154495239258
