header:
  stamp:
    sec: 1756277279
    nanosec: 98119916
  frame_id: ''
name:
- fr3_joint1
- fr3_joint2
- fr3_joint3
- fr3_joint4
- fr3_joint5
- fr3_joint6
- fr3_joint7
- fr3_finger_joint1
- fr3_finger_joint2
position:
- 0.1356272861644314
- 0.2128149967556649
- -0.9616457911411183
- -1.8789307497242154
- -0.22231964340693813
- 1.3432453197125491
- -0.7474671860992017
- 0.0
- 0.0
velocity:
- 0.10113203879395435
- -0.00962390171699987
- 0.05107156622786689
- 0.030667291129547462
- 0.10003754315045506
- -0.015746161345667975
- 0.13685029565753049
- 0.0
- 0.0
effort:
- 3.153691291809082
- -23.470125198364258
- -2.692729949951172
- 21.800092697143555
- 0.7736393809318542
- 0.7243807911872864
- 0.2278524786233902
- 0.0
- 0.0
---
header:
  stamp:
    sec: 1756277279
    nanosec: 131478494
  frame_id: ''
name:
- fr3_joint1
- fr3_joint2
- fr3_joint3
- fr3_joint4
- fr3_joint5
- fr3_joint6
- fr3_joint7
- fr3_finger_joint1
- fr3_finger_joint2
position:
- 0.13975797263816236
- 0.21232906940765411
- -0.9595250388198441
- -1.8777038854671793
- -0.21843012170786294
- 1.3426240692011506
- -0.7416710817625202
- 0.0
- 0.0
velocity:
- 0.13948102279764685
- -0.015481253830444538
- 0.06628409835501438
- 0.04043138255402754
- 0.12178163219642052
- -0.02122339240659029
- 0.19863804497784557
- 0.0
- 0.0
effort:
- 3.661503791809082
- -23.394746780395508
- -2.280132293701172
- 21.851667404174805
- 0.8523747324943542
- 0.6905062794685364
- 0.269051194190979
- 0.0
- 0.0
---
header:
  stamp:
    sec: 1756277279
    nanosec: 166016692
  frame_id: ''
name:
- fr3_joint1
- fr3_joint2
- fr3_joint3
- fr3_joint4
- fr3_joint5
- fr3_joint6
- fr3_joint7
- fr3_finger_joint1
- fr3_finger_joint2
position:
- 0.14458949913214364
- 0.21180038579407953
- -0.9568633269936068
- -1.8762547819093298
- -0.21400022277351743
- 1.3417254506416274
- -0.7346345876050513
- 0.0
- 0.0
velocity:
- 0.1544419064334632
- -0.01875674712347481
- 0.0946862333353654
- 0.049644649085115185
- 0.14354772588355735
- -0.032526157027416465
- 0.2305060075657988
- 0.0
- 0.0
effort:
- 3.026738166809082
- -23.497896194458008
- -2.768108367919922
- 21.720746994018555
- 0.8651921153068542
- 0.7042391896247864
- 0.343208909034729
- 0.0
- 0.0
---
header:
  stamp:
    sec: 1756277279
    nanosec: 198394445
  frame_id: ''
name:
- fr3_joint1
- fr3_joint2
- fr3_joint3
- fr3_joint4
- fr3_joint5
- fr3_joint6
- fr3_joint7
- fr3_finger_joint1
- fr3_finger_joint2
position:
- 0.15034666838331728
- 0.2112833573772481
- -0.9532736441832258
- -1.8743002317710193
- -0.2085404802127536
- 1.340648491828476
- -0.727315439294084
- 0.0
- 0.0
velocity:
- 0.18271969064575116
- -0.011825058705061075
- 0.10700851338353957
- 0.06070121849163807
- 0.16123313519693783
- -0.0329707410015141
- 0.2038111118014937
- 0.0
- 0.0
effort:
- 1.979374885559082
- -23.775606155395508
- -3.728191375732422
- 21.510480880737305
- 0.7086369395256042
- 0.6438143849372864
- 0.410957932472229
- 0.0
- 0.0
---
header:
  stamp:
    sec: 1756277279
    nanosec: 231543706
  frame_id: ''
name:
- fr3_joint1
- fr3_joint2
- fr3_joint3
- fr3_joint4
- fr3_joint5
- fr3_joint6
- fr3_joint7
- fr3_finger_joint1
- fr3_finger_joint2
position:
- 0.15682004509132982
- 0.21093023827947896
- -0.949506878326458
- -1.872196148593474
- -0.20336215214290443
- 1.339630904920694
- -0.7198342051693448
- 0.0
- 0.0
velocity:
- 0.19395415542309666
- -0.009944445566152916
- 0.12055669303054142
- 0.06416568476922474
- 0.1571018801528594
- -0.03028289196512533
- 0.2458421402399537
- 0.0
- 0.0
effort:
- 0.884404182434082
- -24.156465530395508
- -4.632732391357422
- 21.169294357299805
- 0.6628605723381042
- 0.6245883107185364
- 0.424690842628479
- 0.0
- 0.0
---
header:
  stamp:
    sec: 1756277279
    nanosec: 264810439
  frame_id: ''
name:
- fr3_joint1
- fr3_joint2
- fr3_joint3
- fr3_joint4
- fr3_joint5
- fr3_joint6
- fr3_joint7
- fr3_finger_joint1
- fr3_finger_joint2
position:
- 0.16311593708529176
- 0.21065128982990808
- -0.9453000303542352
- -1.8701399774042695
- -0.19816279940329154
- 1.3386780994708192
- -0.7118542730183053
- 0.0
- 0.0
velocity:
- 0.1911922603403223
- -0.008747258087530827
- 0.12726508078178522
- 0.0610475098236182
- 0.1509868579220605
- -0.030494489639319524
- 0.22988063608115492
- 0.0
- 0.0
effort:
- 0.527348518371582
- -24.283418655395508
- -5.045330047607422
- 20.883649826049805
- 0.6161686778068542
- 0.5971224904060364
- 0.377083420753479
- 0.0
- 0.0
---
header:
  stamp:
    sec: 1756277279
    nanosec: 298136047
  frame_id: ''
name:
- fr3_joint1
- fr3_joint2
- fr3_joint3
- fr3_joint4
- fr3_joint5
- fr3_joint6
- fr3_joint7
- fr3_finger_joint1
- fr3_finger_joint2
position:
- 0.1695982296504011
- 0.21035264292151917
- -0.9414995410330605
- -1.8685025162786268
- -0.19321615824022376
- 1.3377818162186608
- -0.7045239985770909
- 0.0
- 0.0
velocity:
- 0.18322817177181086
- -0.007928559561497156
- 0.11135052311493508
- 0.0457071538201657
- 0.14957837031870005
- -0.03320128852089165
- 0.21935834541450747
- 0.0
- 0.0
effort:
- -0.03600597381591797
- -24.616670608520508
- -5.485698699951172
- 21.145490646362305
- 0.6299015879631042
- 0.6044467091560364
- 0.370674729347229
- 0.0
- 0.0
---
header:
  stamp:
    sec: 1756277279
    nanosec: 331523006
  frame_id: ''
name:
- fr3_joint1
- fr3_joint2
- fr3_joint3
- fr3_joint4
- fr3_joint5
- fr3_joint6
- fr3_joint7
- fr3_finger_joint1
- fr3_finger_joint2
position:
- 0.17553833323692877
- 0.2101017263176585
- -0.9376640121314076
- -1.8669119880942995
- -0.18791888174268206
- 1.3366474670378559
- -0.6963465530713042
- 0.0
- 0.0
velocity:
- 0.1761833454270237
- -0.004360581998184572
- 0.10862060063214396
- 0.04971986046422477
- 0.15213625583481633
- -0.032325682023919854
- 0.254363484853228
- 0.0
- 0.0
effort:
- -0.13518810272216797
- -25.096712112426758
- -5.513469696044922
- 21.510480880737305
- 0.5777165293693542
- 0.6374056935310364
- 0.465889573097229
- 0.0
- 0.0
---
header:
  stamp:
    sec: 1756277279
    nanosec: 364849677
  frame_id: ''
name:
- fr3_joint1
- fr3_joint2
- fr3_joint3
- fr3_joint4
- fr3_joint5
- fr3_joint6
- fr3_joint7
- fr3_finger_joint1
- fr3_finger_joint2
position:
- 0.18119197529033895
- 0.2098918569610422
- -0.9344169099689822
- -1.86537535400067
- -0.18326383655191097
- 1.3356542305108
- -0.6886570030186769
- 0.0
- 0.0
velocity:
- 0.16805665255964103
- -0.00947051338893198
- 0.09859134266719534
- 0.04631140165695914
- 0.138651792862348
- -0.03117222646957946
- 0.2224235229319016
- 0.0
- 0.0
effort:
- 0.04333972930908203
- -25.275239944458008
- -5.461894989013672
- 21.355756759643555
- 0.6756779551506042
- 0.5907137989997864
- 0.418282151222229
- 0.0
- 0.0
---
header:
  stamp:
    sec: 1756277279
    nanosec: 398144816
  frame_id: ''
name:
- fr3_joint1
- fr3_joint2
- fr3_joint3
- fr3_joint4
- fr3_joint5
- fr3_joint6
- fr3_joint7
- fr3_finger_joint1
- fr3_finger_joint2
position:
- 0.18636084250159685
- 0.20942947971864667
- -0.9310586782522612
- -1.863761983722211
- -0.1782796560178648
- 1.334587751635094
- -0.6804783999986768
- 0.0
- 0.0
velocity:
- 0.15049081133313133
- -0.01459733223474368
- 0.09710600476441228
- 0.04810835267536738
- 0.1488556454361333
- -0.031004049176187834
- 0.2579640204950467
- 0.0
- 0.0
effort:
- -0.08361339569091797
- -25.402193069458008
- -5.485698699951172
- 21.458906173706055
- 0.6363102793693542
- 0.6374056935310364
- 0.384407639503479
- 0.0
- 0.0
---
header:
  stamp:
    sec: 1756277279
    nanosec: 431546913
  frame_id: ''
name:
- fr3_joint1
- fr3_joint2
- fr3_joint3
- fr3_joint4
- fr3_joint5
- fr3_joint6
- fr3_joint7
- fr3_finger_joint1
- fr3_finger_joint2
position:
- 0.19157797216837763
- 0.208791359292444
- -0.9282120786920179
- -1.8621591499364696
- -0.17347020776462665
- 1.3334545510230533
- -0.6717999494698029
- 0.0
- 0.0
velocity:
- 0.15840119973388728
- -0.020382314720426696
- 0.07351838669748367
- 0.04759251108237776
- 0.1458297506652329
- -0.0334385325349035
- 0.23045752486569782
- 0.0
- 0.0
effort:
- 0.805058479309082
- -25.429964065551758
- -4.684307098388672
- 21.692975997924805
- 0.7736393809318542
- 0.6575472950935364
- 0.424690842628479
- 0.0
- 0.0
---
header:
  stamp:
    sec: 1756277279
    nanosec: 465159835
  frame_id: ''
name:
- fr3_joint1
- fr3_joint2
- fr3_joint3
- fr3_joint4
- fr3_joint5
- fr3_joint6
- fr3_joint7
- fr3_finger_joint1
- fr3_finger_joint2
position:
- 0.196505590342073
- 0.20803471749781102
- -0.9259044249960275
- -1.8605612743621653
- -0.16854324353350542
- 1.3323514625268145
- -0.6647642539700848
- 0.0
- 0.0
velocity:
- 0.14679902098706982
- -0.024330108742820766
- 0.07571353611740143
- 0.05022155850447432
- 0.15429803914548038
- -0.03524361256683972
- 0.22561663434384716
- 0.0
- 0.0
effort:
- 0.705876350402832
- -25.124483108520508
- -4.632732391357422
- 21.617597579956055
- 0.7278630137443542
- 0.7243807911872864
- 0.432015061378479
- 0.0
- 0.0
---
header:
  stamp:
    sec: 1756277279
    nanosec: 498269718
  frame_id: ''
name:
- fr3_joint1
- fr3_joint2
- fr3_joint3
- fr3_joint4
- fr3_joint5
- fr3_joint6
- fr3_joint7
- fr3_finger_joint1
- fr3_finger_joint2
position:
- 0.20050900415505712
- 0.20725582864569228
- -0.9235763198037794
- -1.8590398904777388
- -0.1642261038214757
- 1.3315243335199567
- -0.6576712047984458
- 0.0
- 0.0
velocity:
- 0.14180099918684663
- -0.02712306053436297
- 0.07779599765742164
- 0.05401765733613283
- 0.14759907976089603
- -0.027251726855574813
- 0.2581545721044252
- 0.0
- 0.0
effort:
- 0.959782600402832
- -25.072908401489258
- -4.501811981201172
- 21.431135177612305
- 0.6949040293693542
- 0.6639559864997864
- 0.336800217628479
- 0.0
- 0.0
---
header:
  stamp:
    sec: 1756277279
    nanosec: 531520140
  frame_id: ''
name:
- fr3_joint1
- fr3_joint2
- fr3_joint3
- fr3_joint4
- fr3_joint5
- fr3_joint6
- fr3_joint7
- fr3_finger_joint1
- fr3_finger_joint2
position:
- 0.2063315920610937
- 0.20617493405382875
- -0.9205299679005342
- -1.8570128202019582
- -0.15862395594511705
- 1.3304521764143467
- -0.648333793134864
- 0.0
- 0.0
velocity:
- 0.15238037572494423
- -0.029229718226693777
- 0.08186688506802783
- 0.0494091815319602
- 0.13973609637098455
- -0.026821071765549688
- 0.22344600321483415
- 0.0
- 0.0
effort:
- 1.189885139465332
- -24.767427444458008
- -4.220134735107422
- 21.379560470581055
- 0.7937809824943542
- 0.6575472950935364
- 0.316658616065979
- 0.0
- 0.0
---
header:
  stamp:
    sec: 1756277279
    nanosec: 564834420
  frame_id: ''
name:
- fr3_joint1
- fr3_joint2
- fr3_joint3
- fr3_joint4
- fr3_joint5
- fr3_joint6
- fr3_joint7
- fr3_finger_joint1
- fr3_finger_joint2
position:
- 0.21116449827864558
- 0.20519874967381999
- -0.91772065066562
- -1.8554888163358267
- -0.1539347142279089
- 1.3296123060212743
- -0.6402868556441873
- 0.0
- 0.0
velocity:
- 0.1474735352074768
- -0.03031004098710131
- 0.09103796693394223
- 0.04579789254300537
- 0.14457477326569534
- -0.02581512427770385
- 0.26561194458943066
- 0.0
- 0.0
effort:
- 0.705876350402832
- -24.894380569458008
- -4.553386688232422
- 21.276411056518555
- 0.7800480723381042
- 0.6703646779060364
- 0.390816330909729
- 0.0
- 0.0
---
header:
  stamp:
    sec: 1756277279
    nanosec: 598173380
  frame_id: ''
name:
- fr3_joint1
- fr3_joint2
- fr3_joint3
- fr3_joint4
- fr3_joint5
- fr3_joint6
- fr3_joint7
- fr3_finger_joint1
- fr3_finger_joint2
position:
- 0.2163250930542791
- 0.20427196216678795
- -0.9147544312888106
- -1.8539852396423697
- -0.1489632854157925
- 1.3287082002448685
- -0.631783760786658
- 0.0
- 0.0
velocity:
- 0.1538944119682126
- -0.024531070506612344
- 0.08431640226799622
- 0.043347616552744585
- 0.14930563852616263
- -0.025842985442056047
- 0.23446859671189157
- 0.0
- 0.0
effort:
- 1.162114143371582
- -25.124483108520508
- -4.168560028076172
- 21.562055587768555
- 0.8065983653068542
- 0.6776888966560364
- 0.343208909034729
- 0.0
- 0.0
---
header:
  stamp:
    sec: 1756277279
    nanosec: 631621240
  frame_id: ''
name:
- fr3_joint1
- fr3_joint2
- fr3_joint3
- fr3_joint4
- fr3_joint5
- fr3_joint6
- fr3_joint7
- fr3_finger_joint1
- fr3_finger_joint2
position:
- 0.22168395232679375
- 0.20348295737296257
- -0.9120055216906873
- -1.852469982247422
- -0.14415121071210862
- 1.327731639435169
- -0.6241192181193128
- 0.0
- 0.0
velocity:
- 0.1519482321192742
- -0.021036546059307475
- 0.09125496279448382
- 0.04555840349529734
- 0.14445501052269405
- -0.027107928796344046
- 0.2352632709511477
- 0.0
- 0.0
effort:
- 1.114506721496582
- -25.199861526489258
- -4.089214324951172
- 21.510480880737305
- 0.8258244395256042
- 0.6776888966560364
- 0.370674729347229
- 0.0
- 0.0
---
header:
  stamp:
    sec: 1756277279
    nanosec: 664850376
  frame_id: ''
name:
- fr3_joint1
- fr3_joint2
- fr3_joint3
- fr3_joint4
- fr3_joint5
- fr3_joint6
- fr3_joint7
- fr3_finger_joint1
- fr3_finger_joint2
position:
- 0.22670360498602318
- 0.20272494432053703
- -0.9090055288607289
- -1.8509538371436927
- -0.13929879478122179
- 1.3267442806577703
- -0.6157115309535618
- 0.0
- 0.0
velocity:
- 0.15726896675765156
- -0.022637389345140525
- 0.09471234647404683
- 0.04747345360208652
- 0.1471551508543386
- -0.029082028914888765
- 0.2626259174348221
- 0.0
- 0.0
effort:
- 1.138310432434082
- -25.251436233520508
- -4.037639617919922
- 21.510480880737305
- 0.8395573496818542
- 0.6575472950935364
- 0.356941819190979
- 0.0
- 0.0
---
header:
  stamp:
    sec: 1756277279
    nanosec: 698210398
  frame_id: ''
name:
- fr3_joint1
- fr3_joint2
- fr3_joint3
- fr3_joint4
- fr3_joint5
- fr3_joint6
- fr3_joint7
- fr3_finger_joint1
- fr3_finger_joint2
position:
- 0.23204520279205673
- 0.20200650691954225
- -0.905864008727181
- -1.8493244947177767
- -0.13438469207623696
- 1.3257409101061775
- -0.6077900749460686
- 0.0
- 0.0
velocity:
- 0.16521522046597045
- -0.019899059949079333
- 0.0863258973692949
- 0.04997620285554037
- 0.14887262786468963
- -0.03345436418965694
- 0.23372056344038405
- 0.0
- 0.0
effort:
- 1.189885139465332
- -25.378389358520508
- -4.009868621826172
- 21.879438400268555
- 0.8587834239006042
- 0.7445223927497864
- 0.356941819190979
- 0.0
- 0.0
---
header:
  stamp:
    sec: 1756277279
    nanosec: 731708091
  frame_id: ''
name:
- fr3_joint1
- fr3_joint2
- fr3_joint3
- fr3_joint4
- fr3_joint5
- fr3_joint6
- fr3_joint7
- fr3_finger_joint1
- fr3_finger_joint2
position:
- 0.23734259560478832
- 0.2013890942185896
- -0.9026537607058189
- -1.8475169461217136
- -0.1292286173790399
- 1.3247668195570947
- -0.5991979986162356
- 0.0
- 0.0
velocity:
- 0.15774074185988926
- -0.018118235210909304
- 0.10013530111179884
- 0.05319132194850767
- 0.15386131342528134
- -0.028228948448269245
- 0.2685660057872337
- 0.0
- 0.0
effort:
- 0.37262439727783203
- -25.556917190551758
- -4.632732391357422
- 21.617597579956055
- 0.8130070567131042
- 0.7243807911872864
- 0.370674729347229
- 0.0
- 0.0
---
header:
  stamp:
    sec: 1756277279
    nanosec: 764821748
  frame_id: ''
name:
- fr3_joint1
- fr3_joint2
- fr3_joint3
- fr3_joint4
- fr3_joint5
- fr3_joint6
- fr3_joint7
- fr3_finger_joint1
- fr3_finger_joint2
position:
- 0.2424875167143343
- 0.20080807696482544
- -0.8996792130531281
- -1.845777538538758
- -0.12432990482464033
- 1.3238930789259973
- -0.5914639848288955
- 0.0
- 0.0
velocity:
- 0.16311511502236456
- -0.016888480978414444
- 0.08842916167657097
- 0.05394407874616172
- 0.15773077368152308
- -0.024786740197613136
- 0.2117505787343462
- 0.0
- 0.0
effort:
- 0.705876350402832
- -25.632295608520508
- -4.347087860107422
- 21.562055587768555
- 0.7937809824943542
- 0.6840975880622864
- 0.410957932472229
- 0.0
- 0.0
---
header:
  stamp:
    sec: 1756277279
    nanosec: 798171513
  frame_id: ''
name:
- fr3_joint1
- fr3_joint2
- fr3_joint3
- fr3_joint4
- fr3_joint5
- fr3_joint6
- fr3_joint7
- fr3_finger_joint1
- fr3_finger_joint2
position:
- 0.24826317194235598
- 0.20016173628690828
- -0.8967761435444482
- -1.8439715992628491
- -0.11911943580223623
- 1.3229691223406297
- -0.5837674005216669
- 0.0
- 0.0
velocity:
- 0.15961821174480562
- -0.018864878352028203
- 0.09087869543671176
- 0.0519045198108252
- 0.14415184267700593
- -0.02513991841695511
- 0.2397648845974153
- 0.0
- 0.0
effort:
- 0.805058479309082
- -25.608491897583008
- -4.271709442138672
- 21.407331466674805
- 0.8322331309318542
- 0.7042391896247864
- 0.384407639503479
- 0.0
- 0.0
---
header:
  stamp:
    sec: 1756277279
    nanosec: 831451525
  frame_id: ''
name:
- fr3_joint1
- fr3_joint2
- fr3_joint3
- fr3_joint4
- fr3_joint5
- fr3_joint6
- fr3_joint7
- fr3_finger_joint1
- fr3_finger_joint2
position:
- 0.25345750301945186
- 0.19950702292163772
- -0.8935038054272725
- -1.8423150164753639
- -0.11430648425585407
- 1.3220374208352257
- -0.5751203595158001
- 0.0
- 0.0
velocity:
- 0.15859570960888925
- -0.0174675225834587
- 0.09596561858528893
- 0.046942212249157164
- 0.14481844250383755
- -0.029319039949202652
- 0.25987968513511633
- 0.0
- 0.0
effort:
- 0.856633186340332
- -25.529146194458008
- -4.140789031982422
- 21.431135177612305
- 0.8789250254631042
- 0.6639559864997864
- 0.350533127784729
- 0.0
- 0.0
---
header:
  stamp:
    sec: 1756277279
    nanosec: 865156032
  frame_id: ''
name:
- fr3_joint1
- fr3_joint2
- fr3_joint3
- fr3_joint4
- fr3_joint5
- fr3_joint6
- fr3_joint7
- fr3_finger_joint1
- fr3_finger_joint2
position:
- 0.2586506120022259
- 0.19897716285662687
- -0.8905917830197551
- -1.8407784529318691
- -0.10946432376032973
- 1.320967103226839
- -0.5675631871465333
- 0.0
- 0.0
velocity:
- 0.159486788855209
- -0.01523383253446449
- 0.08880168283431718
- 0.048929037086304535
- 0.14187822608261788
- -0.04037882609943089
- 0.23439650423719657
- 0.0
- 0.0
effort:
- 1.011357307434082
- -25.759248733520508
- -4.116985321044922
- 21.851667404174805
- 0.8853337168693542
- 0.7774813771247864
- 0.377083420753479
- 0.0
- 0.0
---
header:
  stamp:
    sec: 1756277279
    nanosec: 898120956
  frame_id: ''
name:
- fr3_joint1
- fr3_joint2
- fr3_joint3
- fr3_joint4
- fr3_joint5
- fr3_joint6
- fr3_joint7
- fr3_finger_joint1
- fr3_finger_joint2
position:
- 0.26390081905045154
- 0.1984904158061049
- -0.8874951318991735
- -1.8390935297155433
- -0.1046933440731464
- 1.319733021478852
- -0.5587213090807244
- 0.0
- 0.0
velocity:
- 0.15276564282576516
- -0.013656474896903768
- 0.09936570788550916
- 0.04953699488311521
- 0.14352861404626485
- -0.03341705877005648
- 0.2669640723515511
- 0.0
- 0.0
effort:
- 0.24567127227783203
- -25.886201858520508
- -4.787456512451172
- 21.458906173706055
- 0.8789250254631042
- 0.6905062794685364
- 0.410957932472229
- 0.0
- 0.0
---
header:
  stamp:
    sec: 1756277279
    nanosec: 931488129
  frame_id: ''
name:
- fr3_joint1
- fr3_joint2
- fr3_joint3
- fr3_joint4
- fr3_joint5
- fr3_joint6
- fr3_joint7
- fr3_finger_joint1
- fr3_finger_joint2
position:
- 0.2692894817362515
- 0.19799195385300977
- -0.8843787534044847
- -1.8374304496829148
- -0.09967959945628173
- 1.3185135291986434
- -0.5506916248851107
- 0.0
- 0.0
velocity:
- 0.15931967172212014
- -0.014112132323827024
- 0.08608266880393736
- 0.047994733366262726
- 0.1479557430979247
- -0.0348080048920438
- 0.22454323855720623
- 0.0
- 0.0
effort:
- 0.884404182434082
- -26.088533401489258
- -4.243938446044922
- 21.720746994018555
- 0.9109684824943542
- 0.7307894825935364
- 0.343208909034729
- 0.0
- 0.0
---
header:
  stamp:
    sec: 1756277279
    nanosec: 964896462
  frame_id: ''
name:
- fr3_joint1
- fr3_joint2
- fr3_joint3
- fr3_joint4
- fr3_joint5
- fr3_joint6
- fr3_joint7
- fr3_finger_joint1
- fr3_finger_joint2
position:
- 0.27447041238573333
- 0.1975307709353288
- -0.8817042182663749
- -1.835810113508205
- -0.09513442132403174
- 1.3173053423954626
- -0.5432017953420123
- 0.0
- 0.0
velocity:
- 0.148839521680415
- -0.016010382028284826
- 0.09290031484904494
- 0.05101113335092659
- 0.14512235802280074
- -0.03835642538707561
- 0.24623922764314274
- 0.0
- 0.0
effort:
- 1.138310432434082
- -26.088533401489258
- -3.831340789794922
- 21.879438400268555
- 0.9897038340568542
- 0.7710726857185364
- 0.323067307472229
- 0.0
- 0.0
---
header:
  stamp:
    sec: 1756277279
    nanosec: 998116632
  frame_id: ''
name:
- fr3_joint1
- fr3_joint2
- fr3_joint3
- fr3_joint4
- fr3_joint5
- fr3_joint6
- fr3_joint7
- fr3_finger_joint1
- fr3_finger_joint2
position:
- 0.2794566114479439
- 0.1969063679522554
- -0.8786499097638656
- -1.8340442719427712
- -0.08988124293023972
- 1.3162407166268906
- -0.534582851183051
- 0.0
- 0.0
velocity:
- 0.1527088213575195
- -0.019518274590880336
- 0.08896285256763092
- 0.05308037752275851
- 0.15801953310624461
- -0.030832170298849833
- 0.24099416966361437
- 0.0
- 0.0
effort:
- 1.062932014465332
- -26.140108108520508
- -3.934490203857422
- 21.772321701049805
- 0.9045597910881042
- 0.7710726857185364
- 0.377083420753479
- 0.0
- 0.0
---
header:
  stamp:
    sec: 1756277280
    nanosec: 32100457
  frame_id: ''
name:
- fr3_joint1
- fr3_joint2
- fr3_joint3
- fr3_joint4
- fr3_joint5
- fr3_joint6
- fr3_joint7
- fr3_finger_joint1
- fr3_finger_joint2
position:
- 0.2847734470190108
- 0.19619154256704313
- -0.8756951852503329
- -1.8323265962421267
- -0.08480656678651483
- 1.3152274376602446
- -0.5266789799380072
- 0.0
- 0.0
velocity:
- 0.16484252013949213
- -0.02331899134151186
- 0.08141029016201898
- 0.052184351582745654
- 0.14441631465722324
- -0.029478863875964514
- 0.24065546975740326
- 0.0
- 0.0
effort:
- 0.959782600402832
- -25.989351272583008
- -3.934490203857422
- 21.589826583862305
- 0.9173771739006042
- 0.7042391896247864
- 0.410957932472229
- 0.0
- 0.0
---
header:
  stamp:
    sec: 1756277280
    nanosec: 64831707
  frame_id: ''
name:
- fr3_joint1
- fr3_joint2
- fr3_joint3
- fr3_joint4
- fr3_joint5
- fr3_joint6
- fr3_joint7
- fr3_finger_joint1
- fr3_finger_joint2
position:
- 0.2898878026432964
- 0.19550913874934042
- -0.8727414555964667
- -1.8306702329601183
- -0.07998797528308045
- 1.3142797497450807
- -0.5181923896724964
- 0.0
- 0.0
velocity:
- 0.1544520529017988
- -0.02213246006365622
- 0.09691176106957801
- 0.04875758312621083
- 0.14856302502230562
- -0.028417475351095123
- 0.2670462397957696
- 0.0
- 0.0
effort:
- 0.19409656524658203
- -26.013154983520508
- -4.553386688232422
- 21.300214767456055
- 0.8395573496818542
- 0.7307894825935364
- 0.356941819190979
- 0.0
- 0.0
---
header:
  stamp:
    sec: 1756277280
    nanosec: 98130215
  frame_id: ''
name:
- fr3_joint1
- fr3_joint2
- fr3_joint3
- fr3_joint4
- fr3_joint5
- fr3_joint6
- fr3_joint7
- fr3_finger_joint1
- fr3_finger_joint2
position:
- 0.2953372877144466
- 0.19480559110102236
- -0.8696520079038218
- -1.8291167940842983
- -0.07504043629484161
- 1.3133589231819367
- -0.5105055178954773
- 0.0
- 0.0
velocity:
- 0.1607056179744098
- -0.018893358911076547
- 0.08861237614411434
- 0.04355883197597988
- 0.14688468514900738
- -0.02769668911042171
- 0.21592795989176564
- 0.0
- 0.0
effort:
- 0.908207893371582
- -26.267061233520508
- -3.986064910888672
- 21.538251876831055
- 0.9311100840568542
- 0.7170565724372864
- 0.336800217628479
- 0.0
- 0.0
---
header:
  stamp:
    sec: 1756277280
    nanosec: 131476988
  frame_id: ''
name:
- fr3_joint1
- fr3_joint2
- fr3_joint3
- fr3_joint4
- fr3_joint5
- fr3_joint6
- fr3_joint7
- fr3_finger_joint1
- fr3_finger_joint2
position:
- 0.3007234316288135
- 0.19411039915928155
- -0.866764936676869
- -1.827689990527072
- -0.07023713437009389
- 1.3124003844219567
- -0.5024612357880138
- 0.0
- 0.0
velocity:
- 0.15242543705926734
- -0.019427775013149327
- 0.0890023065389777
- 0.04477888763476049
- 0.1430307696893661
- -0.03078097985054529
- 0.2535947765341691
- 0.0
- 0.0
effort:
- 0.935978889465332
- -26.215486526489258
- -3.934490203857422
- 21.931013107299805
- 0.9897038340568542
- 0.8040316700935364
- 0.377083420753479
- 0.0
- 0.0
---
header:
  stamp:
    sec: 1756277280
    nanosec: 164781931
  frame_id: ''
name:
- fr3_joint1
- fr3_joint2
- fr3_joint3
- fr3_joint4
- fr3_joint5
- fr3_joint6
- fr3_joint7
- fr3_finger_joint1
- fr3_finger_joint2
position:
- 0.3055867869654621
- 0.1935160826842468
- -0.8637421748498517
- -1.8261397265764217
- -0.06550216892169015
- 1.3114649771799562
- -0.4941161465230997
- 0.0
- 0.0
velocity:
- 0.15523466115570742
- -0.017189139369787356
- 0.08883904874664984
- 0.04694709147211089
- 0.1426569701156842
- -0.026733329174846446
- 0.2387875481018516
- 0.0
- 0.0
effort:
- 0.884404182434082
- -26.370210647583008
- -3.958293914794922
- 21.486677169799805
- 0.9704777598381042
- 0.7106478810310364
- 0.316658616065979
- 0.0
- 0.0
---
header:
  stamp:
    sec: 1756277280
    nanosec: 198135043
  frame_id: ''
name:
- fr3_joint1
- fr3_joint2
- fr3_joint3
- fr3_joint4
- fr3_joint5
- fr3_joint6
- fr3_joint7
- fr3_finger_joint1
- fr3_finger_joint2
position:
- 0.31102510207588563
- 0.19288068431975663
- -0.8608678686111563
- -1.8246475341202604
- -0.06052153145730108
- 1.3105921837434142
- -0.4862171815440108
- 0.0
- 0.0
velocity:
- 0.16641944424412572
- -0.019715211248573606
- 0.08447030745331834
- 0.04509790426557897
- 0.14333852719170279
- -0.02388014411388673
- 0.2530862486909342
- 0.0
- 0.0
effort:
- 0.805058479309082
- -26.473360061645508
- -3.958293914794922
- 21.954816818237305
- 0.9768864512443542
- 0.7637484669685364
- 0.404549241065979
- 0.0
- 0.0
---
header:
  stamp:
    sec: 1756277280
    nanosec: 231585210
  frame_id: ''
name:
- fr3_joint1
- fr3_joint2
- fr3_joint3
- fr3_joint4
- fr3_joint5
- fr3_joint6
- fr3_joint7
- fr3_finger_joint1
- fr3_finger_joint2
position:
- 0.3163184505753145
- 0.19220757367406024
- -0.8576770226544458
- -1.8230339357804772
- -0.055425489619993794
- 1.3096936171450801
- -0.4773618883825953
- 0.0
- 0.0
velocity:
- 0.15589142035707618
- -0.02030507275704467
- 0.09931600613232719
- 0.05268721370263605
- 0.155526485599192
- -0.02955539473209539
- 0.24549919029882822
- 0.0
- 0.0
effort:
- 0.29724597930908203
- -26.751070022583008
- -4.529582977294922
- 21.982587814331055
- 0.9375187754631042
- 0.7838900685310364
- 0.418282151222229
- 0.0
- 0.0
---
header:
  stamp:
    sec: 1756277280
    nanosec: 264884734
  frame_id: ''
name:
- fr3_joint1
- fr3_joint2
- fr3_joint3
- fr3_joint4
- fr3_joint5
- fr3_joint6
- fr3_joint7
- fr3_finger_joint1
- fr3_finger_joint2
position:
- 0.32142848867436585
- 0.191510868004577
- -0.8545486854904757
- -1.8212918816747694
- -0.05038662510034128
- 1.308871278183686
- -0.4699077862156396
- 0.0
- 0.0
velocity:
- 0.15705313815949856
- -0.024834408028665288
- 0.09199878316708002
- 0.05212161685476395
- 0.14715282272390845
- -0.020824294889945517
- 0.22417637660750378
- 0.0
- 0.0
effort:
- 0.908207893371582
- -26.774873733520508
- -4.009868621826172
- 21.823896408081055
- 0.9832951426506042
- 0.7371981739997864
- 0.356941819190979
- 0.0
- 0.0
---
header:
  stamp:
    sec: 1756277280
    nanosec: 298241256
  frame_id: ''
name:
- fr3_joint1
- fr3_joint2
- fr3_joint3
- fr3_joint4
- fr3_joint5
- fr3_joint6
- fr3_joint7
- fr3_finger_joint1
- fr3_finger_joint2
position:
- 0.3267749119162813
- 0.19065619541071582
- -0.8517380592607128
- -1.8195536708295097
- -0.04549133815425179
- 1.3079948167500437
- -0.46181262631775016
- 0.0
- 0.0
velocity:
- 0.15049170537792522
- -0.0266212991228689
- 0.09022162106669433
- 0.05285138120126667
- 0.14602780058568202
- -0.026216711269518734
- 0.2609941839926099
- 0.0
- 0.0
effort:
- 1.086735725402832
- -26.675691604614258
- -3.573467254638672
- 21.800092697143555
- 1.1142154932022095
- 0.7976229786872864
- 0.410957932472229
- 0.0
- 0.0
---
header:
  stamp:
    sec: 1756277280
    nanosec: 331520575
  frame_id: ''
name:
- fr3_joint1
- fr3_joint2
- fr3_joint3
- fr3_joint4
- fr3_joint5
- fr3_joint6
- fr3_joint7
- fr3_finger_joint1
- fr3_finger_joint2
position:
- 0.3319316912573081
- 0.18973846059615027
- -0.848698264807049
- -1.8177267219462994
- -0.04054475924063764
- 1.307120277654606
- -0.4534333394963828
- 0.0
- 0.0
velocity:
- 0.1600561713472165
- -0.02540151900453702
- 0.08433562087353685
- 0.05313003344445301
- 0.14513389284213882
- -0.02471809729228492
- 0.22310378773268622
- 0.0
- 0.0
effort:
- 0.805058479309082
- -26.647920608520508
- -3.803569793701172
- 21.510480880737305
- 1.0354801416397095
- 0.7170565724372864
- 0.404549241065979
- 0.0
- 0.0
---
header:
  stamp:
    sec: 1756277280
    nanosec: 366341821
  frame_id: ''
name:
- fr3_joint1
- fr3_joint2
- fr3_joint3
- fr3_joint4
- fr3_joint5
- fr3_joint6
- fr3_joint7
- fr3_finger_joint1
- fr3_finger_joint2
position:
- 0.33638174410471205
- 0.1889610168634229
- -0.8462852223507136
- -1.8164263690209415
- -0.036595598220628564
- 1.3064191840114419
- -0.44677499044965163
- 0.0
- 0.0
velocity:
- 0.1666244552578359
- -0.02678947683925534
- 0.08381288496811339
- 0.04596449905353284
- 0.14157878208745203
- -0.027695236394213105
- 0.24981018422078224
- 0.0
- 0.0
effort:
- 0.959782600402832
- -26.394014358520508
- -3.676616668701172
- 21.823896408081055
- 1.0748478174209595
- 0.7637484669685364
- 0.384407639503479
- 0.0
- 0.0
---
header:
  stamp:
    sec: 1756277280
    nanosec: 398196168
  frame_id: ''
name:
- fr3_joint1
- fr3_joint2
- fr3_joint3
- fr3_joint4
- fr3_joint5
- fr3_joint6
- fr3_joint7
- fr3_finger_joint1
- fr3_finger_joint2
position:
- 0.3424491494986882
- 0.1881144139193802
- -0.8427640035406655
- -1.814508807937564
- -0.030701231793053056
- 1.3052231587661163
- -0.4368722286379621
- 0.0
- 0.0
velocity:
- 0.14969586346865893
- -0.021318964473719296
- 0.10174287027547498
- 0.05237362180073539
- 0.14685560307787388
- -0.031324037695406
- 0.24132004775325308
- 0.0
- 0.0
effort:
- 0.32104969024658203
- -26.624116897583008
- -4.220134735107422
- 21.851667404174805
- 0.9832951426506042
- 0.8305819630622864
- 0.398140549659729
- 0.0
- 0.0
---
header:
  stamp:
    sec: 1756277280
    nanosec: 431492480
  frame_id: ''
name:
- fr3_joint1
- fr3_joint2
- fr3_joint3
- fr3_joint4
- fr3_joint5
- fr3_joint6
- fr3_joint7
- fr3_finger_joint1
- fr3_finger_joint2
position:
- 0.34778117914329604
- 0.18757230319251886
- -0.8396592959008864
- -1.8127181625109123
- -0.02578656628249674
- 1.3042342278901715
- -0.42953942760513747
- 0.0
- 0.0
velocity:
- 0.1582845012982649
- -0.015612444545631687
- 0.08398391190530376
- 0.04737478784279254
- 0.14520072717451915
- -0.02721948464994883
- 0.2250956616812994
- 0.0
- 0.0
effort:
- 0.935978889465332
- -26.826448440551758
- -3.676616668701172
- 21.772321701049805
- 1.0620304346084595
- 0.7774813771247864
- 0.398140549659729
- 0.0
- 0.0
---
header:
  stamp:
    sec: 1756277280
    nanosec: 464813486
  frame_id: ''
name:
- fr3_joint1
- fr3_joint2
- fr3_joint3
- fr3_joint4
- fr3_joint5
- fr3_joint6
- fr3_joint7
- fr3_finger_joint1
- fr3_finger_joint2
position:
- 0.3529594033993772
- 0.1870441065602971
- -0.8369934739839014
- -1.8111752646599077
- -0.0210820370565965
- 1.303323930739097
- -0.4214048292452184
- 0.0
- 0.0
velocity:
- 0.15387875962607991
- -0.01562232020338643
- 0.08357740638925461
- 0.04672605158436029
- 0.14668256944250066
- -0.028165792661670973
- 0.26524400845839485
- 0.0
- 0.0
effort:
- 1.011357307434082
- -26.929597854614258
- -3.573467254638672
- 21.931013107299805
- 1.1013981103897095
- 0.7902987599372864
- 0.384407639503479
- 0.0
- 0.0
---
header:
  stamp:
    sec: 1756277280
    nanosec: 498464167
  frame_id: ''
name:
- fr3_joint1
- fr3_joint2
- fr3_joint3
- fr3_joint4
- fr3_joint5
- fr3_joint6
- fr3_joint7
- fr3_finger_joint1
- fr3_finger_joint2
position:
- 0.3580923209804259
- 0.18656332747880958
- -0.8339240874866226
- -1.809476467200247
- -0.01614536179447343
- 1.3022569068434484
- -0.41315428366135193
- 0.0
- 0.0
velocity:
- 0.15607771587753497
- -0.01247073868765312
- 0.08824784971910991
- 0.053090806786878664
- 0.15203937036323265
- -0.03105901183579768
- 0.2196578131038877
- 0.0
- 0.0
effort:
- 1.062932014465332
- -27.004976272583008
- -3.545696258544922
- 21.823896408081055
- 1.1206241846084595
- 0.7976229786872864
- 0.398140549659729
- 0.0
- 0.0
---
header:
  stamp:
    sec: 1756277280
    nanosec: 531478002
  frame_id: ''
name:
- fr3_joint1
- fr3_joint2
- fr3_joint3
- fr3_joint4
- fr3_joint5
- fr3_joint6
- fr3_joint7
- fr3_finger_joint1
- fr3_finger_joint2
position:
- 0.36347910786240645
- 0.18613847418362522
- -0.83107031162634
- -1.8077747757442957
- -0.010966122179594837
- 1.3012061275300666
- -0.405023045779353
- 0.0
- 0.0
velocity:
- 0.16451351741164952
- -0.01302244031689532
- 0.08394165490785023
- 0.04993786765951086
- 0.1525525624931249
- -0.0344982153251017
- 0.2620810131142096
- 0.0
- 0.0
effort:
- 0.908207893371582
- -27.235078811645508
- -3.625041961669922
- 21.954816818237305
- 1.0949894189834595
- 0.8305819630622864
- 0.404549241065979
- 0.0
- 0.0
---
header:
  stamp:
    sec: 1756277280
    nanosec: 564839152
  frame_id: ''
name:
- fr3_joint1
- fr3_joint2
- fr3_joint3
- fr3_joint4
- fr3_joint5
- fr3_joint6
- fr3_joint7
- fr3_finger_joint1
- fr3_finger_joint2
position:
- 0.36848570674327447
- 0.1855898305258981
- -0.827932144761365
- -1.8061126942930092
- -0.006197722471163188
- 1.2999986552453535
- -0.3968017957662812
- 0.0
- 0.0
velocity:
- 0.1555395489124491
- -0.016551043899099574
- 0.09526584795420132
- 0.051679921384539966
- 0.14691592498107342
- -0.03676050410196839
- 0.23167408713005339
- 0.0
- 0.0
effort:
- 0.32104969024658203
- -27.235078811645508
- -4.037639617919922
- 21.851667404174805
- 1.0620304346084595
- 0.7838900685310364
- 0.390816330909729
- 0.0
- 0.0
---
header:
  stamp:
    sec: 1756277280
    nanosec: 598284693
  frame_id: ''
name:
- fr3_joint1
- fr3_joint2
- fr3_joint3
- fr3_joint4
- fr3_joint5
- fr3_joint6
- fr3_joint7
- fr3_finger_joint1
- fr3_finger_joint2
position:
- 0.37381785777236515
- 0.184999343532611
- -0.8247675800599749
- -1.8043951088163577
- -0.0012114491344514375
- 1.2988284049032022
- -0.389308660569706
- 0.0
- 0.0
velocity:
- 0.1611413777699158
- -0.018722952683086234
- 0.08884599948679671
- 0.047321747864018056
- 0.1467244101125051
- -0.03245329843425224
- 0.22426060715173318
- 0.0
- 0.0
effort:
- 0.832829475402832
- -27.183504104614258
- -3.648845672607422
- 21.589826583862305
- 1.0684391260147095
- 0.7509310841560364
- 0.432015061378479
- 0.0
- 0.0
---
header:
  stamp:
    sec: 1756277280
    nanosec: 631480474
  frame_id: ''
name:
- fr3_joint1
- fr3_joint2
- fr3_joint3
- fr3_joint4
- fr3_joint5
- fr3_joint6
- fr3_joint7
- fr3_finger_joint1
- fr3_finger_joint2
position:
- 0.3793446042472622
- 0.1843567374339674
- -0.822015603825788
- -1.8029361181014698
- 0.0036679535506174447
- 1.2976368011539647
- -0.38064570226587985
- 0.0
- 0.0
velocity:
- 0.15686245997650794
- -0.019194641658799725
- 0.08367752483820572
- 0.04270755053527522
- 0.14662116813028395
- -0.03636184191795822
- 0.2700100592952026
- 0.0
- 0.0
effort:
- 0.805058479309082
- -27.131929397583008
- -3.545696258544922
- 21.823896408081055
- 1.1599918603897095
- 0.8241732716560364
- 0.309334397315979
- 0.0
- 0.0
---
header:
  stamp:
    sec: 1756277280
    nanosec: 664832519
  frame_id: ''
name:
- fr3_joint1
- fr3_joint2
- fr3_joint3
- fr3_joint4
- fr3_joint5
- fr3_joint6
- fr3_joint7
- fr3_finger_joint1
- fr3_finger_joint2
position:
- 0.3844048019460589
- 0.18380825156790653
- -0.8190746986049807
- -1.8014647789115008
- 0.008544520670434572
- 1.296478765367473
- -0.37287624558719473
- 0.0
- 0.0
velocity:
- 0.15937980212937794
- -0.016376077579639003
- 0.08812726565563425
- 0.04568825008212663
- 0.14771477442434983
- -0.03306183707414606
- 0.23374428077707268
- 0.0
- 0.0
effort:
- 0.805058479309082
- -27.437410354614258
- -3.573467254638672
- 22.010358810424805
- 1.1270328760147095
- 0.8177645802497864
- 0.370674729347229
- 0.0
- 0.0
---
header:
  stamp:
    sec: 1756277280
    nanosec: 698092974
  frame_id: ''
name:
- fr3_joint1
- fr3_joint2
- fr3_joint3
- fr3_joint4
- fr3_joint5
- fr3_joint6
- fr3_joint7
- fr3_finger_joint1
- fr3_finger_joint2
position:
- 0.38976643735724176
- 0.18325501762404425
- -0.8160104328019765
- -1.799934672983515
- 0.013411249998898018
- 1.2953330379450418
- -0.36439636157127686
- 0.0
- 0.0
velocity:
- 0.16167048402733816
- -0.017400767572352767
- 0.08974916904091973
- 0.045099282025305575
- 0.14260765123120062
- -0.03290972323946362
- 0.26471054021351775
- 0.0
- 0.0
effort:
- 0.856633186340332
- -27.413606643676758
- -3.521892547607422
- 21.800092697143555
- 1.1535831689834595
- 0.7710726857185364
- 0.356941819190979
- 0.0
- 0.0
---
header:
  stamp:
    sec: 1756277280
    nanosec: 732052920
  frame_id: ''
name:
- fr3_joint1
- fr3_joint2
- fr3_joint3
- fr3_joint4
- fr3_joint5
- fr3_joint6
- fr3_joint7
- fr3_finger_joint1
- fr3_finger_joint2
position:
- 0.3949589461957361
- 0.18263819248483418
- -0.8127422258483507
- -1.798376202742477
- 0.018431699906693338
- 1.2941171819746333
- -0.35603532449880504
- 0.0
- 0.0
velocity:
- 0.14819777719636257
- -0.016513354212301976
- 0.1016768590768529
- 0.04573066973728867
- 0.14741299854944453
- -0.035469271570256776
- 0.21704635824325877
- 0.0
- 0.0
effort:
- 0.24567127227783203
- -27.592134475708008
- -3.934490203857422
- 22.010358810424805
- 1.1728092432022095
- 0.8507235646247864
- 0.356941819190979
- 0.0
- 0.0
---
header:
  stamp:
    sec: 1756277280
    nanosec: 764841713
  frame_id: ''
name:
- fr3_joint1
- fr3_joint2
- fr3_joint3
- fr3_joint4
- fr3_joint5
- fr3_joint6
- fr3_joint7
- fr3_finger_joint1
- fr3_finger_joint2
position:
- 0.4001389059641317
- 0.18210848553347267
- -0.8097719291218705
- -1.796727021530574
- 0.02322355039294139
- 1.2930696469358098
- -0.34883358442752627
- 0.0
- 0.0
velocity:
- 0.15993913287641848
- -0.013787593928995224
- 0.08582925476728717
- 0.05109221665508592
- 0.15447652426030264
- -0.031005933804366795
- 0.23704337462058064
- 0.0
- 0.0
effort:
- 1.035161018371582
- -27.846040725708008
- -3.442546844482422
- 22.113508224487305
- 1.2121769189834595
- 0.8104403614997864
- 0.404549241065979
- 0.0
- 0.0
---
header:
  stamp:
    sec: 1756277280
    nanosec: 798159437
  frame_id: ''
name:
- fr3_joint1
- fr3_joint2
- fr3_joint3
- fr3_joint4
- fr3_joint5
- fr3_joint6
- fr3_joint7
- fr3_finger_joint1
- fr3_finger_joint2
position:
- 0.4055160027706454
- 0.18151631480295627
- -0.807027723021122
- -1.795011718722517
- 0.028235681530387108
- 1.292180383545744
- -0.3400926292773353
- 0.0
- 0.0
velocity:
- 0.1520854860722494
- -0.020572623758418014
- 0.08934034658011222
- 0.049882872745286584
- 0.14540005530271305
- -0.024444775326095534
- 0.26345040594284214
- 0.0
- 0.0
effort:
- 0.983586311340332
- -27.766695022583008
- -3.363201141357422
- 22.113508224487305
- 1.2652775049209595
- 0.8241732716560364
- 0.377083420753479
- 0.0
- 0.0
---
header:
  stamp:
    sec: 1756277280
    nanosec: 831464570
  frame_id: ''
name:
- fr3_joint1
- fr3_joint2
- fr3_joint3
- fr3_joint4
- fr3_joint5
- fr3_joint6
- fr3_joint7
- fr3_finger_joint1
- fr3_finger_joint2
position:
- 0.41061652461160464
- 0.1808036074009109
- -0.803938109693439
- -1.7932180834383882
- 0.033316596214799564
- 1.2912673819229399
- -0.33209642456296495
- 0.0
- 0.0
velocity:
- 0.15412269310504875
- -0.021428047399853052
- 0.09124572269692709
- 0.05438650709615336
- 0.15296012372529544
- -0.028686366441162955
- 0.23550387842333254
- 0.0
- 0.0
effort:
- 1.035161018371582
- -27.691316604614258
- -3.260051727294922
- 21.982587814331055
- 1.2780948877334595
- 0.8177645802497864
- 0.350533127784729
- 0.0
- 0.0
---
header:
  stamp:
    sec: 1756277280
    nanosec: 864834131
  frame_id: ''
name:
- fr3_joint1
- fr3_joint2
- fr3_joint3
- fr3_joint4
- fr3_joint5
- fr3_joint6
- fr3_joint7
- fr3_finger_joint1
- fr3_finger_joint2
position:
- 0.41573496314820946
- 0.18006679586778535
- -0.80107566223599
- -1.7914766958528234
- 0.03812253370204222
- 1.2904845349184795
- -0.32371335767835563
- 0.0
- 0.0
velocity:
- 0.1627236452419902
- -0.02365243730399677
- 0.08307197330408639
- 0.05133902245696198
- 0.14128596410963706
- -0.02066255931224228
- 0.2641041378817917
- 0.0
- 0.0
effort:
- 1.011357307434082
- -27.592134475708008
- -3.287822723388672
- 21.748517990112305
- 1.2323185205459595
- 0.7902987599372864
- 0.350533127784729
- 0.0
- 0.0
---
header:
  stamp:
    sec: 1756277280
    nanosec: 902421585
  frame_id: ''
name:
- fr3_joint1
- fr3_joint2
- fr3_joint3
- fr3_joint4
- fr3_joint5
- fr3_joint6
- fr3_joint7
- fr3_finger_joint1
- fr3_finger_joint2
position:
- 0.4209486871966808
- 0.17916345055645205
- -0.7979399214905428
- -1.7899021347348651
- 0.042897672123136756
- 1.2896314106372853
- -0.3155984307903238
- 0.0
- 0.0
velocity:
- 0.15532699980469059
- -0.027923035603097973
- 0.09564596093615445
- 0.04521407445215154
- 0.14805166231668332
- -0.027392401586831792
- 0.22793741457741382
- 0.0
- 0.0
effort:
- 0.34882068634033203
- -27.691316604614258
- -3.831340789794922
- 21.851667404174805
- 1.2259098291397095
- 0.7976229786872864
- 0.329475998878479
- 0.0
- 0.0
---
header:
  stamp:
    sec: 1756277280
    nanosec: 931510998
  frame_id: ''
name:
- fr3_joint1
- fr3_joint2
- fr3_joint3
- fr3_joint4
- fr3_joint5
- fr3_joint6
- fr3_joint7
- fr3_finger_joint1
- fr3_finger_joint2
position:
- 0.42638898430229677
- 0.17837189756087626
- -0.7948809732206468
- -1.7882451523418672
- 0.04798064005135213
- 1.2886586207451451
- -0.307803784634039
- 0.0
- 0.0
velocity:
- 0.16066995009379323
- -0.022384205092239186
- 0.08715157061464628
- 0.052271363950903336
- 0.14677215551065598
- -0.02809243949528061
- 0.24374104552168818
- 0.0
- 0.0
effort:
- 0.959782600402832
- -27.945222854614258
- -3.260051727294922
- 22.141279220581055
- 1.2579532861709595
- 0.8369906544685364
- 0.377083420753479
- 0.0
- 0.0
---
header:
  stamp:
    sec: 1756277280
    nanosec: 964824736
  frame_id: ''
name:
- fr3_joint1
- fr3_joint2
- fr3_joint3
- fr3_joint4
- fr3_joint5
- fr3_joint6
- fr3_joint7
- fr3_finger_joint1
- fr3_finger_joint2
position:
- 0.43169359102858634
- 0.17766331679374442
- -0.7922344505151429
- -1.7866153695301565
- 0.05259284884000855
- 1.2876544256631588
- -0.29935929117694615
- 0.0
- 0.0
velocity:
- 0.15527679027934319
- -0.02334726222123059
- 0.08727484649689031
- 0.0485179835913279
- 0.14621972053731916
- -0.030565174563106378
- 0.24452228466747927
- 0.0
- 0.0
effort:
- 0.884404182434082
- -27.972993850708008
- -3.260051727294922
- 21.982587814331055
- 1.3238712549209595
- 0.8369906544685364
- 0.384407639503479
- 0.0
- 0.0
---
header:
  stamp:
    sec: 1756277280
    nanosec: 998168618
  frame_id: ''
name:
- fr3_joint1
- fr3_joint2
- fr3_joint3
- fr3_joint4
- fr3_joint5
- fr3_joint6
- fr3_joint7
- fr3_finger_joint1
- fr3_finger_joint2
position:
- 0.4368248004286485
- 0.1768026680832588
- -0.78907336159053
- -1.7849765425717719
- 0.057643173578729195
- 1.2866159148901208
- -0.2915215188706518
- 0.0
- 0.0
velocity:
- 0.15543352067289923
- -0.024868596538054517
- 0.09211603067812735
- 0.05067545207599906
- 0.14951684410350105
- -0.03023306728455796
- 0.2381827340076758
- 0.0
- 0.0
effort:
- 0.935978889465332
- -28.048372268676758
- -3.287822723388672
- 22.085737228393555
- 1.3110538721084595
- 0.8177645802497864
- 0.384407639503479
- 0.0
- 0.0
---
header:
  stamp:
    sec: 1756277281
    nanosec: 31521795
  frame_id: ''
name:
- fr3_joint1
- fr3_joint2
- fr3_joint3
- fr3_joint4
- fr3_joint5
- fr3_joint6
- fr3_joint7
- fr3_finger_joint1
- fr3_finger_joint2
position:
- 0.4421676905972769
- 0.17596355378173115
- -0.7860501719396517
- -1.7832289753113688
- 0.06262681819493168
- 1.2855601155327916
- -0.28285502325705
- 0.0
- 0.0
velocity:
- 0.15880234515942515
- -0.025597076917390667
- 0.08767911277631928
- 0.053554752972190325
- 0.14575948932337263
- -0.03004573084953384
- 0.2647178531575735
- 0.0
- 0.0
effort:
- 1.011357307434082
- -27.893648147583008
- -3.184673309326172
- 22.113508224487305
- 1.3174625635147095
- 0.8443148732185364
- 0.410957932472229
- 0.0
- 0.0
---
header:
  stamp:
    sec: 1756277281
    nanosec: 65166004
  frame_id: ''
name:
- fr3_joint1
- fr3_joint2
- fr3_joint3
- fr3_joint4
- fr3_joint5
- fr3_joint6
- fr3_joint7
- fr3_finger_joint1
- fr3_finger_joint2
position:
- 0.44715750261128395
- 0.17519952790343293
- -0.783028389049696
- -1.7814416505189106
- 0.0676551512768522
- 1.2845553458938979
- -0.2753724621436847
- 0.0
- 0.0
velocity:
- 0.1481208059862602
- -0.025274987901818566
- 0.10093936303025561
- 0.054263442808566105
- 0.1525498864421605
- -0.032237994173016614
- 0.21245389871106496
- 0.0
- 0.0
effort:
- 0.29724597930908203
- -27.945222854614258
- -3.751995086669922
- 21.954816818237305
- 1.2652775049209595
- 0.8708651661872864
- 0.356941819190979
- 0.0
- 0.0
---
header:
  stamp:
    sec: 1756277281
    nanosec: 98152765
  frame_id: ''
name:
- fr3_joint1
- fr3_joint2
- fr3_joint3
- fr3_joint4
- fr3_joint5
- fr3_joint6
- fr3_joint7
- fr3_finger_joint1
- fr3_finger_joint2
position:
- 0.45257093414271216
- 0.1744413539525437
- -0.7799673928061508
- -1.779599491394614
- 0.07261143549323783
- 1.2836523456797975
- -0.2675703921627181
- 0.0
- 0.0
velocity:
- 0.16350377095301385
- -0.020763488902529527
- 0.08544527662152449
- 0.05396389817147923
- 0.14519075918931515
- -0.026250389362439196
- 0.2482028744970585
- 0.0
- 0.0
effort:
- 0.856633186340332
- -27.945222854614258
- -3.236248016357422
- 21.879438400268555
- 1.3632389307022095
- 0.8305819630622864
- 0.398140549659729
- 0.0
- 0.0
---
header:
  stamp:
    sec: 1756277281
    nanosec: 131460209
  frame_id: ''
name:
- fr3_joint1
- fr3_joint2
- fr3_joint3
- fr3_joint4
- fr3_joint5
- fr3_joint6
- fr3_joint7
- fr3_finger_joint1
- fr3_finger_joint2
position:
- 0.45798437044987594
- 0.17373086937436252
- -0.7771923269720487
- -1.7779522618716352
- 0.07743256981049176
- 1.2827119138193894
- -0.25882081828200526
- 0.0
- 0.0
velocity:
- 0.1499825585541815
- -0.02104598569037581
- 0.08902633187354847
- 0.04586597374591754
- 0.1431367093110586
- -0.028877250084180142
- 0.23941115852496592
- 0.0
- 0.0
effort:
- 1.035161018371582
- -27.742891311645508
- -2.875225067138672
- 21.669172286987305
- 1.3568302392959595
- 0.8040316700935364
- 0.329475998878479
- 0.0
- 0.0
---
header:
  stamp:
    sec: 1756277281
    nanosec: 165299267
  frame_id: ''
name:
- fr3_joint1
- fr3_joint2
- fr3_joint3
- fr3_joint4
- fr3_joint5
- fr3_joint6
- fr3_joint7
- fr3_finger_joint1
- fr3_finger_joint2
position:
- 0.4628117502084849
- 0.17309151307255685
- -0.774207308925558
- -1.7764978873017174
- 0.0821592365957453
- 1.281662648702226
- -0.2512768137050106
- 0.0
- 0.0
velocity:
- 0.1541146277970712
- -0.017066673353724502
- 0.08778353186616975
- 0.04406285310674089
- 0.1467381321194858
- -0.03338553315940698
- 0.244061743884486
- 0.0
- 0.0
effort:
- 1.011357307434082
- -27.996797561645508
- -2.926799774169922
- 21.879438400268555
- 1.3888736963272095
- 0.8369906544685364
- 0.343208909034729
- 0.0
- 0.0
---
header:
  stamp:
    sec: 1756277281
    nanosec: 198307081
  frame_id: ''
name:
- fr3_joint1
- fr3_joint2
- fr3_joint3
- fr3_joint4
- fr3_joint5
- fr3_joint6
- fr3_joint7
- fr3_finger_joint1
- fr3_finger_joint2
position:
- 0.4671012877586257
- 0.17266016990586552
- -0.7718357494537574
- -1.775297178237983
- 0.08622286550351951
- 1.2807019022736623
- -0.24408410488454896
- 0.0
- 0.0
velocity:
- 0.16267359267255996
- -0.013199553530622738
- 0.08107065370943642
- 0.045895572841814274
- 0.1478183965346855
- -0.03808572371039054
- 0.2574892840262841
- 0.0
- 0.0
effort:
- 1.162114143371582
- -28.151521682739258
- -2.819683074951172
- 22.141279220581055
- 1.3632389307022095
- 0.8910067677497864
- 0.404549241065979
- 0.0
- 0.0
---
header:
  stamp:
    sec: 1756277281
    nanosec: 231593345
  frame_id: ''
name:
- fr3_joint1
- fr3_joint2
- fr3_joint3
- fr3_joint4
- fr3_joint5
- fr3_joint6
- fr3_joint7
- fr3_finger_joint1
- fr3_finger_joint2
position:
- 0.4733964916227724
- 0.17213774084390224
- -0.7682826379742381
- -1.7734936029914004
- 0.09202552039851694
- 1.2794128764314714
- -0.23480701179592653
- 0.0
- 0.0
velocity:
- 0.15355072699559427
- -0.012585730930017419
- 0.09809492858925731
- 0.045341433892906416
- 0.14790267231899712
- -0.028048198891316784
- 0.22162214798680552
- 0.0
- 0.0
effort:
- 0.44800281524658203
- -28.480806350708008
- -3.494121551513672
- 22.010358810424805
- 1.3696476221084595
- 0.8305819630622864
- 0.363350510597229
- 0.0
- 0.0
---
header:
  stamp:
    sec: 1756277281
    nanosec: 264838853
  frame_id: ''
name:
- fr3_joint1
- fr3_joint2
- fr3_joint3
- fr3_joint4
- fr3_joint5
- fr3_joint6
- fr3_joint7
- fr3_finger_joint1
- fr3_finger_joint2
position:
- 0.4786875754965539
- 0.1717096890569658
- -0.7652759612117703
- -1.772038867634306
- 0.09690541541708542
- 1.2783955076086142
- -0.22701690438953356
- 0.0
- 0.0
velocity:
- 0.16203326459650763
- -0.011266609817249959
- 0.09050973629596444
- 0.04270400154240561
- 0.14566422623757275
- -0.03104966309475125
- 0.260612481483817
- 0.0
- 0.0
effort:
- 0.983586311340332
- -28.607759475708008
- -2.978374481201172
- 22.165082931518555
- 1.4090152978897095
- 0.8177645802497864
- 0.329475998878479
- 0.0
- 0.0
---
header:
  stamp:
    sec: 1756277281
    nanosec: 298456375
  frame_id: ''
name:
- fr3_joint1
- fr3_joint2
- fr3_joint3
- fr3_joint4
- fr3_joint5
- fr3_joint6
- fr3_joint7
- fr3_finger_joint1
- fr3_finger_joint2
position:
- 0.4841183852795984
- 0.17122468680491162
- -0.7622887337702385
- -1.770470281162754
- 0.10186521397767537
- 1.277340056049723
- -0.2183737475434632
- 0.0
- 0.0
velocity:
- 0.15109380550950666
- -0.013371340893033611
- 0.09206902912406896
- 0.05027549480443169
- 0.15101486281754364
- -0.02875329727517482
- 0.23062783771183204
- 0.0
- 0.0
effort:
- 1.035161018371582
- -28.710908889770508
- -2.899028778076172
- 22.244428634643555
- 1.4547916650772095
- 0.8708651661872864
- 0.316658616065979
- 0.0
- 0.0
---
header:
  stamp:
    sec: 1756277281
    nanosec: 331568685
  frame_id: ''
name:
- fr3_joint1
- fr3_joint2
- fr3_joint3
- fr3_joint4
- fr3_joint5
- fr3_joint6
- fr3_joint7
- fr3_finger_joint1
- fr3_finger_joint2
position:
- 0.48920341847766086
- 0.1706893545420819
- -0.7591881615430659
- -1.7687258932207313
- 0.10700453285522707
- 1.2763504363895797
- -0.2103751777148225
- 0.0
- 0.0
velocity:
- 0.15619642021115546
- -0.017109662244390506
- 0.09096370272369048
- 0.05229301035033011
- 0.15229579675021046
- -0.0285948166218614
- 0.24623134558142326
- 0.0
- 0.0
effort:
- 0.884404182434082
- -28.683137893676758
- -3.029949188232422
- 22.351545333862305
- 1.4026066064834595
- 0.8644564747810364
- 0.410957932472229
- 0.0
- 0.0
---
header:
  stamp:
    sec: 1756277281
    nanosec: 365236036
  frame_id: ''
name:
- fr3_joint1
- fr3_joint2
- fr3_joint3
- fr3_joint4
- fr3_joint5
- fr3_joint6
- fr3_joint7
- fr3_finger_joint1
- fr3_finger_joint2
position:
- 0.4944557389662205
- 0.17008740826701502
- -0.7563159337122123
- -1.7669466438280912
- 0.11197298580621072
- 1.2754270528308267
- -0.2019708277943552
- 0.0
- 0.0
velocity:
- 0.1665907429739409
- -0.021106925414918456
- 0.08615572287741799
- 0.05312177141515855
- 0.15260365604978932
- -0.028971053357929585
- 0.25147812840972184
- 0.0
- 0.0
effort:
- 0.805058479309082
- -28.631563186645508
- -3.053752899169922
- 22.165082931518555
- 1.3961979150772095
- 0.8507235646247864
- 0.370674729347229
- 0.0
- 0.0
---
header:
  stamp:
    sec: 1756277281
    nanosec: 398418324
  frame_id: ''
name:
- fr3_joint1
- fr3_joint2
- fr3_joint3
- fr3_joint4
- fr3_joint5
- fr3_joint6
- fr3_joint7
- fr3_finger_joint1
- fr3_finger_joint2
position:
- 0.4997851270088845
- 0.16933417397195297
- -0.7530342016374667
- -1.7651440430952519
- 0.1170904586623968
- 1.2744536463687004
- -0.1945756367167244
- 0.0
- 0.0
velocity:
- 0.1561932918649951
- -0.0231333668371025
- 0.10235573750435509
- 0.050661031010107244
- 0.1443877073824603
- -0.027042076925769473
- 0.2201966703248819
- 0.0
- 0.0
effort:
- -0.008234977722167969
- -28.607759475708008
- -3.728191375732422
- 21.748517990112305
- 1.3366886377334595
- 0.8708651661872864
- 0.390816330909729
- 0.0
- 0.0
---
header:
  stamp:
    sec: 1756277281
    nanosec: 431593722
  frame_id: ''
name:
- fr3_joint1
- fr3_joint2
- fr3_joint3
- fr3_joint4
- fr3_joint5
- fr3_joint6
- fr3_joint7
- fr3_finger_joint1
- fr3_finger_joint2
position:
- 0.5051697342457089
- 0.16852088118092357
- -0.7498618048044127
- -1.76355109903214
- 0.1218472759536798
- 1.2735482226855501
- -0.18627814955128372
- 0.0
- 0.0
velocity:
- 0.16127503226747586
- -0.022748299065238193
- 0.08796672251760522
- 0.04576832248729474
- 0.145299391554525
- -0.028914601272039722
- 0.2652609173336715
- 0.0
- 0.0
effort:
- 0.935978889465332
- -28.683137893676758
- -2.950603485107422
- 22.085737228393555
- 1.4282413721084595
- 0.7976229786872864
- 0.363350510597229
- 0.0
- 0.0
---
header:
  stamp:
    sec: 1756277281
    nanosec: 464812669
  frame_id: ''
name:
- fr3_joint1
- fr3_joint2
- fr3_joint3
- fr3_joint4
- fr3_joint5
- fr3_joint6
- fr3_joint7
- fr3_finger_joint1
- fr3_finger_joint2
position:
- 0.5103121756018991
- 0.16784182166384037
- -0.7471718578691483
- -1.7619879442971578
- 0.12656503455294058
- 1.272545622200394
- -0.17823397553976622
- 0.0
- 0.0
velocity:
- 0.14887973491893777
- -0.021198104352692954
- 0.08864069262790601
- 0.049699918434552966
- 0.14091951113153933
- -0.030363520036315476
- 0.2263810640970028
- 0.0
- 0.0
effort:
- 0.983586311340332
- -28.631563186645508
- -2.744304656982422
- 22.272199630737305
- 1.4740177392959595
- 0.8836825489997864
- 0.316658616065979
- 0.0
- 0.0
---
header:
  stamp:
    sec: 1756277281
    nanosec: 498426352
  frame_id: ''
name:
- fr3_joint1
- fr3_joint2
- fr3_joint3
- fr3_joint4
- fr3_joint5
- fr3_joint6
- fr3_joint7
- fr3_finger_joint1
- fr3_finger_joint2
position:
- 0.5154086413273731
- 0.16719153115373508
- -0.7441426911724459
- -1.7602008736897614
- 0.1314562469409079
- 1.2715827499921566
- -0.17007785906987888
- 0.0
- 0.0
velocity:
- 0.15772619331317236
- -0.019749338585069685
- 0.08047938785406558
- 0.048344698621035326
- 0.14800087192866773
- -0.027342977682420604
- 0.26003195027630677
- 0.0
- 0.0
effort:
- 0.757451057434082
- -28.734712600708008
- -2.950603485107422
- 22.085737228393555
- 1.5005680322647095
- 0.8644564747810364
- 0.384407639503479
- 0.0
- 0.0
---
header:
  stamp:
    sec: 1756277281
    nanosec: 531391032
  frame_id: ''
name:
- fr3_joint1
- fr3_joint2
- fr3_joint3
- fr3_joint4
- fr3_joint5
- fr3_joint6
- fr3_joint7
- fr3_finger_joint1
- fr3_finger_joint2
position:
- 0.5207836756121987
- 0.16653293446966574
- -0.7413092724523195
- -1.7585182718934451
- 0.136533859299079
- 1.2706861404524883
- -0.16150981349679613
- 0.0
- 0.0
velocity:
- 0.16337746997554786
- -0.019711955706192715
- 0.08407895828016823
- 0.04824181688553099
- 0.14959364072956585
- -0.025008362472349832
- 0.24264325679910914
- 0.0
- 0.0
effort:
- 0.678105354309082
- -28.913240432739258
- -3.081523895263672
- 22.113508224487305
- 1.4282413721084595
- 0.8507235646247864
- 0.350533127784729
- 0.0
- 0.0
---
header:
  stamp:
    sec: 1756277281
    nanosec: 565199148
  frame_id: ''
name:
- fr3_joint1
- fr3_joint2
- fr3_joint3
- fr3_joint4
- fr3_joint5
- fr3_joint6
- fr3_joint7
- fr3_finger_joint1
- fr3_finger_joint2
position:
- 0.5258575873471262
- 0.16587410180144913
- -0.7382598526323226
- -1.75687215356831
- 0.14126809137834598
- 1.2697889905722906
- -0.15427332581254538
- 0.0
- 0.0
velocity:
- 0.1517929698936456
- -0.020261906503003507
- 0.1011653936483447
- 0.05313817601357765
- 0.14779521475700025
- -0.02755953913914893
- 0.2241546417588473
- 0.0
- 0.0
effort:
- 0.37262439727783203
- -29.040193557739258
- -3.339397430419922
- 22.192853927612305
- 1.4612003564834595
- 0.8974154591560364
- 0.424690842628479
- 0.0
- 0.0
---
header:
  stamp:
    sec: 1756277281
    nanosec: 598129516
  frame_id: ''
name:
- fr3_joint1
- fr3_joint2
- fr3_joint3
- fr3_joint4
- fr3_joint5
- fr3_joint6
- fr3_joint7
- fr3_finger_joint1
- fr3_finger_joint2
position:
- 0.531191038699446
- 0.16513660615311165
- -0.7351090638407194
- -1.755135422077304
- 0.1464351914054219
- 1.2689185734482176
- -0.14568253220031918
- 0.0
- 0.0
velocity:
- 0.15952384285245172
- -0.023173878454683907
- 0.08488225345560868
- 0.050968668605410876
- 0.1484524379987727
- -0.026917498022711
- 0.2760982828447388
- 0.0
- 0.0
effort:
- 0.908207893371582
- -29.016389846801758
- -2.795879364013672
- 22.192853927612305
- 1.5133854150772095
- 0.8644564747810364
- 0.302925705909729
- 0.0
- 0.0
---
header:
  stamp:
    sec: 1756277281
    nanosec: 631536856
  frame_id: ''
name:
- fr3_joint1
- fr3_joint2
- fr3_joint3
- fr3_joint4
- fr3_joint5
- fr3_joint6
- fr3_joint7
- fr3_finger_joint1
- fr3_finger_joint2
position:
- 0.5365993689379892
- 0.16431391062812384
- -0.7323000277104121
- -1.7534626998029526
- 0.15128211749766826
- 1.2680104253025937
- -0.13750943610415442
- 0.0
- 0.0
velocity:
- 0.1551809623624771
- -0.025753828850546147
- 0.08480194582186391
- 0.05111470997010861
- 0.14292518392239478
- -0.027261482791236972
- 0.23332672649828295
- 0.0
- 0.0
effort:
- 0.856633186340332
- -29.040193557739258
- -2.768108367919922
- 22.165082931518555
- 1.5527530908584595
- 0.8772738575935364
- 0.384407639503479
- 0.0
- 0.0
---
header:
  stamp:
    sec: 1756277281
    nanosec: 664784376
  frame_id: ''
name:
- fr3_joint1
- fr3_joint2
- fr3_joint3
- fr3_joint4
- fr3_joint5
- fr3_joint6
- fr3_joint7
- fr3_finger_joint1
- fr3_finger_joint2
position:
- 0.5415780934237692
- 0.1634526278372485
- -0.729331563768199
- -1.7518462131929962
- 0.15612636445575892
- 1.2671548163312034
- -0.12952896365417832
- 0.0
- 0.0
velocity:
- 0.15935357648985407
- -0.027756129137482096
- 0.08907719024273772
- 0.04639457878257256
- 0.14943082336461408
- -0.026769094822518612
- 0.2534479364914471
- 0.0
- 0.0
effort:
- 0.805058479309082
- -28.885469436645508
- -2.847454071044922
- 21.903242111206055
- 1.5069767236709595
- 0.8241732716560364
- 0.370674729347229
- 0.0
- 0.0
---
header:
  stamp:
    sec: 1756277281
    nanosec: 698214779
  frame_id: ''
name:
- fr3_joint1
- fr3_joint2
- fr3_joint3
- fr3_joint4
- fr3_joint5
- fr3_joint6
- fr3_joint7
- fr3_finger_joint1
- fr3_finger_joint2
position:
- 0.5470097791608519
- 0.16257778865630657
- -0.7263835227091487
- -1.7502999254331333
- 0.16104888370159562
- 1.2662031093228596
- -0.12109491159364924
- 0.0
- 0.0
velocity:
- 0.16512997770863266
- -0.024929685159643514
- 0.08344110834646812
- 0.04421154321521009
- 0.1481014892104152
- -0.028200002088451904
- 0.22751472043873144
- 0.0
- 0.0
effort:
- 0.705876350402832
- -28.758516311645508
- -2.875225067138672
- 22.165082931518555
- 1.5197941064834595
- 0.9239657521247864
- 0.343208909034729
- 0.0
- 0.0
---
header:
  stamp:
    sec: 1756277281
    nanosec: 731573800
  frame_id: ''
name:
- fr3_joint1
- fr3_joint2
- fr3_joint3
- fr3_joint4
- fr3_joint5
- fr3_joint6
- fr3_joint7
- fr3_finger_joint1
- fr3_finger_joint2
position:
- 0.5521004673656946
- 0.16184047297408136
- -0.7231120290274712
- -1.7486833759398672
- 0.16601140214020085
- 1.2651756870902664
- -0.11371400793669609
- 0.0
- 0.0
velocity:
- 0.14888467246187415
- -0.018838712788544477
- 0.10091861333848434
- 0.048691494996851374
- 0.14403923560587684
- -0.03087427029517862
- 0.2416303245821254
- 0.0
- 0.0
effort:
- 0.26947498321533203
- -28.964815139770508
- -3.260051727294922
- 22.010358810424805
- 1.5271183252334595
- 0.8708651661872864
- 0.343208909034729
- 0.0
- 0.0
---
header:
  stamp:
    sec: 1756277281
    nanosec: 764774797
  frame_id: ''
name:
- fr3_joint1
- fr3_joint2
- fr3_joint3
- fr3_joint4
- fr3_joint5
- fr3_joint6
- fr3_joint7
- fr3_finger_joint1
- fr3_finger_joint2
position:
- 0.5572022804670412
- 0.16125431861855014
- -0.7201509332085325
- -1.7471264719503254
- 0.17072578640235367
- 1.2642631233988508
- -0.10525914365510154
- 0.0
- 0.0
velocity:
- 0.1580468807216804
- -0.0167896875431618
- 0.08589541053661164
- 0.04533870575716462
- 0.14510273752758954
- -0.0250870200411353
- 0.26522259480157784
- 0.0
- 0.0
effort:
- 1.011357307434082
- -29.167146682739258
- -2.664958953857422
- 22.192853927612305
- 1.5921207666397095
- 0.8443148732185364
- 0.410957932472229
- 0.0
- 0.0
---
header:
  stamp:
    sec: 1756277281
    nanosec: 798464800
  frame_id: ''
name:
- fr3_joint1
- fr3_joint2
- fr3_joint3
- fr3_joint4
- fr3_joint5
- fr3_joint6
- fr3_joint7
- fr3_finger_joint1
- fr3_finger_joint2
position:
- 0.5626730089510676
- 0.16069846653120584
- -0.7174829093268362
- -1.7456365273886667
- 0.1757326848129058
- 1.2632147472471944
- -0.09715794460708602
- 0.0
- 0.0
velocity:
- 0.15563213993578373
- -0.012305231540874447
- 0.0831935389857024
- 0.04475714015702606
