header:
  stamp:
    sec: 1756279858
    nanosec: 759701449
  frame_id: ''
name:
- fr3_joint1
- fr3_joint2
- fr3_joint3
- fr3_joint4
- fr3_joint5
- fr3_joint6
- fr3_joint7
- fr3_finger_joint1
- fr3_finger_joint2
position:
- 0.1121959372069427
- 0.1311658832946046
- -0.08670520465080832
- -1.780603316656739
- 0.024910607118258335
- 1.924252617619186
- 0.013781729705265464
- 0.0
- 0.0
velocity:
- 0.1468048710568691
- -0.01733276529638972
- -0.14151316378933332
- 0.06606557284220343
- 0.19664134329608432
- 0.10704427322817295
- -0.08474720449446796
- 0.0
- 0.0
effort:
- 0.757451057434082
- -37.661102294921875
- -0.2092093825340271
- 24.577192306518555
- 1.4419742822647095
- 2.6167757511138916
- -0.1310342401266098
- 0.0
- 0.0
---
header:
  stamp:
    sec: 1756279858
    nanosec: 793635628
  frame_id: ''
name:
- fr3_joint1
- fr3_joint2
- fr3_joint3
- fr3_joint4
- fr3_joint5
- fr3_joint6
- fr3_joint7
- fr3_finger_joint1
- fr3_finger_joint2
position:
- 0.11743639983994852
- 0.13032983459050368
- -0.09167326926128647
- -1.778074668219228
- 0.03206059399049716
- 1.9286745838658559
- 0.010491495503240108
- 0.0
- 0.0
velocity:
- 0.14973123049384743
- -0.034916783242366335
- -0.13841682527050733
- 0.07674599647987682
- 0.21755880355060409
- 0.1406939265490921
- -0.10971234084230691
- 0.0
- 0.0
effort:
- 1.062932014465332
- -37.788055419921875
- -0.0544852614402771
- 24.156660079956055
- 1.4154239892959595
- 2.5362093448638916
- -0.029410704970359802
- 0.0
- 0.0
---
header:
  stamp:
    sec: 1756279858
    nanosec: 826687780
  frame_id: ''
name:
- fr3_joint1
- fr3_joint2
- fr3_joint3
- fr3_joint4
- fr3_joint5
- fr3_joint6
- fr3_joint7
- fr3_finger_joint1
- fr3_finger_joint2
position:
- 0.12251502801748396
- 0.1288891429132161
- -0.09625519021136603
- -1.775387061409314
- 0.0391574062053812
- 1.9336192867190234
- 0.0070013715551948226
- 0.0
- 0.0
velocity:
- 0.15410364537089738
- -0.048273375535197345
- -0.1390897181305065
- 0.08230067107893457
- 0.1961644517954993
- 0.1472999157749335
- -0.11428325474560698
- 0.0
- 0.0
effort:
- 0.884404182434082
- -37.609527587890625
- -0.2607840895652771
- 24.366926193237305
- 1.4355655908584595
- 2.5966341495513916
- -0.0495523065328598
- 0.0
- 0.0
---
header:
  stamp:
    sec: 1756279858
    nanosec: 859848529
  frame_id: ''
name:
- fr3_joint1
- fr3_joint2
- fr3_joint3
- fr3_joint4
- fr3_joint5
- fr3_joint6
- fr3_joint7
- fr3_finger_joint1
- fr3_finger_joint2
position:
- 0.1278611412945149
- 0.1269073237833204
- -0.10104306123129299
- -1.7725177849084726
- 0.04591053491510055
- 1.9384274444536205
- 0.0027922334700588155
- 0.0
- 0.0
velocity:
- 0.1655849632111375
- -0.06658492339716966
- -0.14526691215518062
- 0.0799852512515607
- 0.21270825655809578
- 0.14039542308382383
- -0.13339895782666747
- 0.0
- 0.0
effort:
- 0.832829475402832
- -37.458770751953125
- -0.2607840895652771
- 24.236005783081055
- 1.4154239892959595
- 2.5499422550201416
- -0.1447671502828598
- 0.0
- 0.0
---
header:
  stamp:
    sec: 1756279858
    nanosec: 893617548
  frame_id: ''
name:
- fr3_joint1
- fr3_joint2
- fr3_joint3
- fr3_joint4
- fr3_joint5
- fr3_joint6
- fr3_joint7
- fr3_finger_joint1
- fr3_finger_joint2
position:
- 0.13293335224442926
- 0.1244430228967991
- -0.10533429208868766
- -1.7696457500051876
- 0.05262982372363973
- 1.9426008435657254
- -0.0016361923629471906
- 0.0
- 0.0
velocity:
- 0.15270329384947284
- -0.07838781258353936
- -0.12264234744250688
- 0.0933298481879755
- 0.20433333490188563
- 0.1260434997113773
- -0.1295386593532931
- 0.0
- 0.0
effort:
- 0.17029285430908203
- -36.974761962890625
- -0.9867972731590271
- 24.025739669799805
- 1.3696476221084595
- 2.5563509464263916
- -0.0632852166891098
- 0.0
- 0.0
---
header:
  stamp:
    sec: 1756279858
    nanosec: 926437282
  frame_id: ''
name:
- fr3_joint1
- fr3_joint2
- fr3_joint3
- fr3_joint4
- fr3_joint5
- fr3_joint6
- fr3_joint7
- fr3_finger_joint1
- fr3_finger_joint2
position:
- 0.13838337284577923
- 0.12170048080914779
- -0.10988775156395361
- -1.7662505014050396
- 0.059737488554475485
- 1.9470821190857817
- -0.005570873323427898
- 0.0
- 0.0
velocity:
- 0.16256055071588224
- -0.082129102443514
- -0.14504804689287165
- 0.10489395394794972
- 0.20521825970091268
- 0.13638538368409675
- -0.11351614397117422
- 0.0
- 0.0
effort:
- 0.805058479309082
- -35.574310302734375
- -0.4432792067527771
- 23.371137619018555
- 1.4218326807022095
- 2.4968416690826416
- -0.0770181268453598
- 0.0
- 0.0
---
header:
  stamp:
    sec: 1756279858
    nanosec: 959939385
  frame_id: ''
name:
- fr3_joint1
- fr3_joint2
- fr3_joint3
- fr3_joint4
- fr3_joint5
- fr3_joint6
- fr3_joint7
- fr3_finger_joint1
- fr3_finger_joint2
position:
- 0.14387847984287025
- 0.11895877895334432
- -0.11487464710702573
- -1.7628792291952646
- 0.0668984791766173
- 1.952207375535061
- -0.009386250210147785
- 0.0
- 0.0
velocity:
- 0.15546957831760588
- -0.08070926903028185
- -0.14019612507423523
- 0.09693474866679429
- 0.21669419923624306
- 0.15462663893034606
- -0.12001583514462615
- 0.0
- 0.0
effort:
- 0.729680061340332
- -34.991119384765625
- -0.4155082106590271
- 23.581403732299805
- 1.4547916650772095
- 2.5032503604888916
- -0.0358193963766098
- 0.0
- 0.0
---
header:
  stamp:
    sec: 1756279858
    nanosec: 993664684
  frame_id: ''
name:
- fr3_joint1
- fr3_joint2
- fr3_joint3
- fr3_joint4
- fr3_joint5
- fr3_joint6
- fr3_joint7
- fr3_finger_joint1
- fr3_finger_joint2
position:
- 0.14886509752089255
- 0.11654334824818187
- -0.11917785357065436
- -1.75960866856681
- 0.07367186445361662
- 1.9567075947035302
- -0.013014294286888375
- 0.0
- 0.0
velocity:
- 0.15943082454698804
- -0.07129357167216105
- -0.13772360364432776
- 0.09408070687423449
- 0.2082920423895597
- 0.13985802032919756
- -0.11137371008654447
- 0.0
- 0.0
effort:
- 0.626530647277832
- -35.042694091796875
- -0.5702323317527771
- 23.109296798706055
- 1.4154239892959595
- 2.4629671573638916
- -0.1173013299703598
- 0.0
- 0.0
---
header:
  stamp:
    sec: 1756279859
    nanosec: 26432520
  frame_id: ''
name:
- fr3_joint1
- fr3_joint2
- fr3_joint3
- fr3_joint4
- fr3_joint5
- fr3_joint6
- fr3_joint7
- fr3_finger_joint1
- fr3_finger_joint2
position:
- 0.15428733549533508
- 0.11430485084839782
- -0.12393683403518752
- -1.756465385990676
- 0.08048395694028247
- 1.961020944416372
- -0.017172794711015574
- 0.0
- 0.0
velocity:
- 0.15731479032487738
- -0.06335453721725257
- -0.1421095905378181
- 0.09016964948787833
- 0.19789737872326515
- 0.12351721738910444
- -0.13184584494647913
- 0.0
- 0.0
effort:
- 0.856633186340332
- -35.221221923828125
- -0.4155082106590271
- 23.240217208862305
- 1.3888736963272095
- 2.5362093448638916
- -0.1447671502828598
- 0.0
- 0.0
---
header:
  stamp:
    sec: 1756279859
    nanosec: 59830638
  frame_id: ''
name:
- fr3_joint1
- fr3_joint2
- fr3_joint3
- fr3_joint4
- fr3_joint5
- fr3_joint6
- fr3_joint7
- fr3_finger_joint1
- fr3_finger_joint2
position:
- 0.15949547627280547
- 0.11220354140940758
- -0.128635024883861
- -1.7535598078991173
- 0.08737948616050395
- 1.965534299811449
- -0.02157553539101919
- 0.0
- 0.0
velocity:
- 0.1525362268825414
- -0.06119070629157637
- -0.13030023378195973
- 0.0849970824698959
- 0.20842832698380076
- 0.13217579921728395
- -0.1210971580989501
- 0.0
- 0.0
effort:
- 0.24567127227783203
- -35.296600341796875
- -1.0621757507324219
- 23.291791915893555
- 1.4547916650772095
- 2.5233919620513916
- -0.1108926385641098
- 0.0
- 0.0
---
header:
  stamp:
    sec: 1756279859
    nanosec: 93689864
  frame_id: ''
name:
- fr3_joint1
- fr3_joint2
- fr3_joint3
- fr3_joint4
- fr3_joint5
- fr3_joint6
- fr3_joint7
- fr3_finger_joint1
- fr3_finger_joint2
position:
- 0.16466861348329112
- 0.11029181170177665
- -0.1331215008385168
- -1.7509516197856103
- 0.0941636431328249
- 1.9699612834437403
- -0.025146782069754882
- 0.0
- 0.0
velocity:
- 0.15992017583628387
- -0.0580266783684549
- -0.14293820708796978
- 0.07684361864608398
- 0.2088234725161763
- 0.141512936072945
- -0.1067101561129667
- 0.0
- 0.0
effort:
- 0.781254768371582
- -34.991119384765625
- -0.4948539137840271
- 23.450483322143555
- 1.4218326807022095
- 2.6295931339263916
- -0.1511758416891098
- 0.0
- 0.0
---
header:
  stamp:
    sec: 1756279859
    nanosec: 126437975
  frame_id: ''
name:
- fr3_joint1
- fr3_joint2
- fr3_joint3
- fr3_joint4
- fr3_joint5
- fr3_joint6
- fr3_joint7
- fr3_finger_joint1
- fr3_finger_joint2
position:
- 0.1699780963504603
- 0.10852561590048335
- -0.13810926293200185
- -1.7483789095404252
- 0.10106215031570101
- 1.9748182954281412
- -0.028646041489053246
- 0.0
- 0.0
velocity:
- 0.1522176469622669
- -0.04640002958998469
- -0.14558144143132049
- 0.07938281492939536
- 0.20769822062988003
- 0.13619853421646902
- -0.10980098373566353
- 0.0
- 0.0
effort:
- 0.705876350402832
- -34.963348388671875
- -0.5980033278465271
- 23.502058029174805
- 1.4355655908584595
- 2.5829012393951416
- -0.1713174432516098
- 0.0
- 0.0
---
header:
  stamp:
    sec: 1756279859
    nanosec: 159851189
  frame_id: ''
name:
- fr3_joint1
- fr3_joint2
- fr3_joint3
- fr3_joint4
- fr3_joint5
- fr3_joint6
- fr3_joint7
- fr3_finger_joint1
- fr3_finger_joint2
position:
- 0.17521876504637415
- 0.10704756564869679
- -0.14294032166932447
- -1.7456761550790951
- 0.10824869286979202
- 1.979319089344794
- -0.032367396239223994
- 0.0
- 0.0
velocity:
- 0.16135463512182316
- -0.040852624237449835
- -0.14136669039260574
- 0.07932096918454944
- 0.2069372624990052
- 0.12846993672083115
- -0.12301994953851246
- 0.0
- 0.0
effort:
- 0.626530647277832
- -35.221221923828125
- -0.7249564528465271
- 23.422712326049805
- 1.4355655908584595
- 2.5435335636138916
- -0.0971597284078598
- 0.0
- 0.0
---
header:
  stamp:
    sec: 1756279859
    nanosec: 193761261
  frame_id: ''
name:
- fr3_joint1
- fr3_joint2
- fr3_joint3
- fr3_joint4
- fr3_joint5
- fr3_joint6
- fr3_joint7
- fr3_finger_joint1
- fr3_finger_joint2
position:
- 0.1804036346342236
- 0.10575023756291789
- -0.14749803699410408
- -1.7430464345423002
- 0.11506514653165319
- 1.9834858599717615
- -0.03652050133371072
- 0.0
- 0.0
velocity:
- 0.1642809008028011
- -0.03989806458716971
- -0.1469276256664169
- 0.08274730126444359
- 0.21010072956839043
- 0.1301232356481661
- -0.132663065603835
- 0.0
- 0.0
effort:
- 0.705876350402832
- -35.475128173828125
- -0.7011527419090271
- 23.581403732299805
- 1.3632389307022095
- 2.5829012393951416
- -0.1511758416891098
- 0.0
- 0.0
---
header:
  stamp:
    sec: 1756279859
    nanosec: 226813986
  frame_id: ''
name:
- fr3_joint1
- fr3_joint2
- fr3_joint3
- fr3_joint4
- fr3_joint5
- fr3_joint6
- fr3_joint7
- fr3_finger_joint1
- fr3_finger_joint2
position:
- 0.18546680560549636
- 0.10438046749825222
- -0.15212546773017036
- -1.7402506316322162
- 0.12168045431455198
- 1.9878599760940356
- -0.04107573246456982
- 0.0
- 0.0
velocity:
- 0.15138710046961337
- -0.041210692166613515
- -0.1362263806776153
- 0.0825823314707152
- 0.20119758204155672
- 0.12972982269418523
- -0.13216468917361934
- 0.0
- 0.0
effort:
- 0.09491443634033203
- -35.625885009765625
- -1.2168998718261719
- 23.922590255737305
- 1.4154239892959595
- 2.6360018253326416
- -0.1987832635641098
- 0.0
- 0.0
---
header:
  stamp:
    sec: 1756279859
    nanosec: 259784488
  frame_id: ''
name:
- fr3_joint1
- fr3_joint2
- fr3_joint3
- fr3_joint4
- fr3_joint5
- fr3_joint6
- fr3_joint7
- fr3_finger_joint1
- fr3_finger_joint2
position:
- 0.19065766689082858
- 0.10284104290611111
- -0.15670859195035808
- -1.7376394773078048
- 0.1284812385387806
- 1.992346191207317
- -0.044944719948064385
- 0.0
- 0.0
velocity:
- 0.16113609962342273
- -0.05078358171747238
- -0.14682955073001477
- 0.07969876691736123
- 0.20471081416908818
- 0.13368990266149522
- -0.10524122245924211
- 0.0
- 0.0
effort:
- 0.805058479309082
- -35.625885009765625
- -0.5464286208152771
- 23.974164962768555
- 1.4419742822647095
- 2.6497347354888916
- -0.2262490838766098
- 0.0
- 0.0
---
header:
  stamp:
    sec: 1756279859
    nanosec: 293087545
  frame_id: ''
name:
- fr3_joint1
- fr3_joint2
- fr3_joint3
- fr3_joint4
- fr3_joint5
- fr3_joint6
- fr3_joint7
- fr3_finger_joint1
- fr3_finger_joint2
position:
- 0.19600142249635807
- 0.10112436527535436
- -0.16163983630992731
- -1.734897832338227
- 0.13548109860161509
- 1.9967149658966128
- -0.048372989057212636
- 0.0
- 0.0
velocity:
- 0.1502541748818776
- -0.05172760310377224
- -0.14286008524773897
- 0.0833900866529728
- 0.2091123113200316
- 0.1309855044889721
- -0.10255379738926955
- 0.0
- 0.0
effort:
- 0.935978889465332
- -35.931365966796875
- -0.5186576247215271
- 24.001935958862305
- 1.5133854150772095
- 2.6497347354888916
- -0.2125161737203598
- 0.0
- 0.0
---
header:
  stamp:
    sec: 1756279859
    nanosec: 326710409
  frame_id: ''
name:
- fr3_joint1
- fr3_joint2
- fr3_joint3
- fr3_joint4
- fr3_joint5
- fr3_joint6
- fr3_joint7
- fr3_finger_joint1
- fr3_finger_joint2
position:
- 0.201112746420424
- 0.0992168047482235
- -0.1663697414462921
- -1.7320991194589155
- 0.1423446583871493
- 2.0007841637874497
- -0.0520600949664214
- 0.0
- 0.0
velocity:
- 0.1582681723624177
- -0.06054921770850265
- -0.14435253399223677
- 0.08104357709741432
- 0.2119405660620159
- 0.11831064993467198
- -0.11337627450840466
- 0.0
- 0.0
effort:
- 0.705876350402832
- -35.804412841796875
- -0.5980033278465271
- 24.001935958862305
- 1.5069767236709595
- 2.6497347354888916
- -0.1786416620016098
- 0.0
- 0.0
---
header:
  stamp:
    sec: 1756279859
    nanosec: 359909359
  frame_id: ''
name:
- fr3_joint1
- fr3_joint2
- fr3_joint3
- fr3_joint4
- fr3_joint5
- fr3_joint6
- fr3_joint7
- fr3_finger_joint1
- fr3_finger_joint2
position:
- 0.20663884110174507
- 0.09715821889313053
- -0.17112661505715596
- -1.7292497728089762
- 0.14950362843022594
- 2.0051323733471307
- -0.05625570212577238
- 0.0
- 0.0
velocity:
- 0.16290465019300757
- -0.05866954655158484
- -0.14144324663600552
- 0.08746271592930982
- 0.20467164756709022
- 0.13517104019761214
- -0.1300650503913741
- 0.0
- 0.0
effort:
- 0.757451057434082
- -35.498931884765625
- -0.7011527419090271
- 24.077314376831055
- 1.4877506494522095
- 2.6561434268951416
- -0.1649087518453598
- 0.0
- 0.0
---
header:
  stamp:
    sec: 1756279859
    nanosec: 393054952
  frame_id: ''
name:
- fr3_joint1
- fr3_joint2
- fr3_joint3
- fr3_joint4
- fr3_joint5
- fr3_joint6
- fr3_joint7
- fr3_finger_joint1
- fr3_finger_joint2
position:
- 0.211699519469089
- 0.09515783172377992
- -0.17544879683592446
- -1.7263118654491347
- 0.1562500197076098
- 2.0097222743903878
- -0.060240746520556505
- 0.0
- 0.0
velocity:
- 0.1497790158846817
- -0.06056533411069748
- -0.128055416543793
- 0.08945633501608352
- 0.20489574107455896
- 0.1519524118754974
- -0.11226689913526054
- 0.0
- 0.0
effort:
- 0.47577381134033203
- -34.887969970703125
- -0.9867972731590271
- 23.712324142456055
- 1.4941593408584595
- 2.6497347354888916
- -0.2189248651266098
- 0.0
- 0.0
---
header:
  stamp:
    sec: 1756279859
    nanosec: 426469791
  frame_id: ''
name:
- fr3_joint1
- fr3_joint2
- fr3_joint3
- fr3_joint4
- fr3_joint5
- fr3_joint6
- fr3_joint7
- fr3_finger_joint1
- fr3_finger_joint2
position:
- 0.21706937949801458
- 0.09302644494669633
- -0.18018195185829905
- -1.7234825386822525
- 0.16302778735892542
- 2.0147869679544876
- -0.0640001724013959
- 0.0
- 0.0
velocity:
- 0.16164379818438002
- -0.060501802039614326
- -0.14651448884999477
- 0.08079752264913022
- 0.2047166781369223
- 0.1445783252465509
- -0.1143108767323669
- 0.0
- 0.0
effort:
- 0.884404182434082
- -34.534881591796875
- -0.4670829176902771
- 23.632978439331055
- 1.5335270166397095
- 2.5829012393951416
- -0.1850503534078598
- 0.0
- 0.0
---
header:
  stamp:
    sec: 1756279859
    nanosec: 459866815
  frame_id: ''
name:
- fr3_joint1
- fr3_joint2
- fr3_joint3
- fr3_joint4
- fr3_joint5
- fr3_joint6
- fr3_joint7
- fr3_finger_joint1
- fr3_finger_joint2
position:
- 0.22243598388432834
- 0.09104539324974283
- -0.18506754883585078
- -1.7206232106559305
- 0.16995061975669715
- 2.0193001325483464
- -0.06765374140120262
- 0.0
- 0.0
velocity:
- 0.15264464796034502
- -0.055976382297892466
- -0.13773346748136178
- 0.0823957869327163
- 0.20590970531166167
- 0.1320245464092408
- -0.10893825593928955
- 0.0
- 0.0
effort:
- 0.805058479309082
- -34.634063720703125
- -0.5464286208152771
- 23.660749435424805
- 1.5133854150772095
- 2.6231844425201416
- -0.2390664666891098
- 0.0
- 0.0
---
header:
  stamp:
    sec: 1756279859
    nanosec: 493652288
  frame_id: ''
name:
- fr3_joint1
- fr3_joint2
- fr3_joint3
- fr3_joint4
- fr3_joint5
- fr3_joint6
- fr3_joint7
- fr3_finger_joint1
- fr3_finger_joint2
position:
- 0.22737492839772497
- 0.0892102067947476
- -0.18957537961407608
- -1.7179384320093798
- 0.17676784024507902
- 2.0234944752134054
- -0.07123254299698882
- 0.0
- 0.0
velocity:
- 0.15628089291127087
- -0.05196611197035687
- -0.14544945618816274
- 0.08713481511195308
- 0.20406774720921025
- 0.1291853664133467
- -0.11610301573159258
- 0.0
- 0.0
effort:
- 0.781254768371582
- -34.610260009765625
- -0.5980033278465271
- 24.105085372924805
- 1.4877506494522095
- 2.7165682315826416
- -0.2326577752828598
- 0.0
- 0.0
---
header:
  stamp:
    sec: 1756279859
    nanosec: 526417886
  frame_id: ''
name:
- fr3_joint1
- fr3_joint2
- fr3_joint3
- fr3_joint4
- fr3_joint5
- fr3_joint6
- fr3_joint7
- fr3_finger_joint1
- fr3_finger_joint2
position:
- 0.23287092062823314
- 0.08743444322149
- -0.19449331926360383
- -1.7150021002606326
- 0.18382546759263754
- 2.0280223033318387
- -0.07572455546640036
- 0.0
- 0.0
velocity:
- 0.16691672469256658
- -0.05410899926214565
- -0.1449263921658903
- 0.08570787328946936
- 0.20947451945482531
- 0.14170391069626048
- -0.14271740212164147
- 0.0
- 0.0
effort:
- 0.578923225402832
- -34.836395263671875
- -0.8558768630027771
- 23.791669845581055
- 1.5069767236709595
- 2.7028353214263916
- -0.2463906854391098
- 0.0
- 0.0
---
header:
  stamp:
    sec: 1756279859
    nanosec: 559987617
  frame_id: ''
name:
- fr3_joint1
- fr3_joint2
- fr3_joint3
- fr3_joint4
- fr3_joint5
- fr3_joint6
- fr3_joint7
- fr3_finger_joint1
- fr3_finger_joint2
position:
- 0.238053287595201
- 0.08546721979957281
- -0.19890993319251538
- -1.7122267518186516
- 0.19092199136036525
- 2.0328838516198315
- -0.08049550450029996
- 0.0
- 0.0
velocity:
- 0.1519890307892381
- -0.060693148465610934
- -0.12646739144686459
- 0.07754722118073784
- 0.21564504562953613
- 0.13570426735314636
- -0.12937477614898396
- 0.0
- 0.0
effort:
- 0.015568733215332031
- -34.761016845703125
- -1.3993949890136719
- 23.553632736206055
- 1.4676090478897095
- 2.6295931339263916
- -0.252799391746521
- 0.0
- 0.0
---
header:
  stamp:
    sec: 1756279859
    nanosec: 593722442
  frame_id: ''
name:
- fr3_joint1
- fr3_joint2
- fr3_joint3
- fr3_joint4
- fr3_joint5
- fr3_joint6
- fr3_joint7
- fr3_finger_joint1
- fr3_finger_joint2
position:
- 0.24321786051220975
- 0.08353852696884347
- -0.20347602102300985
- -1.709530433277432
- 0.19758745308534337
- 2.037059973275889
- -0.08435613466972136
- 0.0
- 0.0
velocity:
- 0.1582922597260067
- -0.054728967539313236
- -0.15017219679627558
- 0.08853462317254783
- 0.19494301758961907
- 0.12499372646901506
- -0.11287313146142851
- 0.0
- 0.0
effort:
- 0.856633186340332
- -34.558685302734375
- -0.5980033278465271
- 24.077314376831055
- 1.4218326807022095
- 2.6964266300201416
- -0.2463906854391098
- 0.0
- 0.0
---
header:
  stamp:
    sec: 1756279859
    nanosec: 626697531
  frame_id: ''
name:
- fr3_joint1
- fr3_joint2
- fr3_joint3
- fr3_joint4
- fr3_joint5
- fr3_joint6
- fr3_joint7
- fr3_finger_joint1
- fr3_finger_joint2
position:
- 0.24853706360957678
- 0.08175974946667616
- -0.2085671939242217
- -1.7065499885190032
- 0.20451998290950976
- 2.041319167767662
- -0.08823187759600204
- 0.0
- 0.0
velocity:
- 0.1504468790002305
- -0.05299056675351258
- -0.1403380505802786
- 0.08784990019331043
- 0.21045721760388705
- 0.12781975905370474
- -0.11543448412620537
- 0.0
- 0.0
effort:
- 0.832829475402832
- -34.229400634765625
- -0.6733817458152771
- 23.740095138549805
- 1.4676090478897095
- 2.7229769229888916
- -0.266532301902771
- 0.0
- 0.0
---
header:
  stamp:
    sec: 1756279859
    nanosec: 660029552
  frame_id: ''
name:
- fr3_joint1
- fr3_joint2
- fr3_joint3
- fr3_joint4
- fr3_joint5
- fr3_joint6
- fr3_joint7
- fr3_finger_joint1
- fr3_finger_joint2
position:
- 0.25355707608150735
- 0.0801152831115391
- -0.2132148251219103
- -1.7035851349852766
- 0.21134553318770774
- 2.0457476535210395
- -0.09205438531556724
- 0.0
- 0.0
velocity:
- 0.15629983921508658
- -0.046042435841261296
- -0.14400448552910503
- 0.08947759808485028
- 0.2111831475064924
- 0.12912429622156163
- -0.11309784353080518
- 0.0
- 0.0
effort:
- 0.757451057434082
- -34.253204345703125
- -0.6733817458152771
- 23.529829025268555
- 1.5271183252334595
- 2.6561434268951416
- -0.2189248651266098
- 0.0
- 0.0
---
header:
  stamp:
    sec: 1756279859
    nanosec: 693592981
  frame_id: ''
name:
- fr3_joint1
- fr3_joint2
- fr3_joint3
- fr3_joint4
- fr3_joint5
- fr3_joint6
- fr3_joint7
- fr3_finger_joint1
- fr3_finger_joint2
position:
- 0.25882821259385014
- 0.07856537727406422
- -0.21802984823546695
- -1.7008191756302917
- 0.21817977995299187
- 2.0503319471525447
- -0.09613695377262248
- 0.0
- 0.0
velocity:
- 0.16588201479343728
- -0.0473379422914368
- -0.1523831399280257
- 0.08276554361656312
- 0.20124995648439328
- 0.14794303821608318
- -0.1346570788417892
- 0.0
- 0.0
effort:
- 0.705876350402832
- -34.455535888671875
- -0.7011527419090271
- 23.974164962768555
- 1.4941593408584595
- 2.7229769229888916
- -0.252799391746521
- 0.0
- 0.0
---
header:
  stamp:
    sec: 1756279859
    nanosec: 726614788
  frame_id: ''
name:
- fr3_joint1
- fr3_joint2
- fr3_joint3
- fr3_joint4
- fr3_joint5
- fr3_joint6
- fr3_joint7
- fr3_finger_joint1
- fr3_finger_joint2
position:
- 0.26409563122970725
- 0.07686188895657987
- -0.22254650215807004
- -1.6981280458213852
- 0.22537521569038726
- 2.0551888630056867
- -0.10042861625541319
- 0.0
- 0.0
velocity:
- 0.15630866026264612
- -0.05110709108232294
- -0.12781384646970295
- 0.07775066943233924
- 0.21093415960941567
- 0.13581531273514877
- -0.1193226262711497
- 0.0
- 0.0
effort:
- 0.24567127227783203
- -34.380157470703125
- -1.1415214538574219
- 23.894819259643555
- 1.4740177392959595
- 2.6964266300201416
- -0.1649087518453598
- 0.0
- 0.0
---
header:
  stamp:
    sec: 1756279859
    nanosec: 759993530
  frame_id: ''
name:
- fr3_joint1
- fr3_joint2
- fr3_joint3
- fr3_joint4
- fr3_joint5
- fr3_joint6
- fr3_joint7
- fr3_finger_joint1
- fr3_finger_joint2
position:
- 0.26953588556475727
- 0.07508769668379947
- -0.22710199715269466
- -1.6955005677343218
- 0.23228833786803418
- 2.0594574878339795
- -0.10424162455303755
- 0.0
- 0.0
velocity:
- 0.1616060732322627
- -0.05311912393827354
- -0.14258258061410453
- 0.0787881395287582
- 0.20341543118234792
- 0.12759594016553083
- -0.11288544627785482
- 0.0
- 0.0
effort:
- 0.908207893371582
- -34.534881591796875
- -0.5980033278465271
- 23.791669845581055
- 1.5069767236709595
- 2.6964266300201416
- -0.1987832635641098
- 0.0
- 0.0
---
header:
  stamp:
    sec: 1756279859
    nanosec: 793056031
  frame_id: ''
name:
- fr3_joint1
- fr3_joint2
- fr3_joint3
- fr3_joint4
- fr3_joint5
- fr3_joint6
- fr3_joint7
- fr3_finger_joint1
- fr3_finger_joint2
position:
- 0.2747122845257712
- 0.07324171097366194
- -0.23196441877221374
- -1.6930515487150974
- 0.23882425447702302
- 2.0637038086312294
- -0.10781576287601088
- 0.0
- 0.0
velocity:
- 0.1512280140413101
- -0.05958357321720566
- -0.14307435293484638
- 0.07619905735974442
- 0.1977312929129185
- 0.12948864185547698
- -0.11229017078613132
- 0.0
- 0.0
effort:
- 0.935978889465332
- -34.483306884765625
- -0.5464286208152771
- 23.946393966674805
- 1.5271183252334595
- 2.6360018253326416
- -0.266532301902771
- 0.0
- 0.0
---
header:
  stamp:
    sec: 1756279859
    nanosec: 826661371
  frame_id: ''
name:
- fr3_joint1
- fr3_joint2
- fr3_joint3
- fr3_joint4
- fr3_joint5
- fr3_joint6
- fr3_joint7
- fr3_finger_joint1
- fr3_finger_joint2
position:
- 0.279829857492356
- 0.07124274456691804
- -0.23657451845091276
- -1.6903077860886127
- 0.24575790254963145
- 2.0680037440028887
- -0.11179391017212616
- 0.0
- 0.0
velocity:
- 0.156388494128223
- -0.05976657300034614
- -0.13938189251690333
- 0.08370661707935292
- 0.20671819153139653
- 0.1329036173793733
- -0.12492582402293713
- 0.0
- 0.0
effort:
- 0.705876350402832
- -34.328582763671875
- -0.7249564528465271
- 24.287580490112305
- 1.5133854150772095
- 2.7632601261138916
- -0.272940993309021
- 0.0
- 0.0
---
header:
  stamp:
    sec: 1756279859
    nanosec: 859814178
  frame_id: ''
name:
- fr3_joint1
- fr3_joint2
- fr3_joint3
- fr3_joint4
- fr3_joint5
- fr3_joint6
- fr3_joint7
- fr3_finger_joint1
- fr3_finger_joint2
position:
- 0.28523767725581983
- 0.06923705224382286
- -0.24135541860467508
- -1.6872075069690986
- 0.25278249239061207
- 2.072630239499052
- -0.1165209554476841
- 0.0
- 0.0
velocity:
- 0.1615803776916794
- -0.05793328883122757
- -0.14416440353750012
- 0.09258566157178631
- 0.20611225061944516
- 0.1388634260905515
- -0.14694154678341478
- 0.0
- 0.0
effort:
- 0.832829475402832
- -33.717620849609375
- -0.6733817458152771
- 23.871015548706055
- 1.5005680322647095
- 2.7028353214263916
- -0.2326577752828598
- 0.0
- 0.0
---
header:
  stamp:
    sec: 1756279859
    nanosec: 893661462
  frame_id: ''
name:
- fr3_joint1
- fr3_joint2
- fr3_joint3
- fr3_joint4
- fr3_joint5
- fr3_joint6
- fr3_joint7
- fr3_finger_joint1
- fr3_finger_joint2
position:
- 0.29031658516774445
- 0.06724922918673323
- -0.2458766880063476
- -1.6842799748985224
- 0.2595463738561167
- 2.0770109212405914
- -0.12118665583869619
- 0.0
- 0.0
velocity:
- 0.1504698225102463
- -0.0588999887954908
- -0.1301461565459405
- 0.09089903897610407
- 0.21275434309170546
- 0.12122663087351783
- -0.13281629487178595
- 0.0
- 0.0
effort:
- 0.14252185821533203
- -33.439910888671875
- -1.2684745788574219
- 23.605207443237305
- 1.4612003564834595
- 2.6964266300201416
- -0.272940993309021
- 0.0
- 0.0
---
header:
  stamp:
    sec: 1756279859
    nanosec: 926636778
  frame_id: ''
name:
- fr3_joint1
- fr3_joint2
- fr3_joint3
- fr3_joint4
- fr3_joint5
- fr3_joint6
- fr3_joint7
- fr3_finger_joint1
- fr3_finger_joint2
position:
- 0.29573982906494484
- 0.06531456675352403
- -0.25045285903120496
- -1.6811941543545919
- 0.2667223011110025
- 2.081192135505288
- -0.12491889975686843
- 0.0
- 0.0
velocity:
- 0.16019697840494193
- -0.05649983988561647
- -0.1398869409275427
- 0.08883523537445841
- 0.21111487569307616
- 0.12861585759672206
- -0.10117025739263544
- 0.0
- 0.0
effort:
- 0.856633186340332
- -33.590667724609375
- -0.6218070387840271
- 23.843244552612305
- 1.4813419580459595
- 2.7101595401763916
- -0.286673903465271
- 0.0
- 0.0
---
header:
  stamp:
    sec: 1756279859
    nanosec: 959725552
  frame_id: ''
name:
- fr3_joint1
- fr3_joint2
- fr3_joint3
- fr3_joint4
- fr3_joint5
- fr3_joint6
- fr3_joint7
- fr3_finger_joint1
- fr3_finger_joint2
position:
- 0.30091175652567953
- 0.06352949245434575
- -0.25527680815323517
- -1.6783919649199464
- 0.2735467683837504
- 2.085673139995953
- -0.12841563195815248
- 0.0
- 0.0
velocity:
- 0.14669324690725935
- -0.05364701965338313
- -0.14108106230573514
- 0.08765884979543843
- 0.20086997477066576
- 0.1362559220898129
- -0.10741066469979593
- 0.0
- 0.0
effort:
- 0.959782600402832
- -33.566864013671875
- -0.4948539137840271
- 24.077314376831055
- 1.4877506494522095
- 2.7559359073638916
- -0.2262490838766098
- 0.0
- 0.0
---
header:
  stamp:
    sec: 1756279859
    nanosec: 993092393
  frame_id: ''
name:
- fr3_joint1
- fr3_joint2
- fr3_joint3
- fr3_joint4
- fr3_joint5
- fr3_joint6
- fr3_joint7
- fr3_finger_joint1
- fr3_finger_joint2
position:
- 0.305900239257347
- 0.06174804632326588
- -0.2600456467105046
- -1.6754667898747528
- 0.28019470740295827
- 2.090522677853202
- -0.13238033121746054
- 0.0
- 0.0
velocity:
- 0.15618942083564363
- -0.05560772507674551
- -0.14328475498892226
- 0.0821474765185213
- 0.20393783404749
- 0.14974257606525637
- -0.12185650682232692
- 0.0
- 0.0
effort:
- 0.757451057434082
- -33.618438720703125
- -0.7011527419090271
- 23.660749435424805
- 1.5271183252334595
- 2.6964266300201416
- -0.300406813621521
- 0.0
- 0.0
---
header:
  stamp:
    sec: 1756279860
    nanosec: 26395393
  frame_id: ''
name:
- fr3_joint1
- fr3_joint2
- fr3_joint3
- fr3_joint4
- fr3_joint5
- fr3_joint6
- fr3_joint7
- fr3_finger_joint1
- fr3_finger_joint2
position:
- 0.311287567688216
- 0.059805141355370746
- -0.2648549768402401
- -1.6727467833737721
- 0.287181432717217
- 2.0953107651754226
- -0.13669707130622208
- 0.0
- 0.0
velocity:
- 0.16205083229426492
- -0.06359366452467402
- -0.14321622157686814
- 0.07355354361631158
- 0.2057274838766677
- 0.13874443953822155
- -0.12617263346951835
- 0.0
- 0.0
effort:
- 0.757451057434082
- -33.566864013671875
- -0.7249564528465271
- 23.815473556518555
- 1.4282413721084595
- 2.6900179386138916
- -0.293998122215271
- 0.0
- 0.0
---
header:
  stamp:
    sec: 1756279860
    nanosec: 59749323
  frame_id: ''
name:
- fr3_joint1
- fr3_joint2
- fr3_joint3
- fr3_joint4
- fr3_joint5
- fr3_joint6
- fr3_joint7
- fr3_finger_joint1
- fr3_finger_joint2
position:
- 0.3163413340815328
- 0.05780611624458047
- -0.2693748911713781
- -1.6702488064957235
- 0.29412547102999753
- 2.099433063684345
- -0.140494298644321
- 0.0
- 0.0
velocity:
- 0.15624743276434974
- -0.057971737158444156
- -0.1378282998537475
- 0.08195922666425595
- 0.209351551983196
- 0.12395412587759509
- -0.1111478946388749
- 0.0
- 0.0
effort:
- 0.09491443634033203
- -33.134429931640625
- -1.3200492858886719
- 24.001935958862305
- 1.4419742822647095
- 2.7962191104888916
- -0.300406813621521
- 0.0
- 0.0
---
header:
  stamp:
    sec: 1756279860
    nanosec: 93080336
  frame_id: ''
name:
- fr3_joint1
- fr3_joint2
- fr3_joint3
- fr3_joint4
- fr3_joint5
- fr3_joint6
- fr3_joint7
- fr3_finger_joint1
- fr3_finger_joint2
position:
- 0.32179231234620653
- 0.05594268957360938
- -0.27401460813374917
- -1.6675159518394576
- 0.30107971430961133
- 2.1037624402131057
- -0.14434886799857904
- 0.0
- 0.0
velocity:
- 0.1656570977512713
- -0.05177962990881723
- -0.1430222151051677
- 0.08061498893074648
- 0.21335120604127578
- 0.12676512758459355
- -0.10969037212247035
- 0.0
- 0.0
effort:
- 0.705876350402832
- -32.828948974609375
- -0.7765311598777771
- 23.712324142456055
- 1.4941593408584595
- 2.7760775089263916
- -0.266532301902771
- 0.0
- 0.0
---
header:
  stamp:
    sec: 1756279860
    nanosec: 126494225
  frame_id: ''
name:
- fr3_joint1
- fr3_joint2
- fr3_joint3
- fr3_joint4
- fr3_joint5
- fr3_joint6
- fr3_joint7
- fr3_finger_joint1
- fr3_finger_joint2
position:
- 0.3271790553587681
- 0.054258330887740056
- -0.2788197784750133
- -1.6646764231009872
- 0.3081001620251939
- 2.1084675564282938
- -0.1480322224373198
- 0.0
- 0.0
velocity:
- 0.15350137086492924
- -0.04807556591855324
- -0.14090703291643192
- 0.08917087653082235
- 0.20387682128924756
- 0.14522396026938597
- -0.10532284600512481
- 0.0
- 0.0
effort:
- 0.805058479309082
- -32.932098388671875
- -0.5702323317527771
- 23.684553146362305
- 1.4676090478897095
- 2.6964266300201416
- -0.286673903465271
- 0.0
- 0.0
---
header:
  stamp:
    sec: 1756279860
    nanosec: 159847431
  frame_id: ''
name:
- fr3_joint1
- fr3_joint2
- fr3_joint3
- fr3_joint4
- fr3_joint5
- fr3_joint6
- fr3_joint7
- fr3_finger_joint1
- fr3_finger_joint2
position:
- 0.332252927134079
- 0.05270136278580529
- -0.28359837682736927
- -1.6615850732463735
- 0.31495280634087747
- 2.113085499747594
- -0.15202498946977658
- 0.0
- 0.0
velocity:
- 0.15946017928557923
- -0.04547060867167
- -0.1500843628494799
- 0.09288826491486389
- 0.1994308513264844
- 0.13038769259483995
- -0.12956006112651436
- 0.0
- 0.0
effort:
- 0.781254768371582
- -33.082855224609375
- -0.7011527419090271
- 23.660749435424805
- 1.4676090478897095
- 2.7165682315826416
- -0.320548415184021
- 0.0
- 0.0
---
header:
  stamp:
    sec: 1756279860
    nanosec: 193059631
  frame_id: ''
name:
- fr3_joint1
- fr3_joint2
- fr3_joint3
- fr3_joint4
- fr3_joint5
- fr3_joint6
- fr3_joint7
- fr3_finger_joint1
- fr3_finger_joint2
position:
- 0.3374561834030156
- 0.050985396799224855
- -0.2882351997456717
- -1.65893510403216
- 0.32155972113311315
- 2.1173406498847265
- -0.15675450005800845
- 0.0
- 0.0
velocity:
- 0.16392679864526513
- -0.055262682157790566
- -0.14380315088827575
- 0.07614419690787107
- 0.20293456151987865
- 0.1255423511887694
- -0.1467970078361687
- 0.0
- 0.0
effort:
- 0.832829475402832
- -32.932098388671875
- -0.6218070387840271
- 24.053510665893555
- 1.4877506494522095
- 2.7431185245513916
- -0.286673903465271
- 0.0
- 0.0
---
header:
  stamp:
    sec: 1756279860
    nanosec: 226712108
  frame_id: ''
name:
- fr3_joint1
- fr3_joint2
- fr3_joint3
- fr3_joint4
- fr3_joint5
- fr3_joint6
- fr3_joint7
- fr3_finger_joint1
- fr3_finger_joint2
position:
- 0.342570361982935
- 0.04922562188568646
- -0.2927479028005469
- -1.656088860833739
- 0.32847045784828116
- 2.121477961412716
- -0.1611601816949824
- 0.0
- 0.0
velocity:
- 0.145922811351355
- -0.05097405235911029
- -0.127775996323735
- 0.0908118985025554
- 0.21064468319779764
- 0.1259176682204695
- -0.1197599772040608
- 0.0
- 0.0
effort:
- 0.34882068634033203
- -32.777374267578125
- -1.1137504577636719
- 23.553632736206055
- 1.4941593408584595
- 2.7559359073638916
- -0.2463906854391098
- 0.0
- 0.0
---
header:
  stamp:
    sec: 1756279860
    nanosec: 259839703
  frame_id: ''
name:
- fr3_joint1
- fr3_joint2
- fr3_joint3
- fr3_joint4
- fr3_joint5
- fr3_joint6
- fr3_joint7
- fr3_finger_joint1
- fr3_finger_joint2
position:
- 0.3480880725723976
- 0.047429724487442496
- -0.2975747419201547
- -1.6532832414652259
- 0.335555294853088
- 2.1259626205423614
- -0.16505361573620228
- 0.0
- 0.0
velocity:
- 0.1668421074882958
- -0.053677285128015076
- -0.15104401932186753
- 0.07972377435155042
- 0.20978891002718802
- 0.13024856715816713
- -0.11254864847182615
- 0.0
- 0.0
effort:
- 0.805058479309082
- -33.134429931640625
- -0.6218070387840271
- 23.922590255737305
- 1.4676090478897095
- 2.7367098331451416
- -0.334281325340271
- 0.0
- 0.0
---
header:
  stamp:
    sec: 1756279860
    nanosec: 293679133
  frame_id: ''
name:
- fr3_joint1
- fr3_joint2
- fr3_joint3
- fr3_joint4
- fr3_joint5
- fr3_joint6
- fr3_joint7
- fr3_finger_joint1
- fr3_finger_joint2
position:
- 0.3533762629794444
- 0.04554887270957579
- -0.30227043859381825
- -1.6506476991453711
- 0.3425066854422929
- 2.1306327990232545
- -0.16880847583844913
- 0.0
- 0.0
velocity:
- 0.15042977830161605
- -0.05686698465019058
- -0.13372560264500505
- 0.08125561747770908
- 0.21469312820089317
- 0.1478124401101693
- -0.11135194760481928
- 0.0
- 0.0
effort:
- 0.908207893371582
- -33.031280517578125
- -0.5702323317527771
- 24.263776779174805
- 1.4419742822647095
- 2.7495272159576416
- -0.327872633934021
- 0.0
- 0.0
---
header:
  stamp:
    sec: 1756279860
    nanosec: 326659593
  frame_id: ''
name:
- fr3_joint1
- fr3_joint2
- fr3_joint3
- fr3_joint4
- fr3_joint5
- fr3_joint6
- fr3_joint7
- fr3_finger_joint1
- fr3_finger_joint2
position:
- 0.3584310764365918
- 0.043614968008639524
- -0.30686832512490964
- -1.647663648271427
- 0.3496234781652003
- 2.1351680078720214
- -0.17269780030450496
- 0.0
- 0.0
velocity:
- 0.1546209627118421
- -0.05881831050296971
- -0.13767951817702062
- 0.08924728649089475
- 0.20969562348991524
- 0.13217146215966388
- -0.12457581629397803
- 0.0
- 0.0
effort:
- 0.832829475402832
- -32.471893310546875
- -0.5464286208152771
- 23.605207443237305
- 1.4218326807022095
- 2.7028353214263916
- -0.286673903465271
- 0.0
- 0.0
---
header:
  stamp:
    sec: 1756279860
    nanosec: 359804212
  frame_id: ''
name:
- fr3_joint1
- fr3_joint2
- fr3_joint3
- fr3_joint4
- fr3_joint5
- fr3_joint6
- fr3_joint7
- fr3_finger_joint1
- fr3_finger_joint2
position:
- 0.3638258318789273
- 0.04152622681627048
- -0.3118632799930649
- -1.6448883735670818
- 0.35626225165825326
- 2.13962328620889
- -0.17717302126702777
- 0.0
- 0.0
velocity:
- 0.15894772569864435
- -0.06391869113814166
- -0.14345134061960663
- 0.0805683433249061
- 0.1901344228152243
- 0.13043187479391677
- -0.12860842309257256
- 0.0
- 0.0
effort:
- 0.678105354309082
- -32.067230224609375
- -0.7249564528465271
- 23.712324142456055
- 1.5005680322647095
- 2.7293856143951416
- -0.280265212059021
- 0.0
- 0.0
---
header:
  stamp:
    sec: 1756279860
    nanosec: 393717590
  frame_id: ''
name:
- fr3_joint1
- fr3_joint2
- fr3_joint3
- fr3_joint4
- fr3_joint5
- fr3_joint6
- fr3_joint7
- fr3_finger_joint1
- fr3_finger_joint2
position:
- 0.36882369984534574
- 0.03965857345851465
- -0.31625710545339736
- -1.6421815467619745
- 0.3629634916593841
- 2.1439447993108574
- -0.18095131137810447
- 0.0
- 0.0
velocity:
- 0.14893409027742
- -0.05563882481740569
- -0.12606478061239138
- 0.08460775534944145
- 0.20565749779091555
- 0.1358838120059452
- -0.11773620528088927
- 0.0
- 0.0
effort:
- 0.37262439727783203
- -32.166412353515625
- -1.0383720397949219
- 23.684553146362305
- 1.4676090478897095
- 2.6900179386138916
- -0.320548415184021
- 0.0
- 0.0
---
header:
  stamp:
    sec: 1756279860
    nanosec: 426633318
  frame_id: ''
name:
- fr3_joint1
- fr3_joint2
- fr3_joint3
- fr3_joint4
- fr3_joint5
- fr3_joint6
- fr3_joint7
- fr3_finger_joint1
- fr3_finger_joint2
position:
- 0.3741931423559407
- 0.03785597372732844
- -0.3209377222515536
- -1.6393526100903528
- 0.3700440141098935
- 2.148476678485054
- -0.18470367203110716
- 0.0
- 0.0
velocity:
- 0.16453080388991187
- -0.05223596052476521
- -0.1468170812544205
- 0.0879055780429928
- 0.2201994537056074
- 0.13980218916271378
- -0.11101360375582321
- 0.0
- 0.0
effort:
- 0.781254768371582
- -32.091033935546875
- -0.5702323317527771
- 23.894819259643555
- 1.3888736963272095
- 2.7293856143951416
- -0.266532301902771
- 0.0
- 0.0
---
header:
  stamp:
    sec: 1756279860
    nanosec: 459860393
  frame_id: ''
name:
- fr3_joint1
- fr3_joint2
- fr3_joint3
- fr3_joint4
- fr3_joint5
- fr3_joint6
- fr3_joint7
- fr3_finger_joint1
- fr3_finger_joint2
position:
- 0.37965090242344446
- 0.03613552594164857
- -0.3259486990939089
- -1.6363675321656634
- 0.37709816877878993
- 2.153044418362542
- -0.18848859385712277
- 0.0
- 0.0
velocity:
- 0.15473859710694046
- -0.0511221053574415
- -0.13998062591132762
- 0.09032134657365959
- 0.2070618324032676
- 0.1300962052470693
- -0.11958754010432654
- 0.0
- 0.0
effort:
- 0.654301643371582
- -31.940279006958008
- -0.6218070387840271
- 23.660749435424805
- 1.4355655908584595
- 2.7431185245513916
- -0.252799391746521
- 0.0
- 0.0
---
header:
  stamp:
    sec: 1756279860
    nanosec: 493654701
  frame_id: ''
name:
- fr3_joint1
- fr3_joint2
- fr3_joint3
- fr3_joint4
- fr3_joint5
- fr3_joint6
- fr3_joint7
- fr3_finger_joint1
- fr3_finger_joint2
position:
- 0.38465997844719957
- 0.03433827999307341
- -0.33034262424030975
- -1.6335636412067798
- 0.3839900430489147
- 2.157230415011627
- -0.19264261386129505
- 0.0
- 0.0
velocity:
- 0.16032703495607276
- -0.06074227750463046
- -0.13912517001013294
- 0.07915732183258023
- 0.2092585902655503
- 0.12343991335431959
- -0.13743170878882133
- 0.0
- 0.0
effort:
- 0.602726936340332
- -32.039459228515625
- -0.7011527419090271
- 23.632978439331055
- 1.3888736963272095
- 2.6900179386138916
- -0.260123610496521
- 0.0
- 0.0
---
header:
  stamp:
    sec: 1756279860
    nanosec: 526712005
  frame_id: ''
name:
- fr3_joint1
- fr3_joint2
- fr3_joint3
- fr3_joint4
- fr3_joint5
- fr3_joint6
- fr3_joint7
- fr3_finger_joint1
- fr3_finger_joint2
position:
- 0.38999826225124334
- 0.032284783229641366
- -0.33511056722939153
- -1.630862933071741
- 0.39081620581810955
- 2.161423031487122
- -0.19742086731727834
- 0.0
- 0.0
velocity:
- 0.1647205715458395
- -0.05548483557536407
- -0.1521052615685035
- 0.084388323020264
- 0.20482970628899996
- 0.13362161716520138
- -0.1443162657385515
- 0.0
- 0.0
effort:
- 0.49957752227783203
- -31.860933303833008
- -0.7765311598777771
- 24.025739669799805
- 1.3696476221084595
- 2.7696688175201416
- -0.2326577752828598
- 0.0
- 0.0
---
header:
  stamp:
    sec: 1756279860
    nanosec: 559866232
  frame_id: ''
name:
- fr3_joint1
- fr3_joint2
- fr3_joint3
- fr3_joint4
- fr3_joint5
- fr3_joint6
- fr3_joint7
- fr3_finger_joint1
- fr3_finger_joint2
position:
- 0.39515986478721626
- 0.030362568327931112
- -0.33969828798147844
- -1.6279138829567792
- 0.3976573504176132
- 2.166057488412607
- -0.20159160376054808
- 0.0
- 0.0
velocity:
- 0.15027617101627938
- -0.055052940223667156
- -0.12933519844977234
- 0.08847640008379727
- 0.20428621411962267
- 0.1426755387838305
- -0.10881205853050148
- 0.0
- 0.0
effort:
- 0.14252185821533203
- -31.507844924926758
- -1.1415214538574219
- 23.502058029174805
- 1.3961979150772095
- 2.7495272159576416
- -0.354422926902771
- 0.0
- 0.0
---
header:
  stamp:
    sec: 1756279860
    nanosec: 593064399
  frame_id: ''
name:
- fr3_joint1
- fr3_joint2
- fr3_joint3
- fr3_joint4
- fr3_joint5
- fr3_joint6
- fr3_joint7
- fr3_finger_joint1
- fr3_finger_joint2
position:
- 0.4003867087935842
- 0.02869696986214321
- -0.3441955844975764
- -1.624973088008564
- 0.4044237631589743
- 2.1708313109203465
- -0.20509597545498026
- 0.0
- 0.0
velocity:
- 0.16472492211826206
- -0.04809820151229479
- -0.14802985271879276
- 0.09220750675533022
- 0.20639218877824858
- 0.1422879255287919
- -0.10824542087321629
- 0.0
- 0.0
effort:
- 0.781254768371582
- -31.507844924926758
- -0.4670829176902771
- 23.422712326049805
- 1.4282413721084595
- 2.6433260440826416
- -0.306815505027771
- 0.0
- 0.0
---
header:
  stamp:
    sec: 1756279860
    nanosec: 626582335
  frame_id: ''
name:
- fr3_joint1
- fr3_joint2
- fr3_joint3
- fr3_joint4
- fr3_joint5
- fr3_joint6
- fr3_joint7
- fr3_finger_joint1
- fr3_finger_joint2
position:
- 0.40580298531898173
- 0.027037924870291982
- -0.3492905094271257
- -1.6219870233500118
- 0.41149269792082427
- 2.17545800678872
- -0.20876762229528614
- 0.0
- 0.0
velocity:
- 0.15683336006925208
- -0.0502587969715449
- -0.14892109891900202
- 0.08646537616095672
- 0.20835812399255954
- 0.1280093936171461
- -0.11581088733488375
- 0.0
- 0.0
effort:
- 0.729680061340332
- -31.277742385864258
- -0.5464286208152771
- 23.553632736206055
- 1.3961979150772095
- 2.6900179386138916
- -0.314139723777771
- 0.0
- 0.0
---
header:
  stamp:
    sec: 1756279860
    nanosec: 659877032
  frame_id: ''
name:
- fr3_joint1
- fr3_joint2
- fr3_joint3
- fr3_joint4
- fr3_joint5
- fr3_joint6
- fr3_joint7
- fr3_finger_joint1
- fr3_finger_joint2
position:
- 0.41094109200840023
- 0.025238929301596172
- -0.35392543007674493
- -1.6192937446701885
- 0.41855072894385603
- 2.1797983674943007
- -0.21293328240551307
- 0.0
- 0.0
velocity:
- 0.1552767367469009
- -0.053856577734215684
- -0.13646520898771206
- 0.08032208060056402
- 0.2136913431439224
- 0.13010671538924454
- -0.13121129371940174
- 0.0
- 0.0
effort:
- 0.856633186340332
- -31.099214553833008
- -0.4432792067527771
- 23.605207443237305
- 1.4090152978897095
- 2.6634676456451416
- -0.327872633934021
- 0.0
- 0.0
---
header:
  stamp:
    sec: 1756279860
    nanosec: 693057861
  frame_id: ''
name:
- fr3_joint1
- fr3_joint2
- fr3_joint3
- fr3_joint4
- fr3_joint5
- fr3_joint6
- fr3_joint7
- fr3_finger_joint1
- fr3_finger_joint2
position:
- 0.41616486980988004
- 0.02350445237512624
- -0.35858906960493053
- -1.6167916737199537
- 0.4253263736638058
- 2.1840603077468326
- -0.2170302345989534
- 0.0
- 0.0
velocity:
- 0.15695585066412063
- -0.05298994834622127
- -0.14490899988625133
- 0.07799652562958101
- 0.21285383874628883
- 0.1392210135947219
- -0.11380893287901901
- 0.0
- 0.0
effort:
- 0.805058479309082
- -30.948457717895508
- -0.4155082106590271
- 23.422712326049805
- 1.3824650049209595
- 2.6433260440826416
- -0.320548415184021
- 0.0
- 0.0
---
header:
  stamp:
    sec: 1756279860
    nanosec: 726640058
  frame_id: ''
name:
- fr3_joint1
- fr3_joint2
- fr3_joint3
- fr3_joint4
- fr3_joint5
- fr3_joint6
- fr3_joint7
- fr3_finger_joint1
- fr3_finger_joint2
position:
- 0.42126127518859396
- 0.021731254107744867
- -0.3632699641928236
- -1.6142122766576683
- 0.4322340932700852
- 2.1887638814939545
- -0.22091134928677514
- 0.0
- 0.0
velocity:
- 0.1501872639594278
- -0.053542499105401944
- -0.13431315395839666
- 0.07773842845025361
- 0.1960472706375267
- 0.13628004666409085
- -0.12006224544998485
- 0.0
- 0.0
effort:
- 0.44800281524658203
- -31.329317092895508
- -0.7765311598777771
- 23.791669845581055
- 1.3504215478897095
- 2.7165682315826416
- -0.374564528465271
- 0.0
- 0.0
---
header:
  stamp:
    sec: 1756279860
    nanosec: 759910797
  frame_id: ''
name:
- fr3_joint1
- fr3_joint2
- fr3_joint3
- fr3_joint4
- fr3_joint5
- fr3_joint6
- fr3_joint7
- fr3_finger_joint1
- fr3_finger_joint2
position:
- 0.4266647747524099
- 0.019837799633486898
- -0.36794932805061475
- -1.6113993361517227
- 0.4390171147322451
- 2.193101138174015
- -0.22482272692617683
- 0.0
- 0.0
velocity:
- 0.16155742890845043
- -0.05831323592411239
- -0.14185753736391782
- 0.08591769046872022
- 0.21182386179727988
- 0.12930314341359692
- -0.11609545132034765
- 0.0
- 0.0
effort:
- 0.959782600402832
- -31.507844924926758
- -0.3123587965965271
- 24.001935958862305
- 1.3568302392959595
- 2.7028353214263916
- -0.348014235496521
- 0.0
- 0.0
---
header:
  stamp:
    sec: 1756279860
    nanosec: 793061882
  frame_id: ''
name:
- fr3_joint1
- fr3_joint2
- fr3_joint3
- fr3_joint4
- fr3_joint5
- fr3_joint6
- fr3_joint7
- fr3_finger_joint1
- fr3_finger_joint2
position:
- 0.43186559070609504
- 0.01786605792985401
- -0.37274064837490134
- -1.608561640719635
- 0.44574632501489453
- 2.1971963849281324
- -0.22847573313569425
- 0.0
- 0.0
velocity:
- 0.15110426416589115
- -0.06116232381352
- -0.1421130666666891
- 0.08798927197733658
- 0.2079673628512507
- 0.12642237204080486
- -0.12118803445782157
- 0.0
- 0.0
effort:
- 0.908207893371582
- -30.793733596801758
- -0.3401297926902771
- 23.529829025268555
- 1.4090152978897095
- 2.5902254581451416
- -0.280265212059021
- 0.0
- 0.0
---
header:
  stamp:
    sec: 1756279860
    nanosec: 826656427
  frame_id: ''
name:
- fr3_joint1
- fr3_joint2
- fr3_joint3
- fr3_joint4
- fr3_joint5
- fr3_joint6
- fr3_joint7
- fr3_finger_joint1
- fr3_finger_joint2
position:
- 0.4370669435588967
- 0.015734350671597907
- -0.37742427042951965
- -1.605681603720082
- 0.4528897876455289
- 2.2016837633352457
- -0.23308140452820603
- 0.0
- 0.0
velocity:
- 0.1600514173197151
- -0.062489235307920325
- -0.13423081859995092
- 0.08776326236029305
- 0.20234680494262197
- 0.13104187792346228
- -0.14675991201828736
- 0.0
- 0.0
effort:
- 0.527348518371582
- -30.361299514770508
- -0.6495780348777771
- 23.398908615112305
- 1.3504215478897095
- 2.6167757511138916
- -0.327872633934021
- 0.0
- 0.0
---
header:
  stamp:
    sec: 1756279860
    nanosec: 859885517
  frame_id: ''
name:
- fr3_joint1
- fr3_joint2
- fr3_joint3
- fr3_joint4
- fr3_joint5
- fr3_joint6
- fr3_joint7
- fr3_finger_joint1
- fr3_finger_joint2
position:
- 0.4424982580137312
- 0.013838039694471808
- -0.3821093678840768
- -1.602545698634443
- 0.46005133409725196
- 2.206263122865348
- -0.23791414996019367
- 0.0
- 0.0
velocity:
- 0.1600233407251019
- -0.05558574657943284
- -0.13827088192462617
- 0.0889516510593594
- 0.21704315323052847
- 0.15106866635409683
- -0.13070862396590482
- 0.0
- 0.0
effort:
- 0.654301643371582
- -30.182771682739258
- -0.5702323317527771
- 23.422712326049805
- 1.2973209619522095
- 2.6497347354888916
- -0.348014235496521
- 0.0
- 0.0
---
header:
  stamp:
    sec: 1756279860
    nanosec: 893772557
  frame_id: ''
name:
- fr3_joint1
- fr3_joint2
- fr3_joint3
- fr3_joint4
- fr3_joint5
- fr3_joint6
- fr3_joint7
- fr3_finger_joint1
- fr3_finger_joint2
position:
- 0.44737471594686734
- 0.012080266981747356
- -0.3864310542812969
- -1.5997628776524657
- 0.4666948075150588
- 2.211016625697294
- -0.2417896337135007
- 0.0
- 0.0
velocity:
- 0.14396364731522562
- -0.05273036623229181
- -0.12902508957669034
- 0.08745930674097155
- 0.201252809579133
- 0.13612321954740098
- -0.11733378553158527
- 0.0
- 0.0
effort:
- 0.40039539337158203
- -30.234346389770508
- -0.9074515700340271
- 23.632978439331055
- 1.3696476221084595
- 2.6900179386138916
- -0.280265212059021
- 0.0
- 0.0
---
header:
  stamp:
    sec: 1756279860
    nanosec: 926635367
  frame_id: ''
name:
- fr3_joint1
- fr3_joint2
- fr3_joint3
- fr3_joint4
- fr3_joint5
- fr3_joint6
- fr3_joint7
- fr3_finger_joint1
- fr3_finger_joint2
position:
- 0.452788892585461
- 0.010327162648215395
- -0.39125591326299586
- -1.596822525286135
- 0.4734823618355166
- 2.2154078124195866
- -0.2456747537235222
- 0.0
- 0.0
velocity:
- 0.16124485403626143
- -0.052193841840098315
- -0.1459647928325685
- 0.087020404517415
- 0.1990407591020064
- 0.12419479905142054
- -0.11651768078745023
- 0.0
- 0.0
effort:
- 0.856633186340332
- -30.008211135864258
- -0.3639335036277771
- 23.267988204956055
- 1.3110538721084595
- 2.6231844425201416
- -0.361747145652771
- 0.0
- 0.0
---
header:
  stamp:
    sec: 1756279860
    nanosec: 959837111
  frame_id: ''
name:
- fr3_joint1
- fr3_joint2
- fr3_joint3
- fr3_joint4
- fr3_joint5
- fr3_joint6
- fr3_joint7
- fr3_finger_joint1
- fr3_finger_joint2
position:
- 0.4581962282295256
- 0.008479832264447543
- -0.39619312571051196
- -1.594090439045971
- 0.4804770973809538
- 2.219916433170212
- -0.2494556385848661
- 0.0
- 0.0
velocity:
- 0.15542628559757438
- -0.05794735656859484
- -0.14001746868065074
- 0.07161557048945368
- 0.20823339679840547
- 0.13597247621651526
- -0.10881345820073093
- 0.0
- 0.0
effort:
- 0.678105354309082
- -30.083589553833008
- -0.3917044997215271
- 23.502058029174805
- 1.2845035791397095
- 2.6295931339263916
- -0.395621657371521
- 0.0
- 0.0
---
header:
  stamp:
    sec: 1756279860
    nanosec: 993696641
  frame_id: ''
name:
- fr3_joint1
- fr3_joint2
- fr3_joint3
- fr3_joint4
- fr3_joint5
- fr3_joint6
- fr3_joint7
- fr3_finger_joint1
- fr3_finger_joint2
position:
- 0.4631189086836549
- 0.006485821127892618
- -0.40073839863778354
- -1.5916903753490057
- 0.4871841825626349
- 2.224104007388339
- -0.253556858526588
- 0.0
- 0.0
velocity:
- 0.1620167986481044
- -0.05870092119529846
- -0.1501181573769098
- 0.07598304201962891
- 0.20705017741735735
- 0.12564371517268855
- -0.134816458598021
- 0.0
- 0.0
effort:
- 0.551152229309082
- -29.956636428833008
- -0.4948539137840271
- 23.712324142456055
- 1.3430973291397095
- 2.6900179386138916
- -0.374564528465271
- 0.0
- 0.0
---
header:
  stamp:
    sec: 1756279861
    nanosec: 26597525
  frame_id: ''
name:
- fr3_joint1
- fr3_joint2
- fr3_joint3
- fr3_joint4
- fr3_joint5
- fr3_joint6
- fr3_joint7
- fr3_finger_joint1
- fr3_finger_joint2
position:
- 0.46868954555606224
- 0.004570803253532107
- -0.4056643804906057
- -1.5890355775776401
- 0.49416161323186514
- 2.2287058338722368
- -0.25786784162041093
- 0.0
- 0.0
velocity:
- 0.16281499342293007
- -0.05724851249080274
- -0.14244232685023622
- 0.07914360273127459
- 0.20799833207849702
- 0.1375202044317839
- -0.1195768668924571
- 0.0
- 0.0
effort:
- 0.654301643371582
- -29.750337600708008
- -0.3401297926902771
- 23.553632736206055
- 1.3568302392959595
- 2.5764925479888916
- -0.348014235496521
- 0.0
- 0.0
---
header:
  stamp:
    sec: 1756279861
    nanosec: 59821564
  frame_id: ''
name:
- fr3_joint1
- fr3_joint2
- fr3_joint3
- fr3_joint4
- fr3_joint5
- fr3_joint6
- fr3_joint7
- fr3_finger_joint1
- fr3_finger_joint2
position:
- 0.473859295105928
- 0.0028301464575618703
- -0.4101664691062605
- -1.5860900025331501
- 0.5013742207037409
- 2.233154486118706
- -0.2617962577455755
- 0.0
- 0.0
velocity:
- 0.15361220484896854
- -0.05058177270063685
- -0.13395232260692383
- 0.08962201090677045
- 0.20883989131224207
- 0.13205615246034536
- -0.11064257552198081
- 0.0
- 0.0
effort:
- 0.32104969024658203
- -29.575777053833008
- -0.6733817458152771
- 23.188642501831055
- 1.2973209619522095
- 2.5233919620513916
- -0.314139723777771
- 0.0
- 0.0
---
header:
  stamp:
    sec: 1756279861
    nanosec: 93745825
  frame_id: ''
name:
- fr3_joint1
- fr3_joint2
- fr3_joint3
- fr3_joint4
- fr3_joint5
- fr3_joint6
- fr3_joint7
- fr3_finger_joint1
- fr3_finger_joint2
position:
- 0.47898796130598525
- 0.0012472792281235964
- -0.41478579234819535
- -1.5830311942097381
- 0.5081996837403013
- 2.2371451232677475
- -0.2654133570017421
- 0.0
- 0.0
velocity:
- 0.16216276394012144
- -0.04846179154281058
- -0.15036305883688186
- 0.09416606657223488
- 0.20236493789348775
- 0.1258476423767359
- -0.11042189910986422
- 0.0
- 0.0
effort:
- 0.935978889465332
- -29.421052932739258
- -0.0782889723777771
- 23.188642501831055
- 1.2515445947647095
- 2.5499422550201416
- -0.306815505027771
- 0.0
- 0.0
---
header:
  stamp:
    sec: 1756279861
    nanosec: 126656855
  frame_id: ''
name:
- fr3_joint1
- fr3_joint2
- fr3_joint3
- fr3_joint4
- fr3_joint5
- fr3_joint6
- fr3_joint7
- fr3_finger_joint1
- fr3_finger_joint2
position:
- 0.4843478486205075
- -0.0005159479055026782
- -0.41973821382707693
- -1.5801793265857853
- 0.5147535674348018
- 2.241777870196143
- -0.26948524767933263
- 0.0
- 0.0
velocity:
- 0.1512566881851392
- -0.0520370904318781
- -0.14145616465610683
- 0.08433676727700333
- 0.19717898595189517
- 0.13533734263623462
- -0.1314545011660445
- 0.0
- 0.0
effort:
- 0.983586311340332
- -29.270296096801758
- -0.0544852614402771
- 23.450483322143555
- 1.3504215478897095
- 2.5563509464263916
- -0.374564528465271
- 0.0
- 0.0
---
header:
  stamp:
    sec: 1756279861
    nanosec: 159831907
  frame_id: ''
name:
- fr3_joint1
- fr3_joint2
- fr3_joint3
- fr3_joint4
- fr3_joint5
- fr3_joint6
- fr3_joint7
- fr3_finger_joint1
- fr3_finger_joint2
position:
- 0.48945927206567774
- -0.0022850673695415783
- -0.4244032308987304
- -1.5773012982296364
- 0.5217092279797861
- 2.2466201305681404
- -0.2743236188185437
- 0.0
- 0.0
velocity:
- 0.1561902481721906
- -0.051917190169988164
- -0.14357250821753498
- 0.08303595756600712
- 0.2031420117556799
- 0.14955250637833903
- -0.1487166038958243
- 0.0
- 0.0
effort:
- 0.781254768371582
- -29.167146682739258
- -0.2092093825340271
- 22.926801681518555
- 1.2845035791397095
- 2.4767000675201416
- -0.320548415184021
- 0.0
- 0.0
---
header:
  stamp:
    sec: 1756279861
    nanosec: 193754320
  frame_id: ''
name:
- fr3_joint1
- fr3_joint2
- fr3_joint3
- fr3_joint4
- fr3_joint5
- fr3_joint6
- fr3_joint7
- fr3_finger_joint1
- fr3_finger_joint2
position:
- 0.4947409814497798
- -0.004010509607329774
- -0.4291189230749614
- -1.574582769581095
- 0.528657635274871
- 2.2512202651502795
- -0.2788029628251325
- 0.0
- 0.0
velocity:
- 0.16177040153874586
- -0.05579825028281196
- -0.14397486708835244
- 0.08255083537095154
- 0.2148576391322268
- 0.13534102489271896
- -0.11878853899712852
- 0.0
- 0.0
effort:
- 0.705876350402832
- -29.270296096801758
- -0.2092093825340271
- 23.371137619018555
- 1.2451359033584595
- 2.5764925479888916
- -0.388297438621521
- 0.0
- 0.0
---
header:
  stamp:
    sec: 1756279861
    nanosec: 226686885
  frame_id: ''
name:
- fr3_joint1
- fr3_joint2
- fr3_joint3
- fr3_joint4
- fr3_joint5
- fr3_joint6
- fr3_joint7
- fr3_finger_joint1
- fr3_finger_joint2
position:
- 0.49990272292873
- -0.0058449366716761455
- -0.43352463651537015
- -1.5717072982169304
- 0.5355180511415069
- 2.255431855551645
- -0.2825331035617299
- 0.0
- 0.0
velocity:
- 0.145871355409726
- -0.054532914158179416
- -0.12308645091853301
- 0.08904972122732152
- 0.20900333551445924
- 0.12295698997070158
- -0.1050514012342725
- 0.0
- 0.0
effort:
- 0.29724597930908203
- -29.242525100708008
- -0.6733817458152771
- 23.371137619018555
- 1.2909122705459595
- 2.5902254581451416
- -0.354422926902771
- 0.0
- 0.0
---
header:
  stamp:
    sec: 1756279861
    nanosec: 259734836
  frame_id: ''
name:
- fr3_joint1
- fr3_joint2
- fr3_joint3
- fr3_joint4
- fr3_joint5
- fr3_joint6
- fr3_joint7
- fr3_finger_joint1
- fr3_finger_joint2
position:
- 0.5051580430686389
- -0.00781203439119625
- -0.43797165893953005
- -1.5689915145948907
- 0.5424396369534696
- 2.2596115136603956
- -0.28609348386118244
- 0.0
- 0.0
velocity:
- 0.15648126157006928
- -0.06089047736937192
- -0.14097097699475186
- 0.08158573741648163
- 0.20666898530245656
- 0.1318565792485337
- -0.10628985217111077
- 0.0
- 0.0
effort:
- 1.114506721496582
- -28.710908889770508
- 0.1002388596534729
- 23.029951095581055
- 1.1993595361709595
- 2.4428255558013916
- -0.348014235496521
- 0.0
- 0.0
---
header:
  stamp:
    sec: 1756279861
    nanosec: 293056243
  frame_id: ''
name:
- fr3_joint1
- fr3_joint2
- fr3_joint3
- fr3_joint4
- fr3_joint5
- fr3_joint6
- fr3_joint7
- fr3_finger_joint1
- fr3_finger_joint2
position:
- 0.5105615226970962
- -0.009938186610018242
- -0.44300892072148684
- -1.566329060158006
- 0.5493407483827508
- 2.264223630210213
- -0.29014753696233175
- 0.0
- 0.0
velocity:
- 0.15187093857522566
- -0.06238545579281891
- -0.13749528980304962
- 0.07917773342736455
- 0.20284754549050796
- 0.13950329023871968
- -0.126939588180421
- 0.0
- 0.0
effort:
- 0.832829475402832
- -28.353853225708008
- -0.0267142653465271
- 23.160871505737305
- 1.2259098291397095
- 2.5096590518951416
- -0.361747145652771
- 0.0
- 0.0
---
header:
  stamp:
    sec: 1756279861
    nanosec: 326560997
  frame_id: ''
name:
- fr3_joint1
- fr3_joint2
- fr3_joint3
- fr3_joint4
- fr3_joint5
- fr3_joint6
- fr3_joint7
- fr3_finger_joint1
- fr3_finger_joint2
position:
- 0.515571994992164
- -0.011892382796347523
- -0.44761716199011903
- -1.5635025288101727
- 0.5560905335171732
- 2.2689445097535996
- -0.2946017635839802
- 0.0
- 0.0
velocity:
- 0.15624875417400702
- -0.058729356162246414
- -0.13726071230602932
- 0.08353860190076484
- 0.2061557062714482
- 0.13709696737892055
- -0.12497051444670994
- 0.0
- 0.0
effort:
- 0.654301643371582
- -27.945222854614258
- -0.1814383864402771
- 23.109296798706055
- 1.2259098291397095
- 2.5032503604888916
- -0.320548415184021
- 0.0
- 0.0
---
header:
  stamp:
    sec: 1756279861
    nanosec: 359807793
  frame_id: ''
name:
- fr3_joint1
- fr3_joint2
- fr3_joint3
- fr3_joint4
- fr3_joint5
- fr3_joint6
- fr3_joint7
- fr3_finger_joint1
- fr3_finger_joint2
position:
- 0.5210107045464752
- -0.01375962761972573
- -0.452606194545643
- -1.560646842407147
- 0.5631546848186935
- 2.273317668232326
- -0.298526486107187
- 0.0
- 0.0
velocity:
- 0.16206649130585302
- -0.05188658132989084
- -0.15000681387984185
- 0.08921037601593095
- 0.20758917967411009
- 0.11986265588707394
- -0.12500744371306688
- 0.0
- 0.0
effort:
- 0.551152229309082
- -28.123750686645508
- -0.2607840895652771
- 23.319562911987305
- 1.1993595361709595
- 2.5362093448638916
- -0.314139723777771
- 0.0
- 0.0
---
header:
  stamp:
    sec: 1756279861
    nanosec: 393056272
  frame_id: ''
name:
- fr3_joint1
- fr3_joint2
- fr3_joint3
- fr3_joint4
- fr3_joint5
- fr3_joint6
- fr3_joint7
- fr3_finger_joint1
- fr3_finger_joint2
position:
- 0.5261013443727565
- -0.015434742237555194
- -0.45715692772048383
- -1.557717955319382
- 0.5700125377658912
- 2.2773679932731286
- -0.30233100912398475
- 0.0
- 0.0
velocity:
- 0.15529227650793787
- -0.051118937498574886
- -0.1330042687765835
- 0.08940634865136465
- 0.2085327333382805
- 0.12695162937126275
- -0.10944965810364879
- 0.0
- 0.0
effort:
- 0.19409656524658203
- -27.996797561645508
- -0.5702323317527771
- 22.875226974487305
- 1.1728092432022095
- 2.4895174503326416
- -0.348014235496521
- 0.0
- 0.0
---
header:
  stamp:
    sec: 1756279861
    nanosec: 426601417
  frame_id: ''
name:
- fr3_joint1
- fr3_joint2
- fr3_joint3
- fr3_joint4
- fr3_joint5
- fr3_joint6
- fr3_joint7
- fr3_finger_joint1
- fr3_finger_joint2
position:
- 0.5314743501941862
- -0.017240686686342502
- -0.4616944274960644
- -1.5548070783151513
- 0.5771710455207261
- 2.28185820091518
- -0.3060527378799314
- 0.0
- 0.0
velocity:
- 0.1658727062650435
- -0.05705558948494651
- -0.14448941201874582
- 0.07838917539040238
- 0.21526663185361986
- 0.139490526523056
- -0.10760836343315619
- 0.0
- 0.0
effort:
- 0.705876350402832
- -28.072175979614258
- -0.1060599684715271
- 22.950605392456055
- 1.1599918603897095
- 2.4501497745513916
- -0.327872633934021
- 0.0
- 0.0
---
header:
  stamp:
    sec: 1756279861
    nanosec: 459799444
  frame_id: ''
name:
- fr3_joint1
- fr3_joint2
- fr3_joint3
- fr3_joint4
- fr3_joint5
- fr3_joint6
- fr3_joint7
- fr3_finger_joint1
- fr3_finger_joint2
position:
- 0.5368649724654392
- -0.019265556263584508
- -0.46670554102596784
