header:
  stamp:
    sec: 1756277900
    nanosec: 468458962
  frame_id: ''
name:
- fr3_joint1
- fr3_joint2
- fr3_joint3
- fr3_joint4
- fr3_joint5
- fr3_joint6
- fr3_joint7
- fr3_finger_joint1
- fr3_finger_joint2
position:
- -0.29138488784188477
- 0.3297683210067952
- 0.3072341454282096
- -1.7144399166777116
- 0.04777434031943468
- 2.6007865109410564
- 0.9200085951719512
- 0.0
- 0.0
velocity:
- -0.08554197313148428
- 0.06719151863828782
- 0.15426484209881927
- -0.009198825793874193
- 0.14800930330097734
- -0.03421275629970812
- -0.08437887588352044
- 0.0
- 0.0
effort:
- -0.670771598815918
- -39.339263916015625
- 3.333576202392578
- 22.716535568237305
- 1.1664005517959595
- 2.5902254581451416
- -0.252799391746521
- 0.0
- 0.0
---
header:
  stamp:
    sec: 1756277900
    nanosec: 502128322
  frame_id: ''
name:
- fr3_joint1
- fr3_joint2
- fr3_joint3
- fr3_joint4
- fr3_joint5
- fr3_joint6
- fr3_joint7
- fr3_finger_joint1
- fr3_finger_joint2
position:
- -0.29448615888362034
- 0.3320112126615712
- 0.31266327205230515
- -1.7149271748360997
- 0.05264662158321965
- 2.5995590071673575
- 0.9172535552218706
- 0.0
- 0.0
velocity:
- -0.09684181937961651
- 0.06798387280121036
- 0.166786336031113
- -0.018135623020923107
- 0.14829765065158174
- -0.03619711658165225
- -0.07768905649628587
- 0.0
- 0.0
effort:
- -0.750117301940918
- -39.541595458984375
- 3.412921905517578
- 22.768110275268555
- 1.1535831689834595
- 2.5902254581451416
- -0.293998122215271
- 0.0
- 0.0
---
header:
  stamp:
    sec: 1756277900
    nanosec: 535015662
  frame_id: ''
name:
- fr3_joint1
- fr3_joint2
- fr3_joint3
- fr3_joint4
- fr3_joint5
- fr3_joint6
- fr3_joint7
- fr3_finger_joint1
- fr3_finger_joint2
position:
- -0.29768871352179405
- 0.33421744655996943
- 0.3181424695679026
- -1.7155344733084261
- 0.05764265865013784
- 2.5982372298088494
- 0.9147614504123167
- 0.0
- 0.0
velocity:
- -0.09515475756139438
- 0.06619299362786601
- 0.16681064681101487
- -0.019311816845940823
- 0.14322235817690576
- -0.04168848512187617
- -0.07951667209526758
- 0.0
- 0.0
effort:
- -0.722346305847168
- -39.517791748046875
- 3.543842315673828
- 23.006147384643555
- 1.1929508447647095
- 2.6231844425201416
- -0.260123610496521
- 0.0
- 0.0
---
header:
  stamp:
    sec: 1756277900
    nanosec: 568380381
  frame_id: ''
name:
- fr3_joint1
- fr3_joint2
- fr3_joint3
- fr3_joint4
- fr3_joint5
- fr3_joint6
- fr3_joint7
- fr3_finger_joint1
- fr3_finger_joint2
position:
- -0.30084946495641385
- 0.33649619791617474
- 0.32367115100349064
- -1.7160640260124094
- 0.06251854286647927
- 2.5967981049438844
- 0.9122787483688278
- 0.0
- 0.0
velocity:
- -0.09640200420033969
- 0.06953928661772144
- 0.16317145881972933
- -0.014608862271437054
- 0.15036755352759537
- -0.042885200607011044
- -0.07346277439186932
- 0.0
- 0.0
effort:
- -0.543818473815918
- -39.033782958984375
- 3.750141143798828
- 22.795881271362305
- 1.1728092432022095
- 2.5563509464263916
- -0.266532301902771
- 0.0
- 0.0
---
header:
  stamp:
    sec: 1756277900
    nanosec: 601676681
  frame_id: ''
name:
- fr3_joint1
- fr3_joint2
- fr3_joint3
- fr3_joint4
- fr3_joint5
- fr3_joint6
- fr3_joint7
- fr3_finger_joint1
- fr3_finger_joint2
position:
- -0.3038082243108374
- 0.3388596812448627
- 0.32867522326521015
- -1.7164736881094491
- 0.06762894868153264
- 2.59541187638605
- 0.9094686401635854
- 0.0
- 0.0
velocity:
- -0.08891410498033904
- 0.07381841238769205
- 0.1504631325622066
- -0.012419659333326677
- 0.1569604827452423
- -0.04012687322496466
- -0.09254076138663024
- 0.0
- 0.0
effort:
- -0.773921012878418
- -39.263885498046875
- 3.543842315673828
- 22.716535568237305
- 1.1471744775772095
- 2.5700838565826416
- -0.260123610496521
- 0.0
- 0.0
---
header:
  stamp:
    sec: 1756277900
    nanosec: 634907939
  frame_id: ''
name:
- fr3_joint1
- fr3_joint2
- fr3_joint3
- fr3_joint4
- fr3_joint5
- fr3_joint6
- fr3_joint7
- fr3_finger_joint1
- fr3_finger_joint2
position:
- -0.3067328506229814
- 0.34134682523424437
- 0.3337680060051911
- -1.7169716684249314
- 0.07265071450344394
- 2.593972620515426
- 0.9063060098809674
- 0.0
- 0.0
velocity:
- -0.0895942368067896
- 0.07411735066741755
- 0.15573520268998622
- -0.014691804104217733
- 0.14877886767799384
- -0.04504519229650826
- -0.09679131584250929
- 0.0
- 0.0
effort:
- -0.750117301940918
- -39.442413330078125
- 3.595417022705078
- 22.637189865112305
- 1.1599918603897095
- 2.5700838565826416
- -0.280265212059021
- 0.0
- 0.0
---
header:
  stamp:
    sec: 1756277900
    nanosec: 668487649
  frame_id: ''
name:
- fr3_joint1
- fr3_joint2
- fr3_joint3
- fr3_joint4
- fr3_joint5
- fr3_joint6
- fr3_joint7
- fr3_finger_joint1
- fr3_finger_joint2
position:
- -0.31009660791942395
- 0.3438464117379243
- 0.33923249078296386
- -1.7176354741557258
- 0.07768096310196408
- 2.5924838168913027
- 0.9027837300155022
- 0.0
- 0.0
velocity:
- -0.09991547239841256
- 0.07564459997038857
- 0.15716266273982263
- -0.020538907730876202
- 0.14513866542127365
- -0.04188677775073478
- -0.10087669832592298
- 0.0
- 0.0
effort:
- -0.520014762878418
- -39.823272705078125
- 3.956439971923828
- 22.926801681518555
- 1.1013981103897095
- 2.5627596378326416
- -0.348014235496521
- 0.0
- 0.0
---
header:
  stamp:
    sec: 1756277900
    nanosec: 701641833
  frame_id: ''
name:
- fr3_joint1
- fr3_joint2
- fr3_joint3
- fr3_joint4
- fr3_joint5
- fr3_joint6
- fr3_joint7
- fr3_finger_joint1
- fr3_finger_joint2
position:
- -0.3132989003331672
- 0.3462200330260995
- 0.344315671737327
- -1.7183057150987913
- 0.08236369191553086
- 2.591052435525643
- 0.8997592720092701
- 0.0
- 0.0
velocity:
- -0.09801096874447643
- 0.07165030547526534
- 0.1593907711323929
- -0.02208797473060244
- 0.14240470699799637
- -0.04381185252314685
- -0.08440419942746086
- 0.0
- 0.0
effort:
- -0.670771598815918
- -39.950225830078125
- 3.956439971923828
- 22.978376388549805
- 1.1206241846084595
- 2.6030428409576416
- -0.260123610496521
- 0.0
- 0.0
---
header:
  stamp:
    sec: 1756277900
    nanosec: 734962844
  frame_id: ''
name:
- fr3_joint1
- fr3_joint2
- fr3_joint3
- fr3_joint4
- fr3_joint5
- fr3_joint6
- fr3_joint7
- fr3_finger_joint1
- fr3_finger_joint2
position:
- -0.31643764303998756
- 0.34853526578064126
- 0.3495568012887463
- -1.7190907375546856
- 0.0872916075089349
- 2.5895240971531206
- 0.897102415475593
- 0.0
- 0.0
velocity:
- -0.10027483199478338
- 0.0677656314640965
- 0.15862036679875935
- -0.025844497734099473
- 0.14605697076721533
- -0.043989061294459696
- -0.07226657631630198
- 0.0
- 0.0
effort:
- -0.36529064178466797
- -39.974029541015625
- 4.345233917236328
- 23.029951095581055
- 1.1334415674209595
- 2.5700838565826416
- -0.293998122215271
- 0.0
- 0.0
---
header:
  stamp:
    sec: 1756277900
    nanosec: 768233622
  frame_id: ''
name:
- fr3_joint1
- fr3_joint2
- fr3_joint3
- fr3_joint4
- fr3_joint5
- fr3_joint6
- fr3_joint7
- fr3_finger_joint1
- fr3_finger_joint2
position:
- -0.31957978252305524
- 0.350789476342458
- 0.3545710984666087
- -1.7197696550231103
- 0.09209934363038606
- 2.588176158399241
- 0.8946598891839059
- 0.0
- 0.0
velocity:
- -0.09400799290986343
- 0.06989049102958145
- 0.15088362310624595
- -0.01920531337246344
- 0.15389850332174898
- -0.03997472306047186
- -0.07458462534548257
- 0.0
- 0.0
effort:
- -0.571589469909668
- -39.620941162109375
- 4.138935089111328
- 22.847455978393555
- 1.0949894189834595
- 2.5627596378326416
- -0.293998122215271
- 0.0
- 0.0
---
header:
  stamp:
    sec: 1756277900
    nanosec: 801626844
  frame_id: ''
name:
- fr3_joint1
- fr3_joint2
- fr3_joint3
- fr3_joint4
- fr3_joint5
- fr3_joint6
- fr3_joint7
- fr3_finger_joint1
- fr3_finger_joint2
position:
- -0.32288899788060005
- 0.3531515632154994
- 0.35999503210183637
- -1.7203321919197527
- 0.0971807292350129
- 2.586843210247455
- 0.8919907556621667
- 0.0
- 0.0
velocity:
- -0.09499676660417013
- 0.07122317903029152
- 0.16130524101507887
- -0.016733321591497895
- 0.14544477751823326
- -0.041710020582123836
- -0.07901103595823851
- 0.0
- 0.0
effort:
- -1.027827262878418
- -39.620941162109375
- 3.773944854736328
- 22.819684982299805
- 1.1206241846084595
- 2.5627596378326416
- -0.2390664666891098
- 0.0
- 0.0
---
header:
  stamp:
    sec: 1756277900
    nanosec: 835135370
  frame_id: ''
name:
- fr3_joint1
- fr3_joint2
- fr3_joint3
- fr3_joint4
- fr3_joint5
- fr3_joint6
- fr3_joint7
- fr3_finger_joint1
- fr3_finger_joint2
position:
- -0.32618524876870264
- 0.3554575956898361
- 0.3655102736411862
- -1.720913850847409
- 0.10221900621394721
- 2.585627570255617
- 0.8888344638062297
- 0.0
- 0.0
velocity:
- -0.09863976711831468
- 0.06919245321761404
- 0.15930848752763865
- -0.016308568775966006
- 0.15456334659584925
- -0.03772029489208999
- -0.10109615290988563
- 0.0
- 0.0
effort:
- -0.722346305847168
- -39.569366455078125
- 4.059589385986328
- 22.899030685424805
- 1.0949894189834595
- 2.5700838565826416
- -0.2051919549703598
- 0.0
- 0.0
---
header:
  stamp:
    sec: 1756277900
    nanosec: 868397357
  frame_id: ''
name:
- fr3_joint1
- fr3_joint2
- fr3_joint3
- fr3_joint4
- fr3_joint5
- fr3_joint6
- fr3_joint7
- fr3_finger_joint1
- fr3_finger_joint2
position:
- -0.3290993481222653
- 0.3576739947307552
- 0.3705089642258567
- -1.7214253165271372
- 0.10728028408171254
- 2.58439834348859
- 0.8854643366237841
- 0.0
- 0.0
velocity:
- -0.09105727338948486
- 0.06799691373400069
- 0.15837737299709118
- -0.017059560834651204
- 0.15221741653465728
- -0.03659770963437091
- -0.10412621543776279
- 0.0
- 0.0
effort:
- -0.646967887878418
- -39.823272705078125
- 4.396808624267578
- 22.875226974487305
- 1.0162540674209595
- 2.5563509464263916
- -0.2326577752828598
- 0.0
- 0.0
---
header:
  stamp:
    sec: 1756277900
    nanosec: 901678316
  frame_id: ''
name:
- fr3_joint1
- fr3_joint2
- fr3_joint3
- fr3_joint4
- fr3_joint5
- fr3_joint6
- fr3_joint7
- fr3_finger_joint1
- fr3_finger_joint2
position:
- -0.3321131409186519
- 0.359913144949143
- 0.3756936760640657
- -1.7219627021199773
- 0.11236958504071588
- 2.5830377290056976
- 0.8822909176550172
- 0.0
- 0.0
velocity:
- -0.09301794527088118
- 0.06725673506038173
- 0.15333658308829118
- -0.014775294076874576
- 0.15533393084145464
- -0.04028426705686864
- -0.0838974365082659
- 0.0
- 0.0
effort:
- -0.31371593475341797
- -39.696319580078125
- 4.837177276611328
- 22.926801681518555
- 1.0290714502334595
- 2.5563509464263916
- -0.286673903465271
- 0.0
- 0.0
---
header:
  stamp:
    sec: 1756277900
    nanosec: 934947981
  frame_id: ''
name:
- fr3_joint1
- fr3_joint2
- fr3_joint3
- fr3_joint4
- fr3_joint5
- fr3_joint6
- fr3_joint7
- fr3_finger_joint1
- fr3_finger_joint2
position:
- -0.3355143811748522
- 0.3622416883752676
- 0.380904624775472
- -1.7223509093904512
- 0.11725971194463099
- 2.5817162229723665
- 0.8795031923043837
- 0.0
- 0.0
velocity:
- -0.10003870618257951
- 0.07149929330647792
- 0.15002881246211255
- -0.009342230490793618
- 0.14245099158673896
- -0.03796440869208477
- -0.08237364561434042
- 0.0
- 0.0
effort:
- -0.670771598815918
- -39.493988037109375
- 4.396808624267578
- 22.744306564331055
- 1.0162540674209595
- 2.5563509464263916
- -0.300406813621521
- 0.0
- 0.0
---
header:
  stamp:
    sec: 1756277900
    nanosec: 968643651
  frame_id: ''
name:
- fr3_joint1
- fr3_joint2
- fr3_joint3
- fr3_joint4
- fr3_joint5
- fr3_joint6
- fr3_joint7
- fr3_finger_joint1
- fr3_finger_joint2
position:
- -0.3388617115453048
- 0.36458407710177204
- 0.38616221096312026
- -1.7227101581757063
- 0.12201098071911703
- 2.5804927636927726
- 0.8767321774642863
- 0.0
- 0.0
velocity:
- -0.09590290099674584
- 0.07189100633714562
- 0.15858823487032733
- -0.011208314189532697
- 0.14703583689725472
- -0.035703152172267535
- -0.07411139822929678
- 0.0
- 0.0
effort:
- -0.750117301940918
- -39.287689208984375
- 4.420612335205078
- 22.613386154174805
- 1.0418888330459595
- 2.5233919620513916
- -0.293998122215271
- 0.0
- 0.0
---
header:
  stamp:
    sec: 1756277901
    nanosec: 2177026
  frame_id: ''
name:
- fr3_joint1
- fr3_joint2
- fr3_joint3
- fr3_joint4
- fr3_joint5
- fr3_joint6
- fr3_joint7
- fr3_finger_joint1
- fr3_finger_joint2
position:
- -0.3418923548752848
- 0.36688147847363056
- 0.39125828892986875
- -1.7230950180488407
- 0.12691647956246344
- 2.5793582634086802
- 0.8742843425551668
- 0.0
- 0.0
velocity:
- -0.09162305634348297
- 0.07150104603990469
- 0.15291279192566104
- -0.014448540994754174
- 0.1454975106958051
- -0.032787297571765774
- -0.0780513536303297
- 0.0
- 0.0
effort:
- -0.28991222381591797
- -39.541595458984375
- 4.888751983642578
- 22.613386154174805
- 1.0098453760147095
- 2.4968416690826416
- -0.280265212059021
- 0.0
- 0.0
---
header:
  stamp:
    sec: 1756277901
    nanosec: 34967219
  frame_id: ''
name:
- fr3_joint1
- fr3_joint2
- fr3_joint3
- fr3_joint4
- fr3_joint5
- fr3_joint6
- fr3_joint7
- fr3_finger_joint1
- fr3_finger_joint2
position:
- -0.34491137984349385
- 0.3692443687281501
- 0.39650164365992907
- -1.723587747219741
- 0.1319005540071844
- 2.57805665317005
- 0.8717497179545548
- 0.0
- 0.0
velocity:
- -0.09018094896741964
- 0.07043785010376197
- 0.16008392001291513
- -0.016231073500003416
- 0.15259886562938269
- -0.041298635897917824
- -0.08483835696742664
- 0.0
- 0.0
effort:
- -0.39306163787841797
- -39.644744873046875
- 4.964130401611328
- 22.637189865112305
- 1.0098453760147095
- 2.5160677433013916
- -0.286673903465271
- 0.0
- 0.0
---
header:
  stamp:
    sec: 1756277901
    nanosec: 68267016
  frame_id: ''
name:
- fr3_joint1
- fr3_joint2
- fr3_joint3
- fr3_joint4
- fr3_joint5
- fr3_joint6
- fr3_joint7
- fr3_finger_joint1
- fr3_finger_joint2
position:
- -0.3480551571341242
- 0.3715048236387325
- 0.40184667151354403
- -1.724221361751993
- 0.13684046571301722
- 2.576528274872699
- 0.8688339989278274
- 0.0
- 0.0
velocity:
- -0.10308526125635298
- 0.06952059278774018
- 0.16782942485751767
- -0.022092830502056456
- 0.14743369445724494
- -0.048895078823801626
- -0.09255309018484834
- 0.0
- 0.0
effort:
- -0.670771598815918
- -39.898651123046875
- 4.888751983642578
- 22.819684982299805
- 1.0098453760147095
- 2.5298006534576416
- -0.266532301902771
- 0.0
- 0.0
---
header:
  stamp:
    sec: 1756277901
    nanosec: 101602234
  frame_id: ''
name:
- fr3_joint1
- fr3_joint2
- fr3_joint3
- fr3_joint4
- fr3_joint5
- fr3_joint6
- fr3_joint7
- fr3_finger_joint1
- fr3_finger_joint2
position:
- -0.35140197153104435
- 0.3738458907500357
- 0.40721909243814614
- -1.7249083291659733
- 0.14171527265575237
- 2.574935710524072
- 0.8654738959877826
- 0.0
- 0.0
velocity:
- -0.09523897899687764
- 0.06870655909742127
- 0.15712989694044946
- -0.02008161517030029
- 0.15137923486628094
- -0.046009800933842514
- -0.10417046766151838
- 0.0
- 0.0
effort:
- -0.976252555847168
- -40.053375244140625
- 4.706256866455078
- 22.875226974487305
- 1.0418888330459595
- 2.5362093448638916
- -0.306815505027771
- 0.0
- 0.0
---
header:
  stamp:
    sec: 1756277901
    nanosec: 135067436
  frame_id: ''
name:
- fr3_joint1
- fr3_joint2
- fr3_joint3
- fr3_joint4
- fr3_joint5
- fr3_joint6
- fr3_joint7
- fr3_finger_joint1
- fr3_finger_joint2
position:
- -0.3544066512267609
- 0.376086627741905
- 0.4124412398544179
- -1.725524377722078
- 0.14687521007947227
- 2.573319214008989
- 0.8622241921056389
- 0.0
- 0.0
velocity:
- -0.08391029640345991
- 0.0648891757987131
- 0.15093738549280675
- -0.01472111988477091
- 0.15038363646135616
- -0.04757515526119815
- -0.09130056698645873
- 0.0
- 0.0
effort:
- -0.698542594909668
- -39.517791748046875
- 4.888751983642578
- 22.819684982299805
- 1.0098453760147095
- 2.5499422550201416
- -0.260123610496521
- 0.0
- 0.0
---
header:
  stamp:
    sec: 1756277901
    nanosec: 168441135
  frame_id: ''
name:
- fr3_joint1
- fr3_joint2
- fr3_joint3
- fr3_joint4
- fr3_joint5
- fr3_joint6
- fr3_joint7
- fr3_finger_joint1
- fr3_finger_joint2
position:
- -0.3574490705733583
- 0.3784143889236386
- 0.41777765817925144
- -1.7259360945936988
- 0.15197966967709287
- 2.571999452221782
- 0.8593375014698693
- 0.0
- 0.0
velocity:
- -0.09130388828261751
- 0.06999775792241804
- 0.15616142798337446
- -0.01166629171628665
- 0.15222886598469773
- -0.03807318806741726
- -0.08619656956066285
- 0.0
- 0.0
effort:
- -0.39306163787841797
- -39.668548583984375
- 5.222003936767578
- 22.716535568237305
- 0.9832951426506042
- 2.4831087589263916
- -0.280265212059021
- 0.0
- 0.0
---
header:
  stamp:
    sec: 1756277901
    nanosec: 202233547
  frame_id: ''
name:
- fr3_joint1
- fr3_joint2
- fr3_joint3
- fr3_joint4
- fr3_joint5
- fr3_joint6
- fr3_joint7
- fr3_finger_joint1
- fr3_finger_joint2
position:
- -0.36046614271345756
- 0.3806475479126787
- 0.42283684547245415
- -1.7262729814309983
- 0.1568295816096007
- 2.5708008160570293
- 0.856708441886571
- 0.0
- 0.0
velocity:
- -0.10326968175842532
- 0.06900539924831091
- 0.16730749394507302
- -0.00977045427594399
- 0.14581644462955182
- -0.03785613291123171
- -0.08168878051485758
- 0.0
- 0.0
effort:
- -0.722346305847168
- -39.668548583984375
- 5.095050811767578
- 22.585615158081055
- 0.9503361582756042
- 2.5160677433013916
- -0.327872633934021
- 0.0
- 0.0
---
header:
  stamp:
    sec: 1756277901
    nanosec: 234913691
  frame_id: ''
name:
- fr3_joint1
- fr3_joint2
- fr3_joint3
- fr3_joint4
- fr3_joint5
- fr3_joint6
- fr3_joint7
- fr3_finger_joint1
- fr3_finger_joint2
position:
- -0.3638126014381042
- 0.38300844614827245
- 0.42818982855187726
- -1.7266148579693603
- 0.16163252096405173
- 2.569561926712193
- 0.8538358576154573
- 0.0
- 0.0
velocity:
- -0.10358411293103467
- 0.07016571186809115
- 0.1579392385036977
- -0.009949818781785049
- 0.14886574322506574
- -0.033590387746249416
- -0.08461738946173918
- 0.0
- 0.0
effort:
- -0.49224376678466797
- -39.874847412109375
- 5.483844757080078
- 22.637189865112305
- 0.9961125254631042
- 2.4565584659576416
- -0.314139723777771
- 0.0
- 0.0
---
header:
  stamp:
    sec: 1756277901
    nanosec: 268506820
  frame_id: ''
name:
- fr3_joint1
- fr3_joint2
- fr3_joint3
- fr3_joint4
- fr3_joint5
- fr3_joint6
- fr3_joint7
- fr3_finger_joint1
- fr3_finger_joint2
position:
- -0.3671719163453879
- 0.3853569965279338
- 0.43335024737477623
- -1.7270416664592851
- 0.16660114493559713
- 2.568272941372714
- 0.8510079254451381
- 0.0
- 0.0
velocity:
- -0.09385473640916432
- 0.06709967684920949
- 0.1468464071876727
- -0.012628020063158723
- 0.14614100295926208
- -0.03575979503394842
- -0.08621808895077622
- 0.0
- 0.0
effort:
- -0.41686534881591797
- -39.720123291015625
- 5.404499053955078
- 22.585615158081055
- 0.9640690684318542
- 2.4767000675201416
- -0.272940993309021
- 0.0
- 0.0
---
header:
  stamp:
    sec: 1756277901
    nanosec: 301667075
  frame_id: ''
name:
- fr3_joint1
- fr3_joint2
- fr3_joint3
- fr3_joint4
- fr3_joint5
- fr3_joint6
- fr3_joint7
- fr3_finger_joint1
- fr3_finger_joint2
position:
- -0.3701275016321058
- 0.38750919818405033
- 0.43833176575195826
- -1.727507435489506
- 0.1714379875358994
- 2.5671324077540576
- 0.8479318951353972
- 0.0
- 0.0
velocity:
- -0.09115249191958426
- 0.0640900681843635
- 0.15583696599082258
- -0.014259679262495429
- 0.1531514995957476
- -0.032284070952443504
- -0.10059773321662974
- 0.0
- 0.0
effort:
- -0.595393180847168
- -39.541595458984375
- 5.380695343017578
- 22.557844161987305
- 0.9704777598381042
- 2.4428255558013916
- -0.2390664666891098
- 0.0
- 0.0
---
header:
  stamp:
    sec: 1756277901
    nanosec: 334938254
  frame_id: ''
name:
- fr3_joint1
- fr3_joint2
- fr3_joint3
- fr3_joint4
- fr3_joint5
- fr3_joint6
- fr3_joint7
- fr3_finger_joint1
- fr3_finger_joint2
position:
- -0.37332145534812
- 0.38981365286473246
- 0.443717033385675
- -1.727908666610605
- 0.17651100723612584
- 2.5660464631501085
- 0.8444704014513449
- 0.0
- 0.0
velocity:
- -0.10066074509823807
- 0.0709510533519623
- 0.16169764657513597
- -0.010535481234264399
- 0.15161111686332915
- -0.03224369505740394
- -0.1025517040739794
- 0.0
- 0.0
effort:
- -0.773921012878418
- -39.061553955078125
- 5.432270050048828
- 22.323774337768555
- 0.9045597910881042
- 2.4162752628326416
- -0.252799391746521
- 0.0
- 0.0
---
header:
  stamp:
    sec: 1756277901
    nanosec: 368252696
  frame_id: ''
name:
- fr3_joint1
- fr3_joint2
- fr3_joint3
- fr3_joint4
- fr3_joint5
- fr3_joint6
- fr3_joint7
- fr3_finger_joint1
- fr3_finger_joint2
position:
- -0.37656809118016243
- 0.39215847353796246
- 0.4491291788888502
- -1.7283291892986328
- 0.18147084652736897
- 2.5649594773752713
- 0.8414886237016367
- 0.0
- 0.0
velocity:
- -0.09793943580398992
- 0.07067519239585866
- 0.16701549243836453
- -0.015158808718503407
- 0.1575738193103246
- -0.032357254126793716
- -0.08537401018174755
- 0.0
- 0.0
effort:
- -0.952448844909668
- -39.287689208984375
- 5.325153350830078
- 22.454694747924805
- 0.9439274668693542
- 2.4235994815826416
- -0.334281325340271
- 0.0
- 0.0
---
header:
  stamp:
    sec: 1756277901
    nanosec: 401578330
  frame_id: ''
name:
- fr3_joint1
- fr3_joint2
- fr3_joint3
- fr3_joint4
- fr3_joint5
- fr3_joint6
- fr3_joint7
- fr3_finger_joint1
- fr3_finger_joint2
position:
- -0.379764548175142
- 0.39456570331268803
- 0.4545549963123564
- -1.72884621055772
- 0.1865702160901783
- 2.563743496132733
- 0.8386920806782105
- 0.0
- 0.0
velocity:
- -0.09438867927045463
- 0.07262231719923896
- 0.1531032193957398
- -0.015321259849756191
- 0.1450832282282176
- -0.03687109490187799
- -0.07825656331509298
- 0.0
- 0.0
effort:
- -0.41686534881591797
- -39.442413330078125
- 5.765522003173828
- 22.454694747924805
- 0.9311100840568542
- 2.4565584659576416
- -0.300406813621521
- 0.0
- 0.0
---
header:
  stamp:
    sec: 1756277901
    nanosec: 434885677
  frame_id: ''
name:
- fr3_joint1
- fr3_joint2
- fr3_joint3
- fr3_joint4
- fr3_joint5
- fr3_joint6
- fr3_joint7
- fr3_finger_joint1
- fr3_finger_joint2
position:
- -0.3828433166884124
- 0.39699410186023704
- 0.4596125520075356
- -1.7293639019536944
- 0.19173634068808965
- 2.562516122787037
- 0.8361643023265232
- 0.0
- 0.0
velocity:
- -0.08958472522638186
- 0.07236008376626213
- 0.1483903863337157
- -0.015849766961140727
- 0.15267259321284385
- -0.03851965406618071
- -0.08146988060983314
- 0.0
- 0.0
effort:
- -0.595393180847168
- -39.720123291015625
- 5.765522003173828
- 22.482465744018555
- 0.8981510996818542
- 2.4565584659576416
- -0.2463906854391098
- 0.0
- 0.0
---
header:
  stamp:
    sec: 1756277901
    nanosec: 468301579
  frame_id: ''
name:
- fr3_joint1
- fr3_joint2
- fr3_joint3
- fr3_joint4
- fr3_joint5
- fr3_joint6
- fr3_joint7
- fr3_finger_joint1
- fr3_finger_joint2
position:
- -0.3859175644939512
- 0.39935863216469997
- 0.46470747424958914
- -1.7299238591381578
- 0.19662160905567155
- 2.5612368183711474
- 0.8335608025253156
- 0.0
- 0.0
velocity:
- -0.0926529951261345
- 0.06820512594553244
- 0.1510995513001143
- -0.017139995752450874
- 0.13641398519548661
- -0.03831952603895942
- -0.07792502089671692
- 0.0
- 0.0
effort:
- -0.722346305847168
- -39.668548583984375
- 5.868671417236328
- 22.585615158081055
- 0.9173771739006042
- 2.4501497745513916
- -0.252799391746521
- 0.0
- 0.0
---
header:
  stamp:
    sec: 1756277901
    nanosec: 501679879
  frame_id: ''
name:
- fr3_joint1
- fr3_joint2
- fr3_joint3
- fr3_joint4
- fr3_joint5
- fr3_joint6
- fr3_joint7
- fr3_finger_joint1
- fr3_finger_joint2
position:
- -0.38922223178985543
- 0.4015460973565809
- 0.46987898046143184
- -1.730533218748303
- 0.20120742472691805
- 2.5599718273865366
- 0.8307007814637649
- 0.0
- 0.0
velocity:
- -0.1002844965265453
- 0.06693578891291777
- 0.15711463944918097
- -0.017995791262712228
- 0.151335203107235
- -0.038664128744570196
- -0.09278974763983035
- 0.0
- 0.0
effort:
- -0.46844005584716797
- -39.466217041015625
- 6.027362823486328
- 22.664960861206055
- 0.9109684824943542
- 2.4501497745513916
- -0.252799391746521
- 0.0
- 0.0
---
header:
  stamp:
    sec: 1756277901
    nanosec: 534938351
  frame_id: ''
name:
- fr3_joint1
- fr3_joint2
- fr3_joint3
- fr3_joint4
- fr3_joint5
- fr3_joint6
- fr3_joint7
- fr3_finger_joint1
- fr3_finger_joint2
position:
- -0.3925628900830035
- 0.40381541936509896
- 0.47514703771224687
- -1.730955630403113
- 0.2062554674613117
- 2.5586281451373627
- 0.827475735059688
- 0.0
- 0.0
velocity:
- -0.09676332699745469
- 0.0678574295608951
- 0.16063063942786165
- -0.010028758877159517
- 0.14799100836322013
- -0.04055660793830679
- -0.10025262298485536
- 0.0
- 0.0
effort:
- -0.31371593475341797
- -39.287689208984375
- 6.154315948486328
- 22.403120040893555
- 0.8651921153068542
- 2.4300081729888916
- -0.272940993309021
- 0.0
- 0.0
---
header:
  stamp:
    sec: 1756277901
    nanosec: 568261343
  frame_id: ''
name:
- fr3_joint1
- fr3_joint2
- fr3_joint3
- fr3_joint4
- fr3_joint5
- fr3_joint6
- fr3_joint7
- fr3_finger_joint1
- fr3_finger_joint2
position:
- -0.39551460643618813
- 0.40601876939116477
- 0.4802048531750472
- -1.7313110485119365
- 0.2111153752527175
- 2.5573059011504102
- 0.8240561997939045
- 0.0
- 0.0
velocity:
- -0.09423027455956269
- 0.06992508978971615
- 0.15766230200113712
- -0.0136130194428466
- 0.1542433212970055
- -0.04090573830627457
- -0.10229380618658976
- 0.0
- 0.0
effort:
- -0.36529064178466797
- -39.339263916015625
- 6.439960479736328
- 22.296003341674805
- 0.9109684824943542
- 2.3769075870513916
- -0.2463906854391098
- 0.0
- 0.0
---
header:
  stamp:
    sec: 1756277901
    nanosec: 601663890
  frame_id: ''
name:
- fr3_joint1
- fr3_joint2
- fr3_joint3
- fr3_joint4
- fr3_joint5
- fr3_joint6
- fr3_joint7
- fr3_finger_joint1
- fr3_finger_joint2
position:
- -0.3987636363422503
- 0.4083341802021073
- 0.4854539495519273
- -1.7317442348764067
- 0.21620505840604326
- 2.555801586115879
- 0.8210096270490262
- 0.0
- 0.0
velocity:
- -0.09738889675093396
- 0.07015689942858455
- 0.15590445394110752
- -0.011515744216191384
- 0.14496019608218902
- -0.045019744353146304
- -0.08187148533783889
- 0.0
- 0.0
effort:
- -0.722346305847168
- -39.363067626953125
- 6.051166534423828
- 22.244428634643555
- 0.8651921153068542
- 2.3833162784576416
- -0.2326577752828598
- 0.0
- 0.0
---
header:
  stamp:
    sec: 1756277901
    nanosec: 634943624
  frame_id: ''
name:
- fr3_joint1
- fr3_joint2
- fr3_joint3
- fr3_joint4
- fr3_joint5
- fr3_joint6
- fr3_joint7
- fr3_finger_joint1
- fr3_finger_joint2
position:
- -0.4020019280893131
- 0.4105959840976729
- 0.4908663109505236
- -1.7323221216762368
- 0.22119747470823045
- 2.5542847904210766
- 0.818397297097262
- 0.0
- 0.0
velocity:
- -0.09401017427419224
- 0.06523765415284052
- 0.16171421678397987
- -0.018174040595835696
- 0.15196184095024173
- -0.04919061651793422
- -0.07511618198725957
- 0.0
- 0.0
effort:
- -0.773921012878418
- -39.212310791015625
- 5.999591827392578
- 22.403120040893555
- 0.8789250254631042
- 2.4364168643951416
- -0.272940993309021
- 0.0
- 0.0
---
header:
  stamp:
    sec: 1756277901
    nanosec: 668419250
  frame_id: ''
name:
- fr3_joint1
- fr3_joint2
- fr3_joint3
- fr3_joint4
- fr3_joint5
- fr3_joint6
- fr3_joint7
- fr3_finger_joint1
- fr3_finger_joint2
position:
- -0.40521787113477864
- 0.41283440570270746
- 0.4963885869385364
- -1.7329646127570004
- 0.22634484010539516
- 2.552756614740003
- 0.8158721306589704
- 0.0
- 0.0
velocity:
- -0.09341221062806325
- 0.06787015290349252
- 0.1611238463250826
- -0.01943006970112819
- 0.14958181479864444
- -0.0446640243948603
- -0.07838314858710486
- 0.0
- 0.0
effort:
- -0.646967887878418
- -39.236114501953125
- 6.233661651611328
- 22.375349044799805
- 0.8716008067131042
- 2.3695833683013916
- -0.2390664666891098
- 0.0
- 0.0
---
header:
  stamp:
    sec: 1756277901
    nanosec: 702083336
  frame_id: ''
name:
- fr3_joint1
- fr3_joint2
- fr3_joint3
- fr3_joint4
- fr3_joint5
- fr3_joint6
- fr3_joint7
- fr3_finger_joint1
- fr3_finger_joint2
position:
- -0.4081046462815198
- 0.41501239637997533
- 0.5014727149671555
- -1.7334598370820251
- 0.23114652134089744
- 2.551229151290878
- 0.8132817880964637
- 0.0
- 0.0
velocity:
- -0.08832815769530693
- 0.0693505597737443
- 0.16002183533653896
- -0.0148331682521674
- 0.14988876892733255
- -0.043750659877632804
- -0.08434661750577178
- 0.0
- 0.0
effort:
- -0.646967887878418
- -39.009979248046875
- 6.491535186767578
- 22.323774337768555
- 0.8651921153068542
- 2.3503572940826416
- -0.2125161737203598
- 0.0
- 0.0
---
header:
  stamp:
    sec: 1756277901
    nanosec: 734878662
  frame_id: ''
name:
- fr3_joint1
- fr3_joint2
- fr3_joint3
- fr3_joint4
- fr3_joint5
- fr3_joint6
- fr3_joint7
- fr3_finger_joint1
- fr3_finger_joint2
position:
- -0.4110919996775872
- 0.4173997299605116
- 0.5067448990275695
- -1.7339023775119724
- 0.23604167419577868
- 2.5497999544908363
- 0.8101702047114635
- 0.0
- 0.0
velocity:
- -0.09152073036199601
- 0.07377914198034595
- 0.1570999110816482
- -0.013683845801511885
- 0.14365049304536745
- -0.038026241347027395
- -0.10085281277495098
- 0.0
- 0.0
effort:
- -0.41686534881591797
- -39.085357666015625
- 6.749408721923828
- 22.165082931518555
- 0.8523747324943542
- 2.3567659854888916
- -0.300406813621521
- 0.0
- 0.0
---
header:
  stamp:
    sec: 1756277901
    nanosec: 768435042
  frame_id: ''
name:
- fr3_joint1
- fr3_joint2
- fr3_joint3
- fr3_joint4
- fr3_joint5
- fr3_joint6
- fr3_joint7
- fr3_finger_joint1
- fr3_finger_joint2
position:
- -0.4144757534666414
- 0.41992206230478846
- 0.5120156563140532
- -1.7344153304996526
- 0.24092674145017465
- 2.548532585969251
- 0.8067965289404248
- 0.0
- 0.0
velocity:
- -0.09838950823985561
- 0.07617307649161552
- 0.1548466823651381
- -0.018075314901179296
- 0.14623758844703158
- -0.03473305807007675
- -0.09780547142493068
- 0.0
- 0.0
effort:
- -0.619196891784668
- -39.442413330078125
- 6.491535186767578
- 22.351545333862305
- 0.8651921153068542
- 2.3567659854888916
- -0.286673903465271
- 0.0
- 0.0
---
header:
  stamp:
    sec: 1756277901
    nanosec: 801607076
  frame_id: ''
name:
- fr3_joint1
- fr3_joint2
- fr3_joint3
- fr3_joint4
- fr3_joint5
- fr3_joint6
- fr3_joint7
- fr3_finger_joint1
- fr3_finger_joint2
position:
- -0.4176014933458746
- 0.4222854743487011
- 0.5170495817146359
- -1.7349504154298134
- 0.24574577817698806
- 2.547329692931229
- 0.8037169433681911
- 0.0
- 0.0
velocity:
- -0.09335905250022122
- 0.07347981152623448
- 0.15548748307403878
- -0.018363866249326774
- 0.1470994813160977
- -0.03586320771731926
- -0.08367625000178948
- 0.0
- 0.0
effort:
- -0.750117301940918
- -39.466217041015625
- 6.543109893798828
- 22.403120040893555
- 0.8322331309318542
- 2.4034578800201416
- -0.293998122215271
- 0.0
- 0.0
---
header:
  stamp:
    sec: 1756277901
    nanosec: 834940803
  frame_id: ''
name:
- fr3_joint1
- fr3_joint2
- fr3_joint3
- fr3_joint4
- fr3_joint5
- fr3_joint6
- fr3_joint7
- fr3_finger_joint1
- fr3_finger_joint2
position:
- -0.4207106260085042
- 0.42466372393088286
- 0.5222914797251931
- -1.7355167932532862
- 0.2507670674698305
- 2.5460991732032756
- 0.8007819293159996
- 0.0
- 0.0
velocity:
- -0.09344612469910077
- 0.06862970863851788
- 0.15187091679346237
- -0.016978302219112517
- 0.15383878990980124
- -0.03898735829289817
- -0.08890044657990986
- 0.0
- 0.0
effort:
- -0.543818473815918
- -39.541595458984375
- 6.983478546142578
- 22.323774337768555
- 0.8395573496818542
- 2.3631746768951416
- -0.252799391746521
- 0.0
- 0.0
---
header:
  stamp:
    sec: 1756277901
    nanosec: 868261739
  frame_id: ''
name:
- fr3_joint1
- fr3_joint2
- fr3_joint3
- fr3_joint4
- fr3_joint5
- fr3_joint6
- fr3_joint7
- fr3_finger_joint1
- fr3_finger_joint2
position:
- -0.4237023090246229
- 0.42686600741730074
- 0.5273537499497472
- -1.7361074187759271
- 0.255677559990987
- 2.5448359240687326
- 0.7981342992396936
- 0.0
- 0.0
velocity:
- -0.09347535314883103
- 0.06501358853840512
- 0.1595604875273852
- -0.01883397063620961
- 0.15128295748603127
- -0.03728210848458598
- -0.07798399433182095
- 0.0
- 0.0
effort:
- -0.36529064178466797
- -39.442413330078125
- 7.162006378173828
- 22.323774337768555
- 0.8258244395256042
- 2.3228914737701416
- -0.2189248651266098
- 0.0
- 0.0
---
header:
  stamp:
    sec: 1756277901
    nanosec: 901619530
  frame_id: ''
name:
- fr3_joint1
- fr3_joint2
- fr3_joint3
- fr3_joint4
- fr3_joint5
- fr3_joint6
- fr3_joint7
- fr3_finger_joint1
- fr3_finger_joint2
position:
- -0.426994327800858
- 0.4290869668835588
- 0.5328060102251021
- -1.7366632027706344
- 0.260733680327462
- 2.5434452935627903
- 0.7955479000534159
- 0.0
- 0.0
velocity:
- -0.10564157207793243
- 0.06882989245345611
- 0.16588497365121907
- -0.016249599977430817
- 0.1533280018018658
- -0.038089261522355596
- -0.0752769982091754
- 0.0
- 0.0
effort:
- -0.773921012878418
- -39.160736083984375
- 7.058856964111328
- 22.272199630737305
- 0.8194157481193542
- 2.3100740909576416
- -0.306815505027771
- 0.0
- 0.0
---
header:
  stamp:
    sec: 1756277901
    nanosec: 934934320
  frame_id: ''
name:
- fr3_joint1
- fr3_joint2
- fr3_joint3
- fr3_joint4
- fr3_joint5
- fr3_joint6
- fr3_joint7
- fr3_finger_joint1
- fr3_finger_joint2
position:
- -0.4304613386223226
- 0.43132082354260504
- 0.5382311345609759
- -1.7371856255293665
- 0.2658257286135546
- 2.542113252856414
- 0.7929421831325276
- 0.0
- 0.0
velocity:
- -0.10012323865507337
- 0.06494004821903984
- 0.15701492390874108
- -0.01507922536854537
- 0.150434314942055
- -0.03940954256563053
- -0.08643607227816225
- 0.0
- 0.0
effort:
- -0.877070426940918
- -39.085357666015625
- 6.800983428955078
- 22.272199630737305
- 0.8459660410881042
- 2.3567659854888916
- -0.293998122215271
- 0.0
- 0.0
---
header:
  stamp:
    sec: 1756277901
    nanosec: 968308184
  frame_id: ''
name:
- fr3_joint1
- fr3_joint2
- fr3_joint3
- fr3_joint4
- fr3_joint5
- fr3_joint6
- fr3_joint7
- fr3_finger_joint1
- fr3_finger_joint2
position:
- -0.43338595724560364
- 0.4334578700113709
- 0.5432376101014583
- -1.7376170467817234
- 0.2708391386610831
- 2.540854714572677
- 0.7899061728936311
- 0.0
- 0.0
velocity:
- -0.08864632388381194
- 0.0657922535135821
- 0.15267058860083924
- -0.010487354361461185
- 0.15409383897408363
- -0.03921716011943607
- -0.09728199771894265
- 0.0
- 0.0
effort:
- -0.646967887878418
- -38.756072998046875
- 7.086627960205078
- 22.010358810424805
- 0.7608219981193542
- 2.3036653995513916
- -0.272940993309021
- 0.0
- 0.0
---
header:
  stamp:
    sec: 1756277902
    nanosec: 1643298
  frame_id: ''
name:
- fr3_joint1
- fr3_joint2
- fr3_joint3
- fr3_joint4
- fr3_joint5
- fr3_joint6
- fr3_joint7
- fr3_finger_joint1
- fr3_finger_joint2
position:
- -0.4364377770663618
- 0.4357426994148363
- 0.5484954448800464
- -1.7380681175993924
- 0.2756190652246888
- 2.539655214578615
- 0.7864173848218388
- 0.0
- 0.0
velocity:
- -0.08895060602839074
- 0.06690414643344761
- 0.15007129000649466
- -0.013717771653268042
- 0.1372373268074473
- -0.041244317923241985
- -0.10753516780317834
- 0.0
- 0.0
effort:
- -0.28991222381591797
- -38.982208251953125
- 7.499225616455078
- 21.954816818237305
- 0.8065983653068542
- 2.2569735050201416
- -0.300406813621521
- 0.0
- 0.0
---
header:
  stamp:
    sec: 1756277902
    nanosec: 34995418
  frame_id: ''
name:
- fr3_joint1
- fr3_joint2
- fr3_joint3
- fr3_joint4
- fr3_joint5
- fr3_joint6
- fr3_joint7
- fr3_finger_joint1
- fr3_finger_joint2
position:
- -0.43966466982849495
- 0.43800194274711507
- 0.5537244603130923
- -1.7386189515384025
- 0.2804651086759553
- 2.5382746128245746
- 0.7831432183714272
- 0.0
- 0.0
velocity:
- -0.10229066689648252
- 0.06719939636115752
- 0.16295879045301584
- -0.017878858554237882
- 0.14877453220794665
- -0.04421568128998121
- -0.08872799620564864
- 0.0
- 0.0
effort:
- -0.619196891784668
- -39.160736083984375
- 7.447650909423828
- 22.085737228393555
- 0.8322331309318542
- 2.2368319034576416
- -0.2390664666891098
- 0.0
- 0.0
---
header:
  stamp:
    sec: 1756277902
    nanosec: 68475408
  frame_id: ''
name:
- fr3_joint1
- fr3_joint2
- fr3_joint3
- fr3_joint4
- fr3_joint5
- fr3_joint6
- fr3_joint7
- fr3_finger_joint1
- fr3_finger_joint2
position:
- -0.44306673072573394
- 0.44027620997308436
- 0.5590868324970876
- -1.739203259725697
- 0.28553484894053477
- 2.5367775754032786
- 0.780363433426959
- 0.0
- 0.0
velocity:
- -0.10380834057997634
- 0.0690460295023638
- 0.1594707564714076
- -0.01648596669978319
- 0.1513069186497714
- -0.04141959379454831
- -0.08248546283485479
- 0.0
- 0.0
effort:
- -0.595393180847168
- -38.803680419921875
- 7.630146026611328
- 22.113508224487305
- 0.7406803965568542
- 2.2633821964263916
- -0.280265212059021
- 0.0
- 0.0
---
header:
  stamp:
    sec: 1756277902
    nanosec: 102140969
  frame_id: ''
name:
- fr3_joint1
- fr3_joint2
- fr3_joint3
- fr3_joint4
- fr3_joint5
- fr3_joint6
- fr3_joint7
- fr3_finger_joint1
- fr3_finger_joint2
position:
- -0.4462084851580427
- 0.44264486820411625
- 0.5640667031267443
- -1.739565689123723
- 0.2905623448009784
- 2.5354843948030914
- 0.7777452127486711
- 0.0
- 0.0
velocity:
- -0.08932308623643852
- 0.0745402446981347
- 0.14922619318710492
- -0.00793520580564678
- 0.15958217572251415
- -0.03752898261840116
- -0.07997510654315619
- 0.0
- 0.0
effort:
- -0.49224376678466797
- -38.549774169921875
- 7.630146026611328
- 21.879438400268555
- 0.7150456309318542
- 2.2166903018951416
- -0.286673903465271
- 0.0
- 0.0
---
header:
  stamp:
    sec: 1756277902
    nanosec: 135119943
  frame_id: ''
name:
- fr3_joint1
- fr3_joint2
- fr3_joint3
- fr3_joint4
- fr3_joint5
- fr3_joint6
- fr3_joint7
- fr3_finger_joint1
- fr3_finger_joint2
position:
- -0.44915627176780243
- 0.4451391612241477
- 0.5692790341769226
- -1.7399117069137326
- 0.2955485234928623
- 2.534158478806045
- 0.7749033166747666
- 0.0
- 0.0
velocity:
- -0.08257479727364558
- 0.07322017232318065
- 0.15167916318373934
- -0.012469416051992446
- 0.1417646978171249
- -0.040388769806889345
- -0.08052651783717174
- 0.0
- 0.0
effort:
- -0.646967887878418
- -38.676727294921875
- 7.578571319580078
- 21.903242111206055
- 0.7544133067131042
- 2.2166903018951416
- -0.266532301902771
- 0.0
- 0.0
---
header:
  stamp:
    sec: 1756277902
    nanosec: 168252721
  frame_id: ''
name:
- fr3_joint1
- fr3_joint2
- fr3_joint3
- fr3_joint4
- fr3_joint5
- fr3_joint6
- fr3_joint7
- fr3_finger_joint1
- fr3_finger_joint2
position:
- -0.4522439633665648
- 0.44750063293810477
- 0.5745881403831669
- -1.7404451637855185
- 0.30035379140594126
- 2.532910823959355
- 0.772144140617218
- 0.0
- 0.0
velocity:
- -0.09887263290603072
- 0.07267184788696612
- 0.16373785146890465
- -0.01625487250093391
- 0.15039763960009475
- -0.038977693318271944
- -0.08443846180832718
- 0.0
- 0.0
effort:
- -0.773921012878418
- -38.930633544921875
- 7.653949737548828
- 22.034162521362305
- 0.7800480723381042
- 2.2368319034576416
- -0.293998122215271
- 0.0
- 0.0
---
header:
  stamp:
    sec: 1756277902
    nanosec: 201559312
  frame_id: ''
name:
- fr3_joint1
- fr3_joint2
- fr3_joint3
- fr3_joint4
- fr3_joint5
- fr3_joint6
- fr3_joint7
- fr3_finger_joint1
- fr3_finger_joint2
position:
- -0.4554771464967638
- 0.44987568965363756
- 0.5800647866734048
- -1.7411169176236962
- 0.30546101037373913
- 2.5315512483034155
- 0.7689414289574632
- 0.0
- 0.0
velocity:
- -0.09552440021725023
- 0.07046466640115691
- 0.1635051336982541
- -0.020550089371528385
- 0.14897065764847658
- -0.03979898600992264
- -0.10134133777959789
- 0.0
- 0.0
effort:
- -0.976252555847168
- -38.958404541015625
- 7.653949737548828
- 22.061933517456055
- 0.7608219981193542
- 2.2102816104888916
- -0.1987832635641098
- 0.0
- 0.0
---
header:
  stamp:
    sec: 1756277902
    nanosec: 234975705
  frame_id: ''
name:
- fr3_joint1
- fr3_joint2
- fr3_joint3
- fr3_joint4
- fr3_joint5
- fr3_joint6
- fr3_joint7
- fr3_finger_joint1
- fr3_finger_joint2
position:
- -0.4586138472894928
- 0.4521493184160084
- 0.5854081034154309
- -1.7418272825138073
- 0.3104351508758287
- 2.5301801008568368
- 0.7654401476844479
- 0.0
- 0.0
velocity:
- -0.09349878739234006
- 0.06687076558308595
- 0.1523365316169968
- -0.020724463899236455
- 0.15031650488065632
- -0.03563009763662561
- -0.09812438044372805
- 0.0
- 0.0
effort:
- -0.49224376678466797
- -39.160736083984375
- 8.070514678955078
- 22.165082931518555
- 0.7150456309318542
- 2.1901400089263916
- -0.2463906854391098
- 0.0
- 0.0
---
header:
  stamp:
    sec: 1756277902
    nanosec: 268505335
  frame_id: ''
name:
- fr3_joint1
- fr3_joint2
- fr3_joint3
- fr3_joint4
- fr3_joint5
- fr3_joint6
- fr3_joint7
- fr3_finger_joint1
- fr3_finger_joint2
position:
- -0.4617689131256581
- 0.45440604062749623
- 0.590497879799761
- -1.7424398555499703
- 0.3152670260028323
- 2.5288753295601074
- 0.7623835382560188
- 0.0
- 0.0
velocity:
- -0.09251249563068477
- 0.06924255548575729
- 0.14929509283716005
- -0.016563118564212605
- 0.14002137337252946
- -0.0367559055683886
- -0.08843549925904226
- 0.0
- 0.0
effort:
- -0.44066905975341797
- -38.855255126953125
- 8.042743682861328
- 22.061933517456055
- 0.7342717051506042
- 2.2102816104888916
- -0.1987832635641098
- 0.0
- 0.0
---
header:
  stamp:
    sec: 1756277902
    nanosec: 302080715
  frame_id: ''
name:
- fr3_joint1
- fr3_joint2
- fr3_joint3
- fr3_joint4
- fr3_joint5
- fr3_joint6
- fr3_joint7
- fr3_finger_joint1
- fr3_finger_joint2
position:
- -0.46476165815100806
- 0.4566080664702339
- 0.5954617577210934
- -1.74284889685349
- 0.31995848711645924
- 2.5277525692486726
- 0.759718290220397
- 0.0
- 0.0
velocity:
- -0.09632892448825975
- 0.0673477302932427
- 0.15859885560428333
- -0.011704237370961271
- 0.14670829979510278
- -0.032553495680333715
- -0.07394053702606508
- 0.0
- 0.0
effort:
- -0.773921012878418
- -38.629119873046875
- 7.991168975830078
- 21.823896408081055
- 0.7278630137443542
- 2.1562654972076416
- -0.306815505027771
- 0.0
- 0.0
---
header:
  stamp:
    sec: 1756277902
    nanosec: 334950808
  frame_id: ''
name:
- fr3_joint1
- fr3_joint2
- fr3_joint3
- fr3_joint4
- fr3_joint5
- fr3_joint6
- fr3_joint7
- fr3_finger_joint1
- fr3_finger_joint2
position:
- -0.4681640954798414
- 0.4589117744538491
- 0.6008670040486533
- -1.743330672560281
- 0.32496595676847684
- 2.5266460566289335
- 0.7571418488681502
- 0.0
- 0.0
velocity:
- -0.10137854724370549
- 0.06787906649345599
- 0.1594067958629298
- -0.013941131260818413
- 0.14933292692541114
- -0.03402031293546791
- -0.08374285902467019
- 0.0
- 0.0
effort:
- -0.41686534881591797
- -38.652923583984375
- 8.249042510986328
- 21.879438400268555
- 0.7214543223381042
- 2.1562654972076416
- -0.2051919549703598
- 0.0
- 0.0
---
header:
  stamp:
    sec: 1756277902
    nanosec: 369246093
  frame_id: ''
name:
- fr3_joint1
- fr3_joint2
- fr3_joint3
- fr3_joint4
- fr3_joint5
- fr3_joint6
- fr3_joint7
- fr3_finger_joint1
- fr3_finger_joint2
position:
- -0.47135111411432157
- 0.46116321569618807
- 0.606012499467777
- -1.7438158068801433
- 0.32997948843777036
- 2.5255088609046275
- 0.7546392492758133
- 0.0
- 0.0
velocity:
- -0.0925152767034726
- 0.06889209060555784
- 0.16005678861541695
- -0.014656369378463463
- 0.15567664156046965
- -0.03543053336911193
- -0.07839562297842609
- 0.0
- 0.0
effort:
- -0.36529064178466797
- -38.779876708984375
- 8.431537628173828
- 21.851667404174805
- 0.6692692637443542
- 2.1370394229888916
- -0.260123610496521
- 0.0
- 0.0
---
header:
  stamp:
    sec: 1756277902
    nanosec: 401731311
  frame_id: ''
name:
- fr3_joint1
- fr3_joint2
- fr3_joint3
- fr3_joint4
- fr3_joint5
- fr3_joint6
- fr3_joint7
- fr3_finger_joint1
- fr3_finger_joint2
position:
- -0.4744409776809717
- 0.46345900500185394
- 0.6112860686851983
- -1.7443803918883407
- 0.334993992943241
- 2.5242857836153605
- 0.7516624215572648
- 0.0
- 0.0
velocity:
- -0.09535923863344417
- 0.06986508256374149
- 0.15872698100001068
- -0.016479496420651912
- 0.14866050920166937
- -0.035333286253703064
- -0.08707182087190739
- 0.0
- 0.0
effort:
- -0.34148693084716797
- -38.779876708984375
- 8.637836456298828
- 21.823896408081055
- 0.6884953379631042
- 2.1233065128326416
- -0.280265212059021
- 0.0
- 0.0
---
header:
  stamp:
    sec: 1756277902
    nanosec: 434995602
  frame_id: ''
name:
- fr3_joint1
- fr3_joint2
- fr3_joint3
- fr3_joint4
- fr3_joint5
- fr3_joint6
- fr3_joint7
- fr3_finger_joint1
- fr3_finger_joint2
position:
- -0.4776569266543747
- 0.4657532053247912
- 0.6164481965137727
- -1.7449994137216602
- 0.34009580557439456
- 2.5231068999037336
- 0.7484477745718018
- 0.0
- 0.0
velocity:
- -0.0958592333537446
- 0.0674607992893841
- 0.15638130005797782
- -0.01864100831460701
- 0.1540030770180625
- -0.03654679764301387
- -0.09869517919045563
- 0.0
- 0.0
effort:
- -0.928645133972168
- -38.676727294921875
- 8.328388214111328
- 21.800092697143555
- 0.6884953379631042
- 2.1562654972076416
- -0.327872633934021
- 0.0
- 0.0
---
header:
  stamp:
    sec: 1756277902
    nanosec: 468323817
  frame_id: ''
name:
- fr3_joint1
- fr3_joint2
- fr3_joint3
- fr3_joint4
- fr3_joint5
- fr3_joint6
- fr3_joint7
- fr3_finger_joint1
- fr3_finger_joint2
position:
- -0.4809421699549765
- 0.4681071858021736
- 0.6219665449309713
- -1.7456144076489286
- 0.3451980700789892
- 2.5218375984196144
- 0.7449879909891329
- 0.0
- 0.0
velocity:
- -0.09296852086411406
- 0.06932939389231157
- 0.16314719805954553
- -0.016518015086051108
- 0.15233665855224593
- -0.041445531186302384
- -0.0994319230815923
- 0.0
- 0.0
effort:
- -1.004023551940918
- -38.168914794921875
- 8.173664093017578
- 21.720746994018555
- 0.6949040293693542
- 2.1168978214263916
- -0.1987832635641098
- 0.0
- 0.0
---
header:
  stamp:
    sec: 1756277902
    nanosec: 502154316
  frame_id: ''
name:
- fr3_joint1
- fr3_joint2
- fr3_joint3
- fr3_joint4
- fr3_joint5
- fr3_joint6
- fr3_joint7
- fr3_finger_joint1
- fr3_finger_joint2
position:
- -0.48404376106556324
- 0.47040557829161606
- 0.6272932114142722
- -1.7461756195875806
- 0.35017457978197714
- 2.5206037214677384
- 0.7421489005084848
- 0.0
- 0.0
velocity:
- -0.09327907576401667
- 0.06890713765785404
- 0.1581122215631838
- -0.017196327397410397
- 0.148479489344145
- -0.03950600189412116
- -0.08156394752328941
- 0.0
- 0.0
effort:
- -0.520014762878418
- -38.323638916015625
- 8.614032745361328
- 21.800092697143555
- 0.6299015879631042
- 2.1434481143951416
- -0.2463906854391098
- 0.0
- 0.0
---
header:
  stamp:
    sec: 1756277902
    nanosec: 534938451
  frame_id: ''
name:
- fr3_joint1
- fr3_joint2
- fr3_joint3
- fr3_joint4
- fr3_joint5
- fr3_joint6
- fr3_joint7
- fr3_finger_joint1
- fr3_finger_joint2
position:
- -0.48702886970350034
- 0.4727977329855893
- 0.6324795770434223
- -1.7467369917775302
- 0.3548640103293318
- 2.519251278542393
- 0.7395403688810699
- 0.0
- 0.0
velocity:
- -0.09052031768085535
- 0.07139703635575491
- 0.15930963263599368
- -0.017181682098172276
- 0.13541272566694812
- -0.04009333983761167
- -0.07399094958560057
- 0.0
- 0.0
effort:
- -0.619196891784668
- -38.450592041015625
- 8.820331573486328
- 21.692975997924805
- 0.6692692637443542
- 2.0830233097076416
- -0.2262490838766098
- 0.0
- 0.0
---
header:
  stamp:
    sec: 1756277902
    nanosec: 568558465
  frame_id: ''
name:
- fr3_joint1
- fr3_joint2
- fr3_joint3
- fr3_joint4
- fr3_joint5
- fr3_joint6
- fr3_joint7
- fr3_finger_joint1
- fr3_finger_joint2
position:
- -0.4900904511024453
- 0.4751864959417904
- 0.6376598510226029
- -1.747366743575949
- 0.35975222333789736
- 2.5176884063403504
- 0.7370054830789391
- 0.0
- 0.0
velocity:
- -0.09466247455272372
- 0.07098242286687216
- 0.1509589711950831
- -0.020898327773012426
- 0.15367805378298177
- -0.04665227287984916
- -0.07882292726626028
- 0.0
- 0.0
effort:
- -0.595393180847168
- -38.652923583984375
- 9.102008819580078
- 21.823896408081055
- 0.6363102793693542
- 2.0766146183013916
- -0.306815505027771
- 0.0
- 0.0
---
header:
  stamp:
    sec: 1756277902
    nanosec: 601560500
  frame_id: ''
name:
- fr3_joint1
- fr3_joint2
- fr3_joint3
- fr3_joint4
- fr3_joint5
- fr3_joint6
- fr3_joint7
- fr3_finger_joint1
- fr3_finger_joint2
position:
- -0.49341985172026154
- 0.4775117369597913
- 0.6426412130845259
- -1.7480180588203504
- 0.36453554769563545
- 2.5162404224922033
- 0.7343898413105086
- 0.0
- 0.0
velocity:
- -0.10030541117173938
- 0.07101265196894554
- 0.14846410566896284
- -0.018873809599800236
- 0.1492833614265498
- -0.04473410221636045
- -0.08498528954816434
- 0.0
- 0.0
effort:
- -0.619196891784668
- -38.676727294921875
- 8.998859405517578
- 21.823896408081055
- 0.6628605723381042
- 2.1031649112701416
- -0.2326577752828598
- 0.0
- 0.0
---
header:
  stamp:
    sec: 1756277902
    nanosec: 634941957
  frame_id: ''
name:
- fr3_joint1
- fr3_joint2
- fr3_joint3
- fr3_joint4
- fr3_joint5
- fr3_joint6
- fr3_joint7
- fr3_finger_joint1
- fr3_finger_joint2
position:
- -0.4967324461416189
- 0.4797575083894128
- 0.6477877470439359
- -1.7486143764655422
- 0.3696355023701369
- 2.5147368502261997
- 0.7312299822537892
- 0.0
- 0.0
velocity:
- -0.09644100363047671
- 0.06377319256483371
- 0.15473296967551017
- -0.01556404629246523
- 0.1535243900717335
- -0.045283960272452954
- -0.10027673441366328
- 0.0
- 0.0
effort:
- -0.571589469909668
- -38.399017333984375
- 9.209125518798828
- 21.903242111206055
- 0.6628605723381042
- 2.0564730167388916
- -0.2125161737203598
- 0.0
- 0.0
---
header:
  stamp:
    sec: 1756277902
    nanosec: 668565002
  frame_id: ''
name:
- fr3_joint1
- fr3_joint2
- fr3_joint3
- fr3_joint4
- fr3_joint5
- fr3_joint6
- fr3_joint7
- fr3_finger_joint1
- fr3_finger_joint2
position:
- -0.49986287917511407
- 0.4820094026830283
- 0.6530552666735077
- -1.7490438062082567
- 0.37470285134464854
- 2.5133480820595087
- 0.7278392618880506
- 0.0
- 0.0
velocity:
- -0.09331614084598189
- 0.06717951247604924
- 0.1562478146969516
- -0.010031000093867152
- 0.1475820431316934
- -0.04317921418314172
- -0.10294128819736471
- 0.0
- 0.0
effort:
- -0.39306163787841797
- -38.168914794921875
- 9.518573760986328
- 21.589826583862305
- 0.6097599864006042
- 2.0097811222076416
- -0.2051919549703598
- 0.0
- 0.0
---
header:
  stamp:
    sec: 1756277902
    nanosec: 701548204
  frame_id: ''
name:
- fr3_joint1
- fr3_joint2
- fr3_joint3
- fr3_joint4
- fr3_joint5
- fr3_joint6
- fr3_joint7
- fr3_finger_joint1
- fr3_finger_joint2
position:
- -0.5028479065526842
- 0.48419622935864676
- 0.6582158743687477
- -1.74943732599876
- 0.37975362956718406
- 2.511984801229093
- 0.7248161126640327
- 0.0
- 0.0
velocity:
- -0.09406283553667849
- 0.06514045416702972
- 0.16088800624756555
- -0.01253018107175706
- 0.1540100174281147
- -0.04309522624404329
- -0.0891292703325025
- 0.0
- 0.0
effort:
- -0.571589469909668
- -38.018157958984375
- 9.466999053955078
- 21.538251876831055
- 0.6234928965568542
- 2.0363314151763916
- -0.1850503534078598
- 0.0
- 0.0
---
header:
  stamp:
    sec: 1756277902
    nanosec: 734936622
  frame_id: ''
name:
- fr3_joint1
- fr3_joint2
- fr3_joint3
- fr3_joint4
- fr3_joint5
- fr3_joint6
- fr3_joint7
- fr3_finger_joint1
- fr3_finger_joint2
position:
- -0.5061256220841784
- 0.48650692041411897
- 0.663833313159165
- -1.7499253273827755
- 0.3847292875635625
- 2.5106164272120157
- 0.7218988669971876
- 0.0
- 0.0
velocity:
- -0.10059852533339599
- 0.06994383979354464
- 0.16848906502453115
- -0.015785781966150707
- 0.14269068967495865
- -0.03863085629628464
- -0.08625586604086341
- 0.0
- 0.0
effort:
- -0.750117301940918
- -38.018157958984375
- 9.260700225830078
- 21.538251876831055
- 0.6491276621818542
- 1.9969638586044312
- -0.306815505027771
- 0.0
- 0.0
---
header:
  stamp:
    sec: 1756277902
    nanosec: 768342454
  frame_id: ''
name:
- fr3_joint1
- fr3_joint2
- fr3_joint3
- fr3_joint4
- fr3_joint5
- fr3_joint6
- fr3_joint7
- fr3_finger_joint1
- fr3_finger_joint2
position:
- -0.5093995872127403
- 0.488834848102426
- 0.669165947614385
- -1.7504826299970797
- 0.3896374544756775
- 2.509280603853894
- 0.7192769498698472
- 0.0
- 0.0
velocity:
- -0.09158122454437374
- 0.07137100196072291
- 0.15760857348649646
- -0.017203275931648495
- 0.14361729866726414
- -0.038302723156414954
- -0.07499304023774452
- 0.0
- 0.0
effort:
- -0.952448844909668
- -38.168914794921875
- 9.181354522705078
- 21.641401290893555
- 0.6491276621818542
- 2.0436556339263916
- -0.2390664666891098
- 0.0
- 0.0
---
header:
  stamp:
    sec: 1756277902
    nanosec: 801567025
  frame_id: ''
name:
- fr3_joint1
- fr3_joint2
- fr3_joint3
- fr3_joint4
- fr3_joint5
- fr3_joint6
- fr3_joint7
- fr3_finger_joint1
- fr3_finger_joint2
position:
- -0.5122689837352814
- 0.4909736824568963
- 0.6742066057252935
- -1.751009978422805
- 0.39429319452081774
- 2.5079969555663535
- 0.7167185587165025
- 0.0
- 0.0
velocity:
- -0.08343436656438612
- 0.06537601394678283
- 0.1526617888438463
- -0.01614380987867829
- 0.1410208573478001
- -0.04047686010186381
- -0.07349542226928915
- 0.0
- 0.0
effort:
- -0.750117301940918
- -37.990386962890625
- 9.466999053955078
- 21.641401290893555
- 0.6161686778068542
- 2.0171053409576416
- -0.266532301902771
- 0.0
- 0.0
---
header:
  stamp:
    sec: 1756277902
    nanosec: 835093147
  frame_id: ''
name:
- fr3_joint1
- fr3_joint2
- fr3_joint3
- fr3_joint4
- fr3_joint5
- fr3_joint6
- fr3_joint7
- fr3_finger_joint1
- fr3_finger_joint2
position:
- -0.5151782632525751
- 0.4931402381991329
- 0.6793145244690822
- -1.7514636689834289
- 0.3990186798229797
- 2.5068070026928333
- 0.7142497320690441
- 0.0
- 0.0
velocity:
- -0.08996709727477961
- 0.06935381266993207
- 0.15560956889148145
- -0.010592151059643104
- 0.15116675996916945
- -0.03602716431970578
- -0.08398723124056454
- 0.0
- 0.0
effort:
- -0.18676280975341797
- -37.661102294921875
- 9.828022003173828
- 21.407331466674805
- 0.5905339121818542
- 1.9301303625106812
- -0.272940993309021
- 0.0
- 0.0
---
header:
  stamp:
    sec: 1756277902
    nanosec: 868620892
  frame_id: ''
name:
- fr3_joint1
- fr3_joint2
- fr3_joint3
- fr3_joint4
- fr3_joint5
- fr3_joint6
- fr3_joint7
- fr3_finger_joint1
- fr3_finger_joint2
position:
- -0.5185377499919258
- 0.4956622052757949
- 0.6848790133495667
- -1.7518124541734132
- 0.4042603156415776
- 2.5055668267516142
- 0.7109958571450592
- 0.0
- 0.0
velocity:
- -0.09804786671673478
- 0.07596743370999921
- 0.16450899293429502
- -0.013445896301289527
- 0.15055355680068544
- -0.03754143779898211
- -0.0960859552100657
- 0.0
- 0.0
effort:
- -0.773921012878418
- -37.637298583984375
- 9.593952178955078
- 21.407331466674805
- 0.5969426035881042
- 1.9502719640731812
- -0.340690016746521
- 0.0
- 0.0
---
header:
  stamp:
    sec: 1756277902
    nanosec: 902143218
  frame_id: ''
name:
- fr3_joint1
- fr3_joint2
- fr3_joint3
- fr3_joint4
- fr3_joint5
- fr3_joint6
- fr3_joint7
- fr3_finger_joint1
- fr3_finger_joint2
position:
- -0.521746701449151
- 0.4980234606757311
- 0.689991446608641
- -1.7522169342052938
- 0.40924928080784656
- 2.504323912499345
- 0.7075911186549744
- 0.0
- 0.0
velocity:
- -0.09912147823113504
- 0.07254207240375689
- 0.15264878405457177
- -0.015319522840061132
- 0.15332294054766193
- -0.035858224316445794
- -0.10064597391721344
- 0.0
- 0.0
effort:
- -0.646967887878418
- -37.891204833984375
- 9.958942413330078
- 21.486677169799805
- 0.5703923106193542
- 1.9301303625106812
- -0.300406813621521
- 0.0
- 0.0
---
header:
  stamp:
    sec: 1756277902
    nanosec: 934924943
  frame_id: ''
name:
- fr3_joint1
- fr3_joint2
- fr3_joint3
- fr3_joint4
- fr3_joint5
- fr3_joint6
- fr3_joint7
- fr3_finger_joint1
- fr3_finger_joint2
position:
- -0.525003371040778
- 0.5005344364140092
- 0.69507084554111
- -1.7526707655823854
- 0.4142589590649411
- 2.503037160982356
- 0.7044746721389735
- 0.0
- 0.0
velocity:
- -0.0915688889286658
- 0.07317333780313809
- 0.14763644110163432
- -0.011546562841975864
- 0.1476418985137961
- -0.0386327001979738
- -0.08316412080387561
- 0.0
- 0.0
effort:
- -0.571589469909668
- -38.220489501953125
- 9.907367706298828
- 21.458906173706055
- 0.5969426035881042
- 1.9630893468856812
- -0.266532301902771
- 0.0
- 0.0
---
header:
  stamp:
    sec: 1756277902
    nanosec: 974106975
  frame_id: ''
name:
- fr3_joint1
- fr3_joint2
- fr3_joint3
- fr3_joint4
- fr3_joint5
- fr3_joint6
- fr3_joint7
- fr3_finger_joint1
- fr3_finger_joint2
position:
- -0.5279645047361724
- 0.5028670280781765
- 0.7000411283446879
- -1.7531256770638537
- 0.41923640730697
- 2.5017748595895517
- 0.7018069990040905
- 0.0
- 0.0
velocity:
- -0.09030629123475176
- 0.06937141603138942
- 0.15265872102616343
- -0.014548716667253287
- 0.14813363824755252
- -0.04164240069944103
- -0.08836182054533685
- 0.0
- 0.0
effort:
- -0.46844005584716797
- -38.041961669921875
- 10.137470245361328
- 21.431135177612305
- 0.6033512949943542
- 1.9438632726669312
- -0.2326577752828598
- 0.0
- 0.0
---
header:
  stamp:
    sec: 1756277903
    nanosec: 1676801
  frame_id: ''
name:
- fr3_joint1
- fr3_joint2
- fr3_joint3
- fr3_joint4
- fr3_joint5
- fr3_joint6
- fr3_joint7
- fr3_finger_joint1
- fr3_finger_joint2
position:
- -0.5312758046745054
- 0.5051649470059407
- 0.7054489117470825
- -1.7536852770243339
- 0.4242267343032482
- 2.500501127563996
- 0.699047353001973
- 0.0
- 0.0
velocity:
- -0.10345244513940381
- 0.0670841364571928
- 0.16589457409038655
- -0.01662527493960065
- 0.15004890641346771
- -0.03931839793671011
- -0.08405533723294695
- 0.0
- 0.0
effort:
- -0.797724723815918
- -38.168914794921875
- 10.165241241455078
- 21.538251876831055
- 0.6363102793693542
- 1.8706210851669312
- -0.2051919549703598
- 0.0
- 0.0
---
header:
  stamp:
    sec: 1756277903
    nanosec: 34945046
  frame_id: ''
name:
- fr3_joint1
- fr3_joint2
- fr3_joint3
- fr3_joint4
- fr3_joint5
- fr3_joint6
- fr3_joint7
- fr3_finger_joint1
- fr3_finger_joint2
position:
- -0.5346757295560813
- 0.5073332666686016
- 0.7109456871614737
- -1.7542869485764172
- 0.4292962423507761
- 2.498985413182402
- 0.6961389213174641
- 0.0
- 0.0
velocity:
- -0.1006640195440793
- 0.06413979550502177
- 0.1668756257817637
- -0.015739881090420987
- 0.14795461908880814
- -0.046781094918375093
- -0.08114475620935058
- 0.0
- 0.0
effort:
- -0.900874137878418
- -37.609527587890625
- 10.113666534423828
- 21.486677169799805
- 0.5511662364006042
- 1.8834384679794312
- -0.293998122215271
- 0.0
- 0.0
---
header:
  stamp:
    sec: 1756277903
    nanosec: 68565793
  frame_id: ''
name:
- fr3_joint1
- fr3_joint2
- fr3_joint3
- fr3_joint4
- fr3_joint5
- fr3_joint6
- fr3_joint7
- fr3_finger_joint1
- fr3_finger_joint2
position:
- -0.5378513673177097
- 0.5095544213985214
- 0.7163302321368944
- -1.754668893541913
- 0.4340268178906054
- 2.497438865527754
- 0.6931475993306877
- 0.0
- 0.0
velocity:
- -0.09078398974370773
- 0.06753406035716811
- 0.15445035764017465
- -0.00984745870431017
- 0.13897211576070548
- -0.04318368773600544
- -0.08977357429280922
- 0.0
- 0.0
effort:
- -0.543818473815918
- -37.609527587890625
- 10.423114776611328
- 21.224836349487305
- 0.5841252207756042
- 1.8239291906356812
- -0.2189248651266098
- 0.0
- 0.0
---
header:
  stamp:
    sec: 1756277903
    nanosec: 102319668
  frame_id: ''
name:
- fr3_joint1
- fr3_joint2
- fr3_joint3
- fr3_joint4
- fr3_joint5
- fr3_joint6
- fr3_joint7
- fr3_finger_joint1
- fr3_finger_joint2
position:
- -0.540851735325592
- 0.511765964812742
- 0.7212554611916792
- -1.7549980651333148
- 0.43885575787506426
- 2.4960758302282398
- 0.6900381006030967
- 0.0
- 0.0
velocity:
- -0.08700805119722371
- 0.06801292521984452
- 0.1485811125742621
- -0.010563921697608579
- 0.1504848597656455
- -0.042801840091514436
- -0.10541535934815503
- 0.0
- 0.0
effort:
- -0.39306163787841797
- -37.280242919921875
- 10.605609893798828
- 21.093915939331055
- 0.5511662364006042
- 1.7964633703231812
- -0.2051919549703598
- 0.0
- 0.0
---
header:
  stamp:
    sec: 1756277903
    nanosec: 134942922
  frame_id: ''
name:
- fr3_joint1
- fr3_joint2
- fr3_joint3
- fr3_joint4
- fr3_joint5
- fr3_joint6
- fr3_joint7
- fr3_finger_joint1
- fr3_finger_joint2
position:
- -0.5439774867727319
- 0.5140223901544905
- 0.7264465664185961
- -1.7553977562990941
- 0.44382903539949725
- 2.494638615205877
- 0.6865438107839285
- 0.0
- 0.0
velocity:
- -0.09490254278735037
- 0.06334070429912003
- 0.1556070171430831
- -0.013601508377398057
- 0.1483784850668298
- -0.04075348355823135
- -0.09760420311942136
- 0.0
- 0.0
effort:
- -0.773921012878418
- -37.458770751953125
- 10.554035186767578
- 21.197065353393555
- 0.5639836192131042
- 1.7772372961044312
- -0.252799391746521
- 0.0
- 0.0
---
header:
  stamp:
    sec: 1756277903
    nanosec: 168502103
  frame_id: ''
name:
- fr3_joint1
- fr3_joint2
- fr3_joint3
- fr3_joint4
- fr3_joint5
- fr3_joint6
- fr3_joint7
- fr3_finger_joint1
- fr3_finger_joint2
position:
- -0.5473648689257207
- 0.5163254505273435
- 0.7318607669479732
- -1.7559385285251494
- 0.44902395549493834
- 2.493307338588539
- 0.6835751108275423
- 0.0
- 0.0
velocity:
- -0.10200381250490098
- 0.06892558064123923
