header:
  stamp:
    sec: 1756275912
    nanosec: 472831595
  frame_id: ''
name:
- fr3_joint1
- fr3_joint2
- fr3_joint3
- fr3_joint4
- fr3_joint5
- fr3_joint6
- fr3_joint7
- fr3_finger_joint1
- fr3_finger_joint2
position:
- 0.363655011276948
- -0.1477249777243169
- 0.5492254071480644
- -1.8777710289247591
- 1.4192240603302373
- 3.4400580296315284
- -2.752692472425753
- 0.0
- 0.0
velocity:
- 0.1352538971990433
- 0.021103180294532835
- -0.157774484891384
- -0.0214996667004609
- -0.25134751819789386
- -0.16831432573515848
- 0.15403497843294445
- 0.0
- 0.0
effort:
- 0.626530647277832
- -21.081819534301758
- -2.069866180419922
- 21.589826583862305
- -2.598247766494751
- 0.5376132130622864
- 0.363350510597229
- 0.0
- 0.0
---
header:
  stamp:
    sec: 1756275912
    nanosec: 500607435
  frame_id: ''
name:
- fr3_joint1
- fr3_joint2
- fr3_joint3
- fr3_joint4
- fr3_joint5
- fr3_joint6
- fr3_joint7
- fr3_finger_joint1
- fr3_finger_joint2
position:
- 0.4108682487401032
- -0.14117638537897492
- 0.4928191610340706
- -1.8845464428756096
- 1.33059231742287
- 3.3839505043975544
- -2.692751249779461
- 0.0
- 0.0
velocity:
- 0.1305663277821433
- 0.015113125713083323
- -0.16120135311138148
- -0.016956123563835773
- -0.24677780836861568
- -0.14703890887060972
- 0.15218885483219885
- 0.0
- 0.0
effort:
- 0.626530647277832
- -22.149019241333008
- -1.8635673522949219
- 21.748517990112305
- -2.506695032119751
- 0.6245883107185364
- 0.398140549659729
- 0.0
- 0.0
---
header:
  stamp:
    sec: 1756275912
    nanosec: 533836343
  frame_id: ''
name:
- fr3_joint1
- fr3_joint2
- fr3_joint3
- fr3_joint4
- fr3_joint5
- fr3_joint6
- fr3_joint7
- fr3_finger_joint1
- fr3_finger_joint2
position:
- 0.41554335127812775
- -0.14067502263132858
- 0.4872382748925703
- -1.885157202977056
- 1.3221665672722258
- 3.3784076487794974
- -2.6874301870645168
- 0.0
- 0.0
velocity:
- 0.14227255451082949
- 0.014803605113273154
- -0.16227372657879707
- -0.0208874144252071
- -0.25272411084026614
- -0.16501282649719695
- 0.16126717588111167
- 0.0
- 0.0
effort:
- 0.626530647277832
- -22.172822952270508
- -1.8119926452636719
- 21.692975997924805
- -2.487468957901001
- 0.6703646779060364
- 0.384407639503479
- 0.0
- 0.0
---
header:
  stamp:
    sec: 1756275912
    nanosec: 567530017
  frame_id: ''
name:
- fr3_joint1
- fr3_joint2
- fr3_joint3
- fr3_joint4
- fr3_joint5
- fr3_joint6
- fr3_joint7
- fr3_finger_joint1
- fr3_finger_joint2
position:
- 0.419920082059772
- -0.14019730827313834
- 0.4822449509749522
- -1.8858035307037877
- 1.313822688659054
- 3.3729853060189394
- -2.681431438201897
- 0.0
- 0.0
velocity:
- 0.1306595555324397
- 0.013700885504326514
- -0.14481774147819051
- -0.020300904439084447
- -0.2404319343873647
- -0.15888420466696165
- 0.18744377781478488
- 0.0
- 0.0
effort:
- 0.22186756134033203
- -22.299776077270508
- -2.228557586669922
- 21.823896408081055
- -2.481060266494751
- 0.7710726857185364
- 0.350533127784729
- 0.0
- 0.0
---
header:
  stamp:
    sec: 1756275912
    nanosec: 600546854
  frame_id: ''
name:
- fr3_joint1
- fr3_joint2
- fr3_joint3
- fr3_joint4
- fr3_joint5
- fr3_joint6
- fr3_joint7
- fr3_finger_joint1
- fr3_finger_joint2
position:
- 0.4242300200326762
- -0.13969345749388745
- 0.47728887414464555
- -1.8864006762207548
- 1.3060432108974516
- 3.3679969035182094
- -2.6757236140221594
- 0.0
- 0.0
velocity:
- 0.13547992665007952
- 0.016735974191666052
- -0.15980139513105085
- -0.019151005212266307
- -0.24079395385513605
- -0.15494582051532413
- 0.16494616732796008
- 0.0
- 0.0
effort:
- 0.24567127227783203
- -22.402925491333008
- -1.9944877624511719
- 21.800092697143555
- -2.481060266494751
- 0.7509310841560364
- 0.424690842628479
- 0.0
- 0.0
---
header:
  stamp:
    sec: 1756275912
    nanosec: 633879161
  frame_id: ''
name:
- fr3_joint1
- fr3_joint2
- fr3_joint3
- fr3_joint4
- fr3_joint5
- fr3_joint6
- fr3_joint7
- fr3_finger_joint1
- fr3_finger_joint2
position:
- 0.42890221659217226
- -0.13912712194576238
- 0.47165134491900695
- -1.8870251137455065
- 1.297572470322093
- 3.362872129261658
- -2.6701573504493217
- 0.0
- 0.0
velocity:
- 0.1415174847912832
- 0.019054240599830755
- -0.16625387678825396
- -0.01890511840293221
- -0.2467032701920369
- -0.15491676509210708
- 0.16374764734512776
- 0.0
- 0.0
effort:
- 0.578923225402832
- -22.553682327270508
- -1.7366142272949219
- 21.748517990112305
- -2.481060266494751
- 0.6511386036872864
- 0.370674729347229
- 0.0
- 0.0
---
header:
  stamp:
    sec: 1756275912
    nanosec: 667120934
  frame_id: ''
name:
- fr3_joint1
- fr3_joint2
- fr3_joint3
- fr3_joint4
- fr3_joint5
- fr3_joint6
- fr3_joint7
- fr3_finger_joint1
- fr3_finger_joint2
position:
- 0.43314355572566
- -0.13855154781670095
- 0.4663720055871291
- -1.8876580611354419
- 1.289345160783042
- 3.357228150747034
- -2.664383477757104
- 0.0
- 0.0
velocity:
- 0.12511348169369502
- 0.017482416322941945
- -0.1583004781208957
- -0.019691210119636298
- -0.23971700081441405
- -0.1651599839472586
- 0.1808952757054722
- 0.0
- 0.0
effort:
- 0.42419910430908203
- -22.633028030395508
- -1.9429130554199219
- 21.879438400268555
- -2.460918664932251
- 0.7710726857185364
- 0.377083420753479
- 0.0
- 0.0
---
header:
  stamp:
    sec: 1756275912
    nanosec: 700598962
  frame_id: ''
name:
- fr3_joint1
- fr3_joint2
- fr3_joint3
- fr3_joint4
- fr3_joint5
- fr3_joint6
- fr3_joint7
- fr3_finger_joint1
- fr3_finger_joint2
position:
- 0.4373860722718149
- -0.1379782657407886
- 0.4612271328887985
- -1.8883016839340339
- 1.2810618294925515
- 3.352180093979248
- -2.658021728539362
- 0.0
- 0.0
velocity:
- 0.13078151756236586
- 0.0153819175640197
- -0.1534775616907347
- -0.02103676057101248
- -0.2630270054764393
- -0.15048246347516078
- 0.1862191426150583
- 0.0
- 0.0
effort:
- 0.49957752227783203
- -22.732210159301758
- -1.8635673522949219
- 21.879438400268555
- -2.375774621963501
- 0.7710726857185364
- 0.424690842628479
- 0.0
- 0.0
---
header:
  stamp:
    sec: 1756275912
    nanosec: 733926322
  frame_id: ''
name:
- fr3_joint1
- fr3_joint2
- fr3_joint3
- fr3_joint4
- fr3_joint5
- fr3_joint6
- fr3_joint7
- fr3_finger_joint1
- fr3_finger_joint2
position:
- 0.4420064748683824
- -0.13737721703312702
- 0.4560315269786392
- -1.8889175451552127
- 1.2727521363827425
- 3.3472229935455697
- -2.6525571039060307
- 0.0
- 0.0
velocity:
- 0.1368791589096271
- 0.01808030965676874
- -0.15002096019801273
- -0.017924639889805898
- -0.2370293401167013
- -0.14720525523779318
- 0.15022665338223967
- 0.0
- 0.0
effort:
- 0.47577381134033203
- -22.759981155395508
- -1.7881889343261719
- 21.800092697143555
- -2.421550989151001
- 0.8104403614997864
- 0.410957932472229
- 0.0
- 0.0
---
header:
  stamp:
    sec: 1756275912
    nanosec: 767596265
  frame_id: ''
name:
- fr3_joint1
- fr3_joint2
- fr3_joint3
- fr3_joint4
- fr3_joint5
- fr3_joint6
- fr3_joint7
- fr3_finger_joint1
- fr3_finger_joint2
position:
- 0.4462515476236872
- -0.13679717130473315
- 0.45095822328925506
- -1.8895704877487096
- 1.2647121441003482
- 3.3421612213663288
- -2.6471243126683945
- 0.0
- 0.0
velocity:
- 0.12577813721836498
- 0.017307188545123597
- -0.15155433125613854
- -0.020385115602999715
- -0.24514710000630535
- -0.16015227694191975
- 0.1639803940790124
- 0.0
- 0.0
effort:
- 0.04333972930908203
- -22.605257034301758
- -2.173015594482422
- 21.748517990112305
- -2.427959680557251
- 0.7509310841560364
- 0.398140549659729
- 0.0
- 0.0
---
header:
  stamp:
    sec: 1756275912
    nanosec: 800514380
  frame_id: ''
name:
- fr3_joint1
- fr3_joint2
- fr3_joint3
- fr3_joint4
- fr3_joint5
- fr3_joint6
- fr3_joint7
- fr3_finger_joint1
- fr3_finger_joint2
position:
- 0.4505153537757433
- -0.13619012065201824
- 0.44589187929376844
- -1.8902381737293048
- 1.2564873139988468
- 3.3366417981645227
- -2.641331771973028
- 0.0
- 0.0
velocity:
- 0.13508284204533347
- 0.01992355574754193
- -0.15420488136144536
- -0.0185113378201092
- -0.25127010074444195
- -0.16666595284807056
- 0.1837780385158115
- 0.0
- 0.0
effort:
- 0.26947498321533203
- -22.759981155395508
- -1.9667167663574219
- 21.748517990112305
- -2.402324914932251
- 0.8104403614997864
- 0.424690842628479
- 0.0
- 0.0
---
header:
  stamp:
    sec: 1756275912
    nanosec: 834174793
  frame_id: ''
name:
- fr3_joint1
- fr3_joint2
- fr3_joint3
- fr3_joint4
- fr3_joint5
- fr3_joint6
- fr3_joint7
- fr3_finger_joint1
- fr3_finger_joint2
position:
- 0.4548540846851865
- -0.13544389678251456
- 0.4407845973901546
- -1.8908454781577833
- 1.2487104466850345
- 3.331786136541301
- -2.635822168783482
- 0.0
- 0.0
velocity:
- 0.14236796697774784
- 0.02686954209722667
- -0.16693674740026393
- -0.019542821834425836
- -0.24319626633377836
- -0.14127615929707502
- 0.15759980119046532
- 0.0
- 0.0
effort:
- 0.705876350402832
- -22.859163284301758
- -1.4509696960449219
- 21.772321701049805
- -2.382183313369751
- 0.7838900685310364
- 0.384407639503479
- 0.0
- 0.0
---
header:
  stamp:
    sec: 1756275912
    nanosec: 867967401
  frame_id: ''
name:
- fr3_joint1
- fr3_joint2
- fr3_joint3
- fr3_joint4
- fr3_joint5
- fr3_joint6
- fr3_joint7
- fr3_finger_joint1
- fr3_finger_joint2
position:
- 0.45883340211043483
- -0.13465747010069684
- 0.4358615727193689
- -1.8914428511649655
- 1.2412444722175358
- 3.327263415174242
- -2.631453968587053
- 0.0
- 0.0
velocity:
- 0.13304416472404867
- 0.027494335269101045
- -0.16175081388667795
- -0.019558511833279807
- -0.2543498303835465
- -0.16464429402898542
- 0.14816643495988793
- 0.0
- 0.0
effort:
- 0.32104969024658203
- -22.986116409301758
- -1.8913383483886719
- 21.931013107299805
- -2.356548547744751
- 0.8104403614997864
- 0.410957932472229
- 0.0
- 0.0
---
header:
  stamp:
    sec: 1756275912
    nanosec: 900675177
  frame_id: ''
name:
- fr3_joint1
- fr3_joint2
- fr3_joint3
- fr3_joint4
- fr3_joint5
- fr3_joint6
- fr3_joint7
- fr3_finger_joint1
- fr3_finger_joint2
position:
- 0.4636190239982646
- -0.13368218759340902
- 0.43015372139009994
- -1.892181922939867
- 1.2321158972567254
- 3.3211517916355127
- -2.6250493553261323
- 0.0
- 0.0
velocity:
- 0.1302100401629259
- 0.024588653130502465
- -0.15305193077380688
- -0.017941736539849637
- -0.23173140197494854
- -0.1688128495303641
- 0.18145942224444891
- 0.0
- 0.0
effort:
- 0.44800281524658203
- -23.319368362426758
- -1.6850395202636719
- 21.903242111206055
- -2.350139856338501
- 0.8305819630622864
- 0.343208909034729
- 0.0
- 0.0
---
header:
  stamp:
    sec: 1756275912
    nanosec: 933922445
  frame_id: ''
name:
- fr3_joint1
- fr3_joint2
- fr3_joint3
- fr3_joint4
- fr3_joint5
- fr3_joint6
- fr3_joint7
- fr3_finger_joint1
- fr3_finger_joint2
position:
- 0.4683310749163927
- -0.13278367867975516
- 0.42451535779647853
- -1.8928800472639864
- 1.2236587956080511
- 3.3156071450294964
- -2.618397640314979
- 0.0
- 0.0
velocity:
- 0.1320712778510183
- 0.027391516720490994
- -0.16643372416043611
- -0.02011083378685269
- -0.24753490505194306
- -0.15212124854078546
- 0.18519916695383562
- 0.0
- 0.0
effort:
- 0.44800281524658203
- -23.545503616333008
- -1.5025444030761719
- 22.010358810424805
- -2.362957239151001
- 0.8443148732185364
- 0.438423752784729
- 0.0
- 0.0
---
header:
  stamp:
    sec: 1756275912
    nanosec: 967585881
  frame_id: ''
name:
- fr3_joint1
- fr3_joint2
- fr3_joint3
- fr3_joint4
- fr3_joint5
- fr3_joint6
- fr3_joint7
- fr3_finger_joint1
- fr3_finger_joint2
position:
- 0.47258739948615003
- -0.13199774978914974
- 0.41930650956107446
- -1.893629507781887
- 1.2152046114083401
- 3.3105903082880346
- -2.613090541376711
- 0.0
- 0.0
velocity:
- 0.12773270276985413
- 0.023569890627002658
- -0.1507639913459703
- -0.02450645780338258
- -0.25148197306325415
- -0.14750385707368605
- 0.14867291270850433
- 0.0
- 0.0
effort:
- 0.24567127227783203
- -23.597078323364258
- -1.8397636413574219
- 22.034162521362305
- -2.323589563369751
- 0.8910067677497864
- 0.384407639503479
- 0.0
- 0.0
---
header:
  stamp:
    sec: 1756275913
    nanosec: 563176
  frame_id: ''
name:
- fr3_joint1
- fr3_joint2
- fr3_joint3
- fr3_joint4
- fr3_joint5
- fr3_joint6
- fr3_joint7
- fr3_finger_joint1
- fr3_finger_joint2
position:
- 0.4768400354984574
- -0.13134033513563037
- 0.41435942969899014
- -1.8944458061653473
- 1.2073007712172608
- 3.3057929473011223
- -2.6080174483593885
- 0.0
- 0.0
velocity:
- 0.13445882597633668
- 0.019586553752298026
- -0.1577662491878384
- -0.025347052223289868
- -0.24873427223281017
- -0.14803943840750527
- 0.1699467460985736
- 0.0
- 0.0
effort:
- 0.34882068634033203
- -23.597078323364258
- -1.6850395202636719
- 22.192853927612305
- -2.388592004776001
- 0.8644564747810364
- 0.356941819190979
- 0.0
- 0.0
---
header:
  stamp:
    sec: 1756275913
    nanosec: 33798259
  frame_id: ''
name:
- fr3_joint1
- fr3_joint2
- fr3_joint3
- fr3_joint4
- fr3_joint5
- fr3_joint6
- fr3_joint7
- fr3_finger_joint1
- fr3_finger_joint2
position:
- 0.48155484484694017
- -0.13068159583736041
- 0.40867211106915924
- -1.8952225358062578
- 1.198676726108135
- 3.3003296723655198
- -2.6018732605367183
- 0.0
- 0.0
velocity:
- 0.1393350629972951
- 0.01943651050933905
- -0.1645272774669386
- -0.020208364603686864
- -0.24201585383714622
- -0.16300832968149642
- 0.18095194879123688
- 0.0
- 0.0
effort:
- 0.602726936340332
- -23.827180862426758
- -1.3716239929199219
- 22.010358810424805
- -2.297039270401001
- 0.8571322560310364
- 0.438423752784729
- 0.0
- 0.0
---
header:
  stamp:
    sec: 1756275913
    nanosec: 67150234
  frame_id: ''
name:
- fr3_joint1
- fr3_joint2
- fr3_joint3
- fr3_joint4
- fr3_joint5
- fr3_joint6
- fr3_joint7
- fr3_finger_joint1
- fr3_finger_joint2
position:
- 0.48585460937982744
- -0.13009159567790057
- 0.40354843908188326
- -1.8959372972890973
- 1.1906977278107385
- 3.29495866320281
- -2.5962550751889006
- 0.0
- 0.0
velocity:
- 0.12184322470220814
- 0.015950662309081945
- -0.14776255593180107
- -0.019757438375943015
- -0.23428826761955843
- -0.16320211498484152
- 0.15920365244512516
- 0.0
- 0.0
effort:
- 0.32104969024658203
- -23.751802444458008
- -1.6572685241699219
- 22.165082931518555
- -2.303447961807251
- 0.9505160450935364
- 0.444832444190979
- 0.0
- 0.0
---
header:
  stamp:
    sec: 1756275913
    nanosec: 100476508
  frame_id: ''
name:
- fr3_joint1
- fr3_joint2
- fr3_joint3
- fr3_joint4
- fr3_joint5
- fr3_joint6
- fr3_joint7
- fr3_finger_joint1
- fr3_finger_joint2
position:
- 0.4899844154944724
- -0.12953738301575687
- 0.3985177710786646
- -1.8966023486298058
- 1.1827431161967383
- 3.289973544581555
- -2.5910889014777725
- 0.0
- 0.0
velocity:
- 0.1284059011628122
- 0.016789814160759354
- -0.15940240729227617
- -0.01953200482747564
- -0.24915076500453112
- -0.1523298612513587
- 0.16103773670899835
- 0.0
- 0.0
effort:
- 0.47577381134033203
- -23.926362991333008
- -1.5779228210449219
- 22.296003341674805
- -2.336406946182251
- 0.8836825489997864
- 0.398140549659729
- 0.0
- 0.0
---
header:
  stamp:
    sec: 1756275913
    nanosec: 133831457
  frame_id: ''
name:
- fr3_joint1
- fr3_joint2
- fr3_joint3
- fr3_joint4
- fr3_joint5
- fr3_joint6
- fr3_joint7
- fr3_finger_joint1
- fr3_finger_joint2
position:
- 0.49456360527132576
- -0.1289689627777908
- 0.39303875782240544
- -1.8971768231034956
- 1.1742444363800109
- 3.2847295658347915
- -2.5852104330625356
- 0.0
- 0.0
velocity:
- 0.13789003563951396
- 0.01515611922494778
- -0.15789088886184
- -0.017653967630225333
- -0.25234833884579455
- -0.1547911303983329
- 0.1864761754970253
- 0.0
- 0.0
effort:
- 0.47577381134033203
- -23.902559280395508
- -1.4747734069824219
- 22.034162521362305
- -2.290630578994751
- 0.8974154591560364
- 0.309334397315979
- 0.0
- 0.0
---
header:
  stamp:
    sec: 1756275913
    nanosec: 167538642
  frame_id: ''
name:
- fr3_joint1
- fr3_joint2
- fr3_joint3
- fr3_joint4
- fr3_joint5
- fr3_joint6
- fr3_joint7
- fr3_finger_joint1
- fr3_finger_joint2
position:
- 0.498811340620483
- -0.12851032074369764
- 0.38795172080855045
- -1.8977910326026102
- 1.1658923895045668
- 3.2790452565904875
- -2.5788431316916984
- 0.0
- 0.0
velocity:
- 0.12354637624704932
- 0.01295476153748094
- -0.1452116341695935
- -0.017438657597275697
- -0.2553780292408459
- -0.16818166756421213
- 0.17664926944681222
- 0.0
- 0.0
effort:
- 0.26947498321533203
- -23.878755569458008
- -1.7088432312011719
- 22.085737228393555
- -2.232036828994751
- 0.9843905568122864
- 0.410957932472229
- 0.0
- 0.0
---
header:
  stamp:
    sec: 1756275913
    nanosec: 200565816
  frame_id: ''
name:
- fr3_joint1
- fr3_joint2
- fr3_joint3
- fr3_joint4
- fr3_joint5
- fr3_joint6
- fr3_joint7
- fr3_finger_joint1
- fr3_finger_joint2
position:
- 0.5031785627741022
- -0.12807742641414688
- 0.3828946977382429
- -1.8984327674201262
- 1.1576266818889556
- 3.2739616817351527
- -2.5737933548584735
- 0.0
- 0.0
velocity:
- 0.13943167297797746
- 0.013230113613047902
- -0.15595642700063164
- -0.019727488861744795
- -0.24537043036527717
- -0.14601744172963854
- 0.1506254866705827
- 0.0
- 0.0
effort:
- 0.29724597930908203
- -23.902559280395508
- -1.7604179382324219
- 22.113508224487305
- -2.146892786026001
- 0.9303744435310364
- 0.418282151222229
- 0.0
- 0.0
---
header:
  stamp:
    sec: 1756275913
    nanosec: 233770453
  frame_id: ''
name:
- fr3_joint1
- fr3_joint2
- fr3_joint3
- fr3_joint4
- fr3_joint5
- fr3_joint6
- fr3_joint7
- fr3_finger_joint1
- fr3_finger_joint2
position:
- 0.5080161929995646
- -0.12757363783788658
- 0.37745946924238477
- -1.8990903706129103
- 1.1496013007960495
- 3.2690612573256663
- -2.568356256103467
- 0.0
- 0.0
velocity:
- 0.13675098253503906
- 0.016196062797536933
- -0.16138874759593275
- -0.02164561699191512
- -0.24271850375290036
- -0.14254644662255736
- 0.16468843442591316
- 0.0
- 0.0
effort:
- 0.551152229309082
- -23.977937698364258
- -1.2962455749511719
- 22.034162521362305
- -2.199077844619751
- 0.9706576466560364
- 0.384407639503479
- 0.0
- 0.0
---
header:
  stamp:
    sec: 1756275913
    nanosec: 267145161
  frame_id: ''
name:
- fr3_joint1
- fr3_joint2
- fr3_joint3
- fr3_joint4
- fr3_joint5
- fr3_joint6
- fr3_joint7
- fr3_finger_joint1
- fr3_finger_joint2
position:
- 0.5122209869150105
- -0.12705068660364285
- 0.37218520283805434
- -1.8998104700267517
- 1.1412260334952387
- 3.2640952606479745
- -2.562473354751696
- 0.0
- 0.0
velocity:
- 0.12027266799213654
- 0.016267690453677805
- -0.15609492847423698
- -0.02196329964702156
- -0.25149441930715666
- -0.15869373280928478
- 0.18689488520735495
- 0.0
- 0.0
effort:
- 0.26947498321533203
- -24.081087112426758
- -1.7088432312011719
- 22.216657638549805
- -2.186260461807251
- 0.9441073536872864
- 0.398140549659729
- 0.0
- 0.0
---
header:
  stamp:
    sec: 1756275913
    nanosec: 300549176
  frame_id: ''
name:
- fr3_joint1
- fr3_joint2
- fr3_joint3
- fr3_joint4
- fr3_joint5
- fr3_joint6
- fr3_joint7
- fr3_finger_joint1
- fr3_finger_joint2
position:
- 0.5163418092511317
- -0.12654709635929678
- 0.3669961022772595
- -1.9005204249654253
- 1.1331929824021492
- 3.2586274465727447
- -2.5567264609000677
- 0.0
- 0.0
velocity:
- 0.1358401561974338
- 0.01546286919157457
- -0.16157556520260452
- -0.021763374199810902
- -0.23942046483109158
- -0.16882953954013868
- 0.15957520770097008
- 0.0
- 0.0
effort:
- 0.32104969024658203
- -24.104890823364258
- -1.3478202819824219
- 22.141279220581055
- -2.146892786026001
- 1.0036166906356812
- 0.309334397315979
- 0.0
- 0.0
---
header:
  stamp:
    sec: 1756275913
    nanosec: 333769175
  frame_id: ''
name:
- fr3_joint1
- fr3_joint2
- fr3_joint3
- fr3_joint4
- fr3_joint5
- fr3_joint6
- fr3_joint7
- fr3_finger_joint1
- fr3_finger_joint2
position:
- 0.5209031786981423
- -0.1259582025037517
- 0.3615570244699049
- -1.9012616204256503
- 1.1246994697430892
- 3.253233062307603
- -2.551476391688396
- 0.0
- 0.0
velocity:
- 0.13447458870028478
- 0.018971316899864813
- -0.16021950811556096
- -0.020057972224126728
- -0.2596165778745501
- -0.14887848291038053
- 0.16073453041273036
- 0.0
- 0.0
effort:
- 0.49957752227783203
- -24.311189651489258
- -1.2168998718261719
- 22.216657638549805
- -2.153301477432251
- 1.0237582921981812
- 0.384407639503479
- 0.0
- 0.0
---
header:
  stamp:
    sec: 1756275913
    nanosec: 367128046
  frame_id: ''
name:
- fr3_joint1
- fr3_joint2
- fr3_joint3
- fr3_joint4
- fr3_joint5
- fr3_joint6
- fr3_joint7
- fr3_finger_joint1
- fr3_finger_joint2
position:
- 0.525264904356014
- -0.12538731378047027
- 0.3563831402767731
- -1.9019931601945863
- 1.1163450244437227
- 3.2480369608225406
- -2.54563393863425
- 0.0
- 0.0
velocity:
- 0.12873354602959705
- 0.015429848916367941
- -0.14539038103178129
- -0.022419215195583674
- -0.24353009454359287
- -0.16209111432589868
- 0.1816945572982065
- 0.0
- 0.0
effort:
- 0.26947498321533203
- -24.208040237426758
- -1.6056938171386719
- 22.192853927612305
- -2.107525110244751
- 1.0438998937606812
- 0.390816330909729
- 0.0
- 0.0
---
header:
  stamp:
    sec: 1756275913
    nanosec: 400530521
  frame_id: ''
name:
- fr3_joint1
- fr3_joint2
- fr3_joint3
- fr3_joint4
- fr3_joint5
- fr3_joint6
- fr3_joint7
- fr3_finger_joint1
- fr3_finger_joint2
position:
- 0.5296552801932112
- -0.12488625369667786
- 0.3515585347366299
- -1.9027762982568521
- 1.1084901089538755
- 3.242754713281857
- -2.5395499566523045
- 0.0
- 0.0
velocity:
- 0.13096391831750673
- 0.015019157276148581
- -0.14702344438760442
- -0.02457685045211087
- -0.24368472631186422
- -0.1668147681045095
- 0.18118796933659082
- 0.0
- 0.0
effort:
- 0.40039539337158203
- -24.311189651489258
- -1.4747734069824219
- 22.192853927612305
- -2.080974817276001
- 1.0503085851669312
- 0.384407639503479
- 0.0
- 0.0
---
header:
  stamp:
    sec: 1756275913
    nanosec: 434346511
  frame_id: ''
name:
- fr3_joint1
- fr3_joint2
- fr3_joint3
- fr3_joint4
- fr3_joint5
- fr3_joint6
- fr3_joint7
- fr3_finger_joint1
- fr3_finger_joint2
position:
- 0.5336030839655282
- -0.1243874928865014
- 0.34691812989800624
- -1.9034485879801113
- 1.101285587071653
- 3.2382514549936685
- -2.5349932601152694
- 0.0
- 0.0
velocity:
- 0.13861838046246006
- 0.02005554323931051
- -0.16280866595311358
- -0.022235998340501616
- -0.24742211195430883
- -0.15084046221130493
- 0.147345719821621
- 0.0
- 0.0
effort:
- 0.805058479309082
- -24.537324905395508
- -0.9590262770652771
- 22.216657638549805
- -2.146892786026001
- 0.9907992482185364
- 0.410957932472229
- 0.0
- 0.0
---
header:
  stamp:
    sec: 1756275913
    nanosec: 468187106
  frame_id: ''
name:
- fr3_joint1
- fr3_joint2
- fr3_joint3
- fr3_joint4
- fr3_joint5
- fr3_joint6
- fr3_joint7
- fr3_finger_joint1
- fr3_finger_joint2
position:
- 0.5372775438163944
- -0.12382904982576613
- 0.3422455256283627
- -1.904090358704408
- 1.0941103853672476
- 3.2338723610604156
- -2.5305614217963828
- 0.0
- 0.0
velocity:
- 0.12994619812600922
- 0.021229736910944444
- -0.15466060315791674
- -0.02537177711560517
- -0.2518110066885954
- -0.14719792673772958
- 0.16000476263692465
- 0.0
- 0.0
effort:
- 0.47577381134033203
- -24.616670608520508
- -1.2168998718261719
- 22.454694747924805
- -2.061748743057251
- 1.0704501867294312
- 0.424690842628479
- 0.0
- 0.0
---
header:
  stamp:
    sec: 1756275913
    nanosec: 500558738
  frame_id: ''
name:
- fr3_joint1
- fr3_joint2
- fr3_joint3
- fr3_joint4
- fr3_joint5
- fr3_joint6
- fr3_joint7
- fr3_finger_joint1
- fr3_finger_joint2
position:
- 0.5427183930712206
- -0.12293533710943307
- 0.3356692641352745
- -1.9049990365210794
- 1.0834433827629615
- 3.227674894564366
- -2.5229186891873834
- 0.0
- 0.0
velocity:
- 0.12983924038773945
- 0.020300124035142055
- -0.15648193006685798
- -0.020439620020446095
- -0.24747438452045079
- -0.15036114651326132
- 0.18535423778936844
- 0.0
- 0.0
effort:
- 0.527348518371582
- -24.692049026489258
- -1.2446708679199219
- 22.296003341674805
- -2.028789758682251
- 1.0704501867294312
- 0.350533127784729
- 0.0
- 0.0
---
header:
  stamp:
    sec: 1756275913
    nanosec: 533913534
  frame_id: ''
name:
- fr3_joint1
- fr3_joint2
- fr3_joint3
- fr3_joint4
- fr3_joint5
- fr3_joint6
- fr3_joint7
- fr3_finger_joint1
- fr3_finger_joint2
position:
- 0.5473558937319305
- -0.1222425051173257
- 0.3301463499674096
- -1.9056380640205532
- 1.0752594094568169
- 3.2221860268244016
- -2.517131632254862
- 0.0
- 0.0
velocity:
- 0.1369822238025469
- 0.018517782282017524
- -0.1593790534202869
- -0.01803027786351718
- -0.2337600006159209
- -0.16654732477281736
- 0.16399147854099103
- 0.0
- 0.0
effort:
- 0.47577381134033203
- -24.616670608520508
- -1.3200492858886719
- 22.351545333862305
- -1.9637874364852905
- 1.0841830968856812
- 0.356941819190979
- 0.0
- 0.0
---
header:
  stamp:
    sec: 1756275913
    nanosec: 567635414
  frame_id: ''
name:
- fr3_joint1
- fr3_joint2
- fr3_joint3
- fr3_joint4
- fr3_joint5
- fr3_joint6
- fr3_joint7
- fr3_finger_joint1
- fr3_finger_joint2
position:
- 0.5516111048081368
- -0.12157152447275378
- 0.3252201548284503
- -1.9062670882538513
- 1.0670792670397595
- 3.216742314758316
- -2.5116758564681576
- 0.0
- 0.0
velocity:
- 0.11828008329791977
- 0.017844675780959916
- -0.1407752405652893
- -0.020162854810109192
- -0.25428557000186286
- -0.16200642400328805
- 0.16296278467164926
- 0.0
- 0.0
effort:
- 0.24567127227783203
- -24.588899612426758
- -1.6850395202636719
- 22.482465744018555
- -1.9766048192977905
- 1.1436923742294312
- 0.390816330909729
- 0.0
- 0.0
---
header:
  stamp:
    sec: 1756275913
    nanosec: 600515306
  frame_id: ''
name:
- fr3_joint1
- fr3_joint2
- fr3_joint3
- fr3_joint4
- fr3_joint5
- fr3_joint6
- fr3_joint7
- fr3_finger_joint1
- fr3_finger_joint2
position:
- 0.5558906612253369
- -0.12089126483242077
- 0.32019788650198056
- -1.9068984912415177
- 1.0589238164504604
- 3.2117178913534072
- -2.5059453137571053
- 0.0
- 0.0
velocity:
- 0.13228650145436835
- 0.02078288405525963
- -0.16295223988220775
- -0.01954604350222908
- -0.2526885970875813
- -0.1525031854631057
- 0.18829563993095713
- 0.0
- 0.0
effort:
- 0.47577381134033203
- -24.767427444458008
- -1.2168998718261719
- 22.216657638549805
- -1.9637874364852905
- 1.1308749914169312
- 0.410957932472229
- 0.0
- 0.0
---
header:
  stamp:
    sec: 1756275913
    nanosec: 633957827
  frame_id: ''
name:
- fr3_joint1
- fr3_joint2
- fr3_joint3
- fr3_joint4
- fr3_joint5
- fr3_joint6
- fr3_joint7
- fr3_finger_joint1
- fr3_finger_joint2
position:
- 0.5604842216095669
- -0.12015846087534815
- 0.31447048994213106
- -1.9076266610862949
- 1.0506831564295076
- 3.2065899450718707
- -2.499592843635975
- 0.0
- 0.0
velocity:
- 0.13324897964802807
- 0.021394835587625817
- -0.16337024938459585
- -0.020237672820619237
- -0.2446578835286469
- -0.14787653240439658
- 0.17210216228162675
- 0.0
- 0.0
effort:
- 0.654301643371582
- -24.894380569458008
- -1.0383720397949219
- 22.426923751831055
- -1.9894222021102905
- 1.1043246984481812
- 0.323067307472229
- 0.0
- 0.0
---
header:
  stamp:
    sec: 1756275913
    nanosec: 667190078
  frame_id: ''
name:
- fr3_joint1
- fr3_joint2
- fr3_joint3
- fr3_joint4
- fr3_joint5
- fr3_joint6
- fr3_joint7
- fr3_finger_joint1
- fr3_finger_joint2
position:
- 0.5646291906333394
- -0.119460079502317
- 0.30916696784539954
- -1.9083308137110364
- 1.0421731389559603
- 3.200975893090843
- -2.494478199476007
- 0.0
- 0.0
velocity:
- 0.11689453681645275
- 0.020863405733473925
- -0.1545492498099096
- -0.019677248386594712
- -0.24441102996783207
- -0.16885700600965795
- 0.15623430709863168
- 0.0
- 0.0
effort:
- 0.626530647277832
- -25.021333694458008
- -1.1415214538574219
- 22.506269454956055
- -1.8978694677352905
- 1.1903842687606812
- 0.356941819190979
- 0.0
- 0.0
---
header:
  stamp:
    sec: 1756275913
    nanosec: 700563507
  frame_id: ''
name:
- fr3_joint1
- fr3_joint2
- fr3_joint3
- fr3_joint4
- fr3_joint5
- fr3_joint6
- fr3_joint7
- fr3_finger_joint1
- fr3_finger_joint2
position:
- 0.5688493096740153
- -0.11877506347658817
- 0.30397976805121624
- -1.9089398652446679
- 1.0342638407185745
- 3.1958641288413485
- -2.489180984605336
- 0.0
- 0.0
velocity:
- 0.1335786063489116
- 0.0207152151987843
- -0.15472107590173384
- -0.018616243592072527
- -0.23925518918288308
- -0.15325080452683582
- 0.16992855799950607
- 0.0
- 0.0
effort:
- 0.551152229309082
- -25.275239944458008
- -1.0899467468261719
- 22.403120040893555
- -1.9170955419540405
- 1.2434848546981812
- 0.377083420753479
- 0.0
- 0.0
---
header:
  stamp:
    sec: 1756275913
    nanosec: 733837482
  frame_id: ''
name:
- fr3_joint1
- fr3_joint2
- fr3_joint3
- fr3_joint4
- fr3_joint5
- fr3_joint6
- fr3_joint7
- fr3_finger_joint1
- fr3_finger_joint2
position:
- 0.5735343279629005
- -0.11809782039677988
- 0.2986978783693035
- -1.909594516565015
- 1.0259189420835826
- 3.1909449147248323
- -2.4830859079069603
- 0.0
- 0.0
velocity:
- 0.1328773790753073
- 0.01896906743066456
- -0.14976492745019723
- -0.020228640671992846
- -0.2573245491515482
- -0.1438981276044148
- 0.18996989616021132
- 0.0
- 0.0
effort:
- 0.602726936340332
- -25.326814651489258
- -1.0106010437011719
- 22.534040451049805
- -1.8914607763290405
- 1.2041171789169312
- 0.424690842628479
- 0.0
- 0.0
---
header:
  stamp:
    sec: 1756275913
    nanosec: 767149472
  frame_id: ''
name:
- fr3_joint1
- fr3_joint2
- fr3_joint3
- fr3_joint4
- fr3_joint5
- fr3_joint6
- fr3_joint7
- fr3_finger_joint1
- fr3_finger_joint2
position:
- 0.5777649163357582
- -0.11747344706818552
- 0.29365418238609986
- -1.9101182473402585
- 1.0174668916872827
- 3.185888018765605
- -2.4774609607109217
- 0.0
- 0.0
velocity:
- 0.12489424715397994
- 0.01748092556718435
- -0.1512185286013184
- -0.01545347951617556
- -0.2553171217946219
- -0.15780297315258654
- 0.15369940603536786
- 0.0
- 0.0
effort:
- 0.29724597930908203
- -25.378389358520508
- -1.5263481140136719
- 22.506269454956055
- -1.8127254247665405
- 1.2434848546981812
- 0.363350510597229
- 0.0
- 0.0
---
header:
  stamp:
    sec: 1756275913
    nanosec: 800540060
  frame_id: ''
name:
- fr3_joint1
- fr3_joint2
- fr3_joint3
- fr3_joint4
- fr3_joint5
- fr3_joint6
- fr3_joint7
- fr3_finger_joint1
- fr3_finger_joint2
position:
- 0.5820788465472772
- -0.11694358670580277
- 0.2885813288320365
- -1.9106574505948961
- 1.0093149611821615
- 3.1804345952958526
- -2.4725067210176612
- 0.0
- 0.0
velocity:
- 0.13513101429157104
- 0.01676812581421602
- -0.15662057536020016
- -0.01638214868161463
- -0.2531976050458402
- -0.16912789265902034
- 0.16092243413267807
- 0.0
- 0.0
effort:
- 0.40039539337158203
- -25.350618362426758
- -1.2168998718261719
- 22.534040451049805
- -1.7797664403915405
- 1.2434848546981812
- 0.404549241065979
- 0.0
- 0.0
---
header:
  stamp:
    sec: 1756275913
    nanosec: 834557807
  frame_id: ''
name:
- fr3_joint1
- fr3_joint2
- fr3_joint3
- fr3_joint4
- fr3_joint5
- fr3_joint6
- fr3_joint7
- fr3_finger_joint1
- fr3_finger_joint2
position:
- 0.5868011529148879
- -0.11640133632659215
- 0.2830127883762452
- -1.9112119286686788
- 1.0008944374403757
- 3.1750182328251184
- -2.4665463791362074
- 0.0
- 0.0
velocity:
- 0.1336004113426046
- 0.015432312134590854
- -0.16167834489068367
- -0.015306097365103825
- -0.24249971548069488
- -0.14930734070695906
- 0.18133031604187086
- 0.0
- 0.0
effort:
- 0.705876350402832
- -25.481538772583008
- -0.8558768630027771
- 22.482465744018555
- -1.8255428075790405
- 1.2837680578231812
- 0.432015061378479
- 0.0
- 0.0
---
header:
  stamp:
    sec: 1756275913
    nanosec: 867472404
  frame_id: ''
name:
- fr3_joint1
- fr3_joint2
- fr3_joint3
- fr3_joint4
- fr3_joint5
- fr3_joint6
- fr3_joint7
- fr3_finger_joint1
- fr3_finger_joint2
position:
- 0.5911432302865217
- -0.11597386082424684
- 0.27768204548366954
- -1.9118667484983387
- 0.9930730158035694
- 3.1698867232930525
- -2.4604222012577
- 0.0
- 0.0
velocity:
- 0.1264336044570268
- 0.010835574863776839
- -0.15293758787877143
- -0.018769367966184308
- -0.23800852947845777
- -0.16290162585690754
- 0.17149262778466534
- 0.0
- 0.0
effort:
- 0.32104969024658203
- -25.378389358520508
- -1.2446708679199219
- 22.534040451049805
- -1.8255428075790405
- 1.3103183507919312
- 0.398140549659729
- 0.0
- 0.0
---
header:
  stamp:
    sec: 1756275913
    nanosec: 900508025
  frame_id: ''
name:
- fr3_joint1
- fr3_joint2
- fr3_joint3
- fr3_joint4
- fr3_joint5
- fr3_joint6
- fr3_joint7
- fr3_finger_joint1
- fr3_finger_joint2
position:
- 0.5954062353696362
- -0.1155523819995441
- 0.272738905532929
- -1.91247326287336
- 0.9848466255130062
- 3.164705471127424
- -2.4554769184522143
- 0.0
- 0.0
velocity:
- 0.12939306839914963
- 0.012773806223360747
- -0.15175674562556962
- -0.018017156134901277
- -0.2543357236308978
- -0.16452297171169555
- 0.14525350276334204
- 0.0
- 0.0
effort:
- 0.49957752227783203
- -25.378389358520508
- -1.0383720397949219
- 22.426923751831055
- -1.7669490575790405
- 1.2636264562606812
- 0.472298264503479
- 0.0
- 0.0
---
header:
  stamp:
    sec: 1756275913
    nanosec: 934150247
  frame_id: ''
name:
- fr3_joint1
- fr3_joint2
- fr3_joint3
- fr3_joint4
- fr3_joint5
- fr3_joint6
- fr3_joint7
- fr3_finger_joint1
- fr3_finger_joint2
position:
- 0.5998828343828624
- -0.11508011127138498
- 0.26738858431605134
- -1.9130920504884334
- 0.9764060798927776
- 3.159401562286763
- -2.4501044962282923
- 0.0
- 0.0
velocity:
- 0.12942270353869623
- 0.013802377453213317
- -0.1602433382189824
- -0.01820529858404476
- -0.24254893359603977
- -0.1540043044093053
- 0.1716181667683533
- 0.0
- 0.0
effort:
- 0.602726936340332
- -25.402193069458008
- -1.0621757507324219
- 22.454694747924805
- -1.7403987646102905
- 1.2773593664169312
- 0.458565354347229
- 0.0
- 0.0
---
header:
  stamp:
    sec: 1756275913
    nanosec: 967496203
  frame_id: ''
name:
- fr3_joint1
- fr3_joint2
- fr3_joint3
- fr3_joint4
- fr3_joint5
- fr3_joint6
- fr3_joint7
- fr3_finger_joint1
- fr3_finger_joint2
position:
- 0.6041170557033553
- -0.11454867445734826
- 0.2622329175674616
- -1.913729212311693
- 0.9679156960187844
- 3.1542687476942657
- -2.444018932915141
- 0.0
- 0.0
velocity:
- 0.12212707719233944
- 0.014536866089372175
- -0.14457811448209218
- -0.018470244529426867
- -0.2643536196818953
- -0.14925875546183356
- 0.18095827058956881
- 0.0
- 0.0
effort:
- 0.17029285430908203
- -25.505342483520508
- -1.4231986999511719
- 22.506269454956055
- -1.6689876317977905
- 1.3103183507919312
- 0.398140549659729
- 0.0
- 0.0
---
header:
  stamp:
    sec: 1756275914
    nanosec: 509447
  frame_id: ''
name:
- fr3_joint1
- fr3_joint2
- fr3_joint3
- fr3_joint4
- fr3_joint5
- fr3_joint6
- fr3_joint7
- fr3_finger_joint1
- fr3_finger_joint2
position:
- 0.6084398136125033
- -0.11399181837811499
- 0.2572777455331122
- -1.9143146451703712
- 0.9598572704652636
- 3.149483760113352
- -2.4385068134832166
- 0.0
- 0.0
velocity:
- 0.13444619254346465
- 0.015035501205480452
- -0.15793826176117204
- -0.01479150570727181
- -0.23961161008323598
- -0.1515830471491417
- 0.16539533133454087
- 0.0
- 0.0
effort:
- 0.578923225402832
- -25.632295608520508
- -1.0621757507324219
- 22.506269454956055
- -1.6689876317977905
- 1.2975009679794312
- 0.418282151222229
- 0.0
- 0.0
---
header:
  stamp:
    sec: 1756275914
    nanosec: 34262451
  frame_id: ''
name:
- fr3_joint1
- fr3_joint2
- fr3_joint3
- fr3_joint4
- fr3_joint5
- fr3_joint6
- fr3_joint7
- fr3_finger_joint1
- fr3_finger_joint2
position:
- 0.6131835284947026
- -0.11343820760181549
- 0.2516024740250673
- -1.914942756376015
- 0.9519326470072067
- 3.144186234648337
- -2.4330345410796945
- 0.0
- 0.0
velocity:
- 0.13575328649042298
- 0.016720246044494784
- -0.16293723868794638
- -0.019133751901988454
- -0.23599883768111166
- -0.16645800904169805
- 0.1649450068032688
- 0.0
- 0.0
effort:
- 0.626530647277832
- -25.632295608520508
- -0.7765311598777771
- 22.454694747924805
- -1.7541316747665405
- 1.3304599523544312
- 0.398140549659729
- 0.0
- 0.0
---
header:
  stamp:
    sec: 1756275914
    nanosec: 67595813
  frame_id: ''
name:
- fr3_joint1
- fr3_joint2
- fr3_joint3
- fr3_joint4
- fr3_joint5
- fr3_joint6
- fr3_joint7
- fr3_finger_joint1
- fr3_finger_joint2
position:
- 0.6174431416019849
- -0.11289343025650649
- 0.24644793452778027
- -1.9156346906106283
- 0.9433356604552212
- 3.1387133696123564
- -2.427137918158781
- 0.0
- 0.0
velocity:
- 0.11453549034723703
- 0.017272486763322648
- -0.1458961073405009
- -0.02015937195958465
- -0.25100071208623975
- -0.16078374105893575
- 0.18725430180029942
- 0.0
- 0.0
effort:
- 0.47577381134033203
- -25.683870315551758
- -1.0899467468261719
- 22.534040451049805
- -1.6882137060165405
- 1.3304599523544312
- 0.390816330909729
- 0.0
- 0.0
---
header:
  stamp:
    sec: 1756275914
    nanosec: 100635367
  frame_id: ''
name:
- fr3_joint1
- fr3_joint2
- fr3_joint3
- fr3_joint4
- fr3_joint5
- fr3_joint6
- fr3_joint7
- fr3_finger_joint1
- fr3_finger_joint2
position:
- 0.6216071002391141
- -0.11231989095143874
- 0.24136539952735722
- -1.9163262860334567
- 0.9352544485503768
- 3.133654303015028
- -2.421075221436605
- 0.0
- 0.0
velocity:
- 0.12849883847164226
- 0.017391249144070205
- -0.16011244150878437
- -0.020260981266473882
- -0.24090883983037756
- -0.1496246999161117
- 0.16839984281600065
- 0.0
- 0.0
effort:
- 0.578923225402832
- -25.759248733520508
- -0.9074515700340271
- 22.557844161987305
- -1.6818050146102905
- 1.3570102453231812
- 0.390816330909729
- 0.0
- 0.0
---
header:
  stamp:
    sec: 1756275914
    nanosec: 134423701
  frame_id: ''
name:
- fr3_joint1
- fr3_joint2
- fr3_joint3
- fr3_joint4
- fr3_joint5
- fr3_joint6
- fr3_joint7
- fr3_finger_joint1
- fr3_finger_joint2
position:
- 0.626199903809272
- -0.11166562933456751
- 0.23584935819494338
- -1.9170216723136726
- 0.9268984349436875
- 3.128451946137663
- -2.415804014467473
- 0.0
- 0.0
velocity:
- 0.12958939038613054
- 0.019821458908312425
- -0.15363513615882665
- -0.02003381027291216
- -0.25058053037771116
- -0.1491172090824321
- 0.1591959884219661
- 0.0
- 0.0
effort:
- 0.527348518371582
- -25.937776565551758
- -0.9590262770652771
- 22.744306564331055
- -1.6424373388290405
- 1.3570102453231812
- 0.377083420753479
- 0.0
- 0.0
---
header:
  stamp:
    sec: 1756275914
    nanosec: 167622238
  frame_id: ''
name:
- fr3_joint1
- fr3_joint2
- fr3_joint3
- fr3_joint4
- fr3_joint5
- fr3_joint6
- fr3_joint7
- fr3_finger_joint1
- fr3_finger_joint2
position:
- 0.6304491353932506
- -0.11106716995611969
- 0.23085135910915264
- -1.9176530208852163
- 0.918744448028217
- 3.122889127880892
- -2.4103332700001525
- 0.0
- 0.0
velocity:
- 0.12465709182676886
- 0.0167375988133069
- -0.14526127656419752
- -0.017823847569985445
- -0.23732616538847162
- -0.17405835301071593
- 0.1699381051868825
- 0.0
- 0.0
effort:
- 0.34882068634033203
- -25.937776565551758
- -1.1415214538574219
- 22.637189865112305
- -1.5966609716415405
- 1.3972934484481812
- 0.404549241065979
- 0.0
- 0.0
---
header:
  stamp:
    sec: 1756275914
    nanosec: 200652888
  frame_id: ''
name:
- fr3_joint1
- fr3_joint2
- fr3_joint3
- fr3_joint4
- fr3_joint5
- fr3_joint6
- fr3_joint7
- fr3_finger_joint1
- fr3_finger_joint2
position:
- 0.634918493039409
- -0.11048073951997148
- 0.22573188592703833
- -1.9182865579108974
- 0.9108526388108733
- 3.117724405579535
- -2.404468718666055
- 0.0
- 0.0
velocity:
- 0.1399834743568691
- 0.017972741168028574
- -0.15932796903381935
- -0.020441429384794044
- -0.25227728702266344
- -0.15639105687909607
- 0.18994001601701735
- 0.0
- 0.0
effort:
- 0.34882068634033203
- -25.886201858520508
- -1.0899467468261719
- 22.744306564331055
- -1.6030696630477905
- 1.4174350500106812
- 0.377083420753479
- 0.0
- 0.0
---
header:
  stamp:
    sec: 1756275914
    nanosec: 234147650
  frame_id: ''
name:
- fr3_joint1
- fr3_joint2
- fr3_joint3
- fr3_joint4
- fr3_joint5
- fr3_joint6
- fr3_joint7
- fr3_finger_joint1
- fr3_finger_joint2
position:
- 0.6396413737616443
- -0.10974435455358332
- 0.220293140465207
- -1.9188542804405875
- 0.9022937100655565
- 3.1127933103514125
- -2.3986356579507073
- 0.0
- 0.0
velocity:
- 0.12594086437884539
- 0.021573807608613126
- -0.15486537424769267
- -0.017316478293431376
- -0.2557800586413459
- -0.14624915072904368
- 0.1538998512548102
- 0.0
- 0.0
effort:
- 0.678105354309082
- -25.989351272583008
- -0.7527274489402771
- 22.716535568237305
- -1.5701106786727905
- 1.4174350500106812
- 0.329475998878479
- 0.0
- 0.0
---
header:
  stamp:
    sec: 1756275914
    nanosec: 267260120
  frame_id: ''
name:
- fr3_joint1
- fr3_joint2
- fr3_joint3
- fr3_joint4
- fr3_joint5
- fr3_joint6
- fr3_joint7
- fr3_finger_joint1
- fr3_finger_joint2
position:
- 0.643796763314157
- -0.10900655179451886
- 0.2150089938761399
- -1.9194612787554304
- 0.8940578059463417
- 3.107820023201033
- -2.393485708577627
- 0.0
- 0.0
velocity:
- 0.11665648061865426
- 0.022657707981751922
- -0.15842879176379665
- -0.018602861379823626
- -0.24344405447175801
- -0.15225934705322036
- 0.1641754764157579
- 0.0
- 0.0
effort:
- 0.626530647277832
- -26.040925979614258
- -0.8558768630027771
- 22.506269454956055
- -1.6094783544540405
- 1.3972934484481812
- 0.390816330909729
- 0.0
- 0.0
---
header:
  stamp:
    sec: 1756275914
    nanosec: 300569390
  frame_id: ''
name:
- fr3_joint1
- fr3_joint2
- fr3_joint3
- fr3_joint4
- fr3_joint5
- fr3_joint6
- fr3_joint7
- fr3_finger_joint1
- fr3_finger_joint2
position:
- 0.6479872884383371
- -0.10832364776432245
- 0.20977270918106578
- -1.920136557681049
- 0.8858204546486472
- 3.1024716898719182
- -2.387600814159662
- 0.0
- 0.0
velocity:
- 0.1306306167868039
- 0.02070894034927619
- -0.15557216757941253
- -0.020165243060235996
- -0.2459424052617801
- -0.16675370950345342
- 0.18437374592967065
- 0.0
- 0.0
effort:
- 0.44800281524658203
- -25.961580276489258
- -0.8281058669090271
- 22.454694747924805
- -1.5179256200790405
- 1.4302524328231812
- 0.404549241065979
- 0.0
- 0.0
---
header:
  stamp:
    sec: 1756275914
    nanosec: 333835516
  frame_id: ''
name:
- fr3_joint1
- fr3_joint2
- fr3_joint3
- fr3_joint4
- fr3_joint5
- fr3_joint6
- fr3_joint7
- fr3_finger_joint1
- fr3_finger_joint2
position:
- 0.6525275413442794
- -0.10755069338382735
- 0.20439471678253415
- -1.9208660991591167
- 0.8776697011734441
- 3.096944117281959
- -2.381250319846443
- 0.0
- 0.0
velocity:
- 0.12997091986994252
- 0.023509692199527223
- -0.15532974626105947
- -0.02178444830588153
- -0.23780677664937833
- -0.15335815691452778
- 0.17262769105553652
- 0.0
- 0.0
effort:
- 0.602726936340332
- -26.191682815551758
- -0.7249564528465271
- 22.664960861206055
- -1.4922908544540405
- 1.4366611242294312
- 0.390816330909729
- 0.0
- 0.0
---
header:
  stamp:
    sec: 1756275914
    nanosec: 367527734
  frame_id: ''
name:
- fr3_joint1
- fr3_joint2
- fr3_joint3
- fr3_joint4
- fr3_joint5
- fr3_joint6
- fr3_joint7
- fr3_finger_joint1
- fr3_finger_joint2
position:
- 0.6567991919666755
- -0.10678853921618901
- 0.19933253080592706
- -1.9216366472206952
- 0.8694048431168276
- 3.0917727895246654
- -2.3761846243386624
- 0.0
- 0.0
velocity:
- 0.12108313012138094
- 0.02148041519245349
- -0.14203622181336945
- -0.02610738357535782
- -0.2570358037449071
- -0.16166792623295048
- 0.15454916801142116
- 0.0
- 0.0
effort:
- 0.26947498321533203
- -26.215486526489258
- -1.1653251647949219
- 22.847455978393555
- -1.4922908544540405
- 1.4906772375106812
- 0.370674729347229
- 0.0
- 0.0
---
header:
  stamp:
    sec: 1756275914
    nanosec: 400547025
  frame_id: ''
name:
- fr3_joint1
- fr3_joint2
- fr3_joint3
- fr3_joint4
- fr3_joint5
- fr3_joint6
- fr3_joint7
- fr3_finger_joint1
- fr3_finger_joint2
position:
- 0.6612527666785819
- -0.1060662844689099
- 0.1944046156553146
- -1.9224131829287778
- 0.8611110977042072
- 3.0865290785570614
- -2.3707696601698713
- 0.0
- 0.0
velocity:
- 0.1315536632511572
- 0.021824917581601776
- -0.15009403359539142
- -0.023857551510525953
- -0.25085624036740267
- -0.1669128984399398
- 0.17621672045606807
- 0.0
- 0.0
effort:
- 0.654301643371582
- -26.421785354614258
- -0.7527274489402771
- 22.716535568237305
- -1.4922908544540405
- 1.5300449132919312
- 0.444832444190979
- 0.0
- 0.0
---
header:
  stamp:
    sec: 1756275914
    nanosec: 433811709
  frame_id: ''
name:
- fr3_joint1
- fr3_joint2
- fr3_joint3
- fr3_joint4
- fr3_joint5
- fr3_joint6
- fr3_joint7
- fr3_finger_joint1
- fr3_finger_joint2
position:
- 0.6658897173150671
- -0.10525767056109495
- 0.18876301957381456
- -1.923107842562533
- 0.852913664170632
- 3.081140842463951
- -2.3646020966495334
- 0.0
- 0.0
velocity:
- 0.12739264918455687
- 0.02465650498838465
- -0.1658498766709821
- -0.019209501841383397
- -0.2438660594590726
- -0.15669086401524315
- 0.17869931390476793
- 0.0
- 0.0
effort:
- 0.602726936340332
- -26.751070022583008
- -0.4948539137840271
- 22.847455978393555
- -1.5051082372665405
- 1.5108188390731812
- 0.418282151222229
- 0.0
- 0.0
---
header:
  stamp:
    sec: 1756275914
    nanosec: 467551064
  frame_id: ''
name:
- fr3_joint1
- fr3_joint2
- fr3_joint3
- fr3_joint4
- fr3_joint5
- fr3_joint6
- fr3_joint7
- fr3_finger_joint1
- fr3_finger_joint2
position:
- 0.6700199906135825
- -0.10450864609167713
- 0.18349766078867177
- -1.9237397967755223
- 0.8445598108142425
- 3.0760401373385884
- -2.358911620118405
- 0.0
- 0.0
velocity:
- 0.11822411067075879
- 0.019528744419146905
- -0.1504941866604296
- -0.018743173238337973
- -0.24859818948496365
- -0.150661119378053
- 0.16509977280266028
- 0.0
- 0.0
effort:
- 0.551152229309082
- -26.675691604614258
- -0.7765311598777771
- 22.795881271362305
- -1.4263728857040405
- 1.5639194250106812
- 0.336800217628479
- 0.0
- 0.0
---
header:
  stamp:
    sec: 1756275914
    nanosec: 500539437
  frame_id: ''
name:
- fr3_joint1
- fr3_joint2
- fr3_joint3
- fr3_joint4
- fr3_joint5
- fr3_joint6
- fr3_joint7
- fr3_finger_joint1
- fr3_finger_joint2
position:
- 0.6742720897723591
- -0.10384463887185552
- 0.17842925145353158
- -1.9243939446222034
- 0.8368331096816573
- 3.0712791425775525
- -2.353608776249473
- 0.0
- 0.0
velocity:
- 0.1297280184467771
- 0.01809576128144269
- -0.1556368402104098
- -0.020969633119850135
- -0.23533804318115387
- -0.15151685270330664
- 0.16749842949394775
- 0.0
- 0.0
effort:
- 0.729680061340332
- -26.647920608520508
- -0.5980033278465271
- 22.847455978393555
- -1.4657405614852905
- 1.5172275304794312
- 0.309334397315979
- 0.0
- 0.0
---
header:
  stamp:
    sec: 1756275914
    nanosec: 533820399
  frame_id: ''
name:
- fr3_joint1
- fr3_joint2
- fr3_joint3
- fr3_joint4
- fr3_joint5
- fr3_joint6
- fr3_joint7
- fr3_finger_joint1
- fr3_finger_joint2
position:
- 0.678909901306733
- -0.10325738412440857
- 0.17290090954776222
- -1.92507623429497
- 0.8282730812199259
- 3.065926372273453
- -2.347431443345919
- 0.0
- 0.0
velocity:
- 0.1302555270342662
- 0.0172801531188172
- -0.15462459189099942
- -0.01880599341210357
- -0.2558649078653112
- -0.1677137773636845
- 0.19070954880055527
- 0.0
- 0.0
effort:
- 0.626530647277832
- -26.727266311645508
- -0.8558768630027771
- 22.847455978393555
- -1.3934139013290405
- 1.5639194250106812
- 0.363350510597229
- 0.0
- 0.0
---
header:
  stamp:
    sec: 1756275914
    nanosec: 567468695
  frame_id: ''
name:
- fr3_joint1
- fr3_joint2
- fr3_joint3
- fr3_joint4
- fr3_joint5
- fr3_joint6
- fr3_joint7
- fr3_finger_joint1
- fr3_finger_joint2
position:
- 0.6832001825835158
- -0.10277869846598539
- 0.1680013384139763
- -1.9257960357853667
- 0.8198145213272463
- 3.060490637170215
- -2.3414115855396584
- 0.0
- 0.0
velocity:
- 0.12548890731356388
- 0.015318133474971851
- -0.1463443860232813
- -0.022672718826570418
- -0.24715239734436054
- -0.1619221254751382
- 0.16144282153470169
- 0.0
- 0.0
effort:
- 0.37262439727783203
- -26.774873733520508
- -0.9312552809715271
- 22.875226974487305
- -1.3146785497665405
- 1.6307529211044312
- 0.329475998878479
- 0.0
- 0.0
---
header:
  stamp:
    sec: 1756275914
    nanosec: 600511253
  frame_id: ''
name:
- fr3_joint1
- fr3_joint2
- fr3_joint3
- fr3_joint4
- fr3_joint5
- fr3_joint6
- fr3_joint7
- fr3_finger_joint1
- fr3_finger_joint2
position:
- 0.6875390826878485
- -0.10233004495587014
- 0.16294648421666288
- -1.926496518604328
- 0.8118245522175352
- 3.055443030855503
- -2.336415357972355
- 0.0
- 0.0
velocity:
- 0.12725013028259247
- 0.014352850010124946
- -0.16084620992265075
- -0.022310230774453328
- -0.25782790556231433
- -0.14895416669242714
- 0.160044972399789
- 0.0
- 0.0
effort:
- 0.832829475402832
- -26.774873733520508
- -0.5464286208152771
- 22.875226974487305
- -1.3540462255477905
- 1.5767368078231812
- 0.432015061378479
- 0.0
- 0.0
---
header:
  stamp:
    sec: 1756275914
    nanosec: 633738875
  frame_id: ''
name:
- fr3_joint1
- fr3_joint2
- fr3_joint3
- fr3_joint4
- fr3_joint5
- fr3_joint6
- fr3_joint7
- fr3_finger_joint1
- fr3_finger_joint2
position:
- 0.6921771833134505
- -0.10183466836890451
- 0.15721852779906623
- -1.9272047044125056
- 0.8034992782511131
- 3.0502402173552374
- -2.330808920040365
- 0.0
- 0.0
velocity:
- 0.12802095276730568
- 0.015257827076949618
- -0.15813636903286696
- -0.020470162992187586
- -0.24170963617400476
- -0.14951504284264466
- 0.16975508450427915
- 0.0
- 0.0
effort:
- 0.757451057434082
- -26.774873733520508
- -0.5464286208152771
- 22.899030685424805
- -1.3348201513290405
- 1.6307529211044312
- 0.377083420753479
- 0.0
- 0.0
---
header:
  stamp:
    sec: 1756275914
    nanosec: 667546042
  frame_id: ''
name:
- fr3_joint1
- fr3_joint2
- fr3_joint3
- fr3_joint4
- fr3_joint5
- fr3_joint6
- fr3_joint7
- fr3_finger_joint1
- fr3_finger_joint2
position:
- 0.6963330528541731
- -0.10137317053339452
- 0.15203216824332677
- -1.9278511828330585
- 0.795603711365145
- 3.044759262740952
- -2.3246658534530127
- 0.0
- 0.0
velocity:
- 0.12061754488679637
- 0.013353972638162672
- -0.1530306966396448
- -0.01818860466519116
- -0.24290220835450704
- -0.1726575901461109
- 0.18968077477812284
- 0.0
- 0.0
effort:
- 0.781254768371582
- -26.675691604614258
- -0.5464286208152771
- 22.688764572143555
- -1.2954524755477905
- 1.6170200109481812
- 0.336800217628479
- 0.0
- 0.0
---
header:
  stamp:
    sec: 1756275914
    nanosec: 700603400
  frame_id: ''
name:
- fr3_joint1
- fr3_joint2
- fr3_joint3
- fr3_joint4
- fr3_joint5
- fr3_joint6
- fr3_joint7
- fr3_finger_joint1
- fr3_finger_joint2
position:
- 0.7006290499165131
- -0.1009091133376237
- 0.14684325202217266
- -1.9285737975997428
- 0.7873387732915716
- 3.0395874773926144
- -2.3192803877324235
- 0.0
- 0.0
velocity:
- 0.12964145984345943
- 0.014056340559462147
- -0.15256651188651588
- -0.02399096472052834
- -0.2528282874073823
- -0.15726781370311826
- 0.15250285539416014
- 0.0
- 0.0
effort:
- 0.654301643371582
- -26.802644729614258
- -0.5186576247215271
- 22.875226974487305
- -1.2826350927352905
- 1.6573032140731812
- 0.336800217628479
- 0.0
- 0.0
---
header:
  stamp:
    sec: 1756275914
    nanosec: 733924134
  frame_id: ''
name:
- fr3_joint1
- fr3_joint2
- fr3_joint3
- fr3_joint4
- fr3_joint5
- fr3_joint6
- fr3_joint7
- fr3_finger_joint1
- fr3_finger_joint2
position:
- 0.7052623705662793
- -0.10039448578555506
- 0.14161293166098846
- -1.929430470955736
- 0.7788148985823827
- 3.0346541195393932
- -2.313860061443613
- 0.0
- 0.0
velocity:
- 0.13072705956433237
- 0.014387520455323216
- -0.14966926378102635
- -0.02365998792249849
- -0.24671082505471553
- -0.14527263468663648
- 0.17078066974674327
- 0.0
- 0.0
effort:
- 0.551152229309082
- -26.802644729614258
- -0.5980033278465271
- 22.875226974487305
- -1.2762264013290405
- 1.6765292882919312
- 0.302925705909729
- 0.0
- 0.0
---
header:
  stamp:
    sec: 1756275914
    nanosec: 767463134
  frame_id: ''
name:
- fr3_joint1
- fr3_joint2
- fr3_joint3
- fr3_joint4
- fr3_joint5
- fr3_joint6
- fr3_joint7
- fr3_finger_joint1
- fr3_finger_joint2
position:
- 0.7094046797647924
- -0.09980934107080162
- 0.13667902631183884
- -1.9302032593227518
- 0.7704091523130262
- 3.029629932022133
- -2.30778840802345
- 0.0
- 0.0
velocity:
- 0.1244666740672367
- 0.017505547051662282
- -0.15152257468070546
- -0.023381025285533062
- -0.25420947166374475
- -0.15172669923293103
- 0.1846850928925844
- 0.0
- 0.0
effort:
- 0.34882068634033203
- -26.854219436645508
- -0.9074515700340271
- 22.926801681518555
- -1.2167171239852905
- 1.6966708898544312
- 0.323067307472229
- 0.0
- 0.0
---
header:
  stamp:
    sec: 1756275914
    nanosec: 800557387
  frame_id: ''
name:
- fr3_joint1
- fr3_joint2
- fr3_joint3
- fr3_joint4
- fr3_joint5
- fr3_joint6
- fr3_joint7
- fr3_finger_joint1
- fr3_finger_joint2
position:
- 0.7138247946677189
- -0.0991964315628681
- 0.1315126105434388
- -1.9308885900807373
- 0.7623856241827057
- 3.02430898285205
- -2.302055367059537
- 0.0
- 0.0
velocity:
- 0.13636699928805235
- 0.020303181728242095
- -0.15724622051318551
- -0.021807407242260452
- -0.23445821419802612
- -0.16783401810848128
- 0.15671243844213298
- 0.0
- 0.0
effort:
- 0.602726936340332
- -26.878023147583008
- -0.6218070387840271
- 22.899030685424805
- -1.2103084325790405
- 1.7305454015731812
- 0.418282151222229
- 0.0
- 0.0
---
header:
  stamp:
    sec: 1756275914
    nanosec: 833754328
  frame_id: ''
name:
- fr3_joint1
- fr3_joint2
- fr3_joint3
- fr3_joint4
- fr3_joint5
- fr3_joint6
- fr3_joint7
- fr3_finger_joint1
- fr3_finger_joint2
position:
- 0.7184875595982196
- -0.0985449337007437
- 0.12589953315257957
- -1.931572847316455
- 0.7543422368208823
- 3.018723101365397
- -2.2969770853614992
- 0.0
- 0.0
velocity:
- 0.12949477681187502
- 0.0191892696070872
- -0.15878858372741678
- -0.020749192824856013
- -0.25085811276533654
- -0.15586635483238523
- 0.15608580060655705
- 0.0
- 0.0
effort:
- 0.805058479309082
- -27.159700393676758
- -0.2845878005027771
- 23.057722091674805
- -1.2890437841415405
- 1.7039951086044312
- 0.370674729347229
- 0.0
- 0.0
---
header:
  stamp:
    sec: 1756275914
    nanosec: 867116050
  frame_id: ''
name:
- fr3_joint1
- fr3_joint2
- fr3_joint3
- fr3_joint4
- fr3_joint5
- fr3_joint6
- fr3_joint7
- fr3_finger_joint1
- fr3_finger_joint2
position:
- 0.7226874501998738
- -0.09789165888030525
- 0.12058142509905574
- -1.9322063698285914
- 0.745823236571542
- 3.013581626759726
- -2.2913644469732053
- 0.0
- 0.0
velocity:
- 0.12206026082126048
- 0.019009794256882165
- -0.1531728422888334
- -0.01908191604557675
- -0.2612696896693247
- -0.16068342904785107
- 0.17877350078525364
- 0.0
- 0.0
effort:
- 0.626530647277832
- -27.207307815551758
- -0.5464286208152771
- 22.978376388549805
- -1.1910823583602905
- 1.6966708898544312
- 0.432015061378479
- 0.0
- 0.0
---
header:
  stamp:
    sec: 1756275914
    nanosec: 900525387
  frame_id: ''
name:
- fr3_joint1
- fr3_joint2
- fr3_joint3
- fr3_joint4
- fr3_joint5
- fr3_joint6
- fr3_joint7
- fr3_finger_joint1
- fr3_finger_joint2
position:
- 0.726964442483998
- -0.09728687131872472
- 0.11556692688128857
- -1.9328113790844108
- 0.7378146859462378
- 3.0083500323000365
- -2.2854401737189205
- 0.0
- 0.0
velocity:
- 0.1306378251778109
- 0.01678230392339269
- -0.1528523806412966
- -0.018078955933242286
- -0.24132186929402877
- -0.16389885547700583
- 0.17676398041607064
- 0.0
- 0.0
effort:
- 0.832829475402832
- -27.032747268676758
- -0.4155082106590271
- 22.899030685424805
- -1.1517146825790405
- 1.6966708898544312
- 0.377083420753479
- 0.0
- 0.0
---
header:
  stamp:
    sec: 1756275914
    nanosec: 933737399
  frame_id: ''
name:
- fr3_joint1
- fr3_joint2
- fr3_joint3
- fr3_joint4
- fr3_joint5
- fr3_joint6
- fr3_joint7
- fr3_finger_joint1
- fr3_finger_joint2
position:
- 0.7314763700594011
- -0.09663040174450145
- 0.11009767474143471
- -1.9334500222966702
- 0.7292691629950193
- 3.0029366076250805
- -2.279599673019764
- 0.0
- 0.0
velocity:
- 0.12751590297008467
- 0.017815392779874952
- -0.1595983525899674
- -0.01790260223676947
- -0.24464642266588496
- -0.15538116517400147
- 0.16423663538384553
- 0.0
- 0.0
effort:
- 0.654301643371582
- -27.207307815551758
- -0.4670829176902771
- 22.899030685424805
- -1.1709407567977905
- 1.7900546789169312
- 0.398140549659729
- 0.0
- 0.0
---
header:
  stamp:
    sec: 1756275914
    nanosec: 967147618
  frame_id: ''
name:
- fr3_joint1
- fr3_joint2
- fr3_joint3
- fr3_joint4
- fr3_joint5
- fr3_joint6
- fr3_joint7
- fr3_finger_joint1
- fr3_finger_joint2
position:
- 0.7357411405711269
- -0.09598675254774487
- 0.10503801449425317
- -1.9341432942951085
- 0.7212110857258635
- 2.9978255488394505
- -2.273980937586678
- 0.0
- 0.0
velocity:
- 0.12504434230447856
- 0.018930567473823504
- -0.14795498727687012
- -0.019258029542465555
- -0.2405655212412722
- -0.14641675252217337
- 0.17258805437352837
- 0.0
- 0.0
effort:
- 0.47577381134033203
- -27.159700393676758
- -0.8043021559715271
- 22.899030685424805
- -1.0922054052352905
- 1.7964633703231812
- 0.350533127784729
- 0.0
- 0.0
---
header:
  stamp:
    sec: 1756275915
    nanosec: 549609
  frame_id: ''
name:
- fr3_joint1
- fr3_joint2
- fr3_joint3
- fr3_joint4
- fr3_joint5
- fr3_joint6
- fr3_joint7
- fr3_finger_joint1
- fr3_finger_joint2
position:
- 0.740121807437354
- -0.09532475674317421
- 0.10006829885714295
- -1.934808747301797
- 0.7132446092034683
- 2.9930536069350873
- -2.2679380869801693
- 0.0
- 0.0
velocity:
- 0.13249729576651828
- 0.022340915752211234
- -0.1598507549251823
- -0.017624680756240588
- -0.25573200336234486
- -0.14889703560154932
- 0.1906291641790599
- 0.0
- 0.0
effort:
- 0.781254768371582
- -27.183504104614258
- -0.4948539137840271
- 22.899030685424805
- -1.1187556982040405
- 1.7369540929794312
- 0.363350510597229
- 0.0
- 0.0
---
header:
  stamp:
    sec: 1756275915
    nanosec: 34049443
  frame_id: ''
name:
- fr3_joint1
- fr3_joint2
- fr3_joint3
- fr3_joint4
- fr3_joint5
- fr3_joint6
- fr3_joint7
- fr3_finger_joint1
- fr3_finger_joint2
position:
- 0.744815442743227
- -0.09458165172044894
- 0.09438774914926619
- -1.9354271085264865
- 0.7045362564437008
- 2.9878037942917124
- -2.2621498283500854
- 0.0
- 0.0
velocity:
- 0.12624410904310512
- 0.0207917463949428
- -0.15750285556640026
- -0.018911856585970988
- -0.2517406700232257
- -0.16537278649700218
- 0.1480413840729096
- 0.0
- 0.0
effort:
- 0.884404182434082
- -27.258882522583008
- -0.2845878005027771
- 23.006147384643555
- -1.1315730810165405
- 1.8037875890731812
- 0.424690842628479
- 0.0
- 0.0
---
header:
  stamp:
    sec: 1756275915
    nanosec: 67561719
  frame_id: ''
name:
- fr3_joint1
- fr3_joint2
- fr3_joint3
- fr3_joint4
- fr3_joint5
- fr3_joint6
- fr3_joint7
- fr3_finger_joint1
- fr3_finger_joint2
position:
- 0.7490214931124084
- -0.09386740546079732
- 0.08931554860182922
- -1.9359975987963902
- 0.6961760508310041
- 2.982386328600198
- -2.257047572685769
- 0.0
- 0.0
velocity:
- 0.12184893181008252
- 0.02173668127986776
- -0.14732857476531605
- -0.01550892650035725
- -0.24711993122391124
- -0.16033606296062808
- 0.15753459783284357
- 0.0
- 0.0
effort:
- 0.805058479309082
- -27.465181350708008
- -0.4155082106590271
- 23.057722091674805
- -1.0986140966415405
- 1.7635043859481812
- 0.444832444190979
- 0.0
- 0.0
---
header:
  stamp:
    sec: 1756275915
    nanosec: 100638385
  frame_id: ''
name:
- fr3_joint1
- fr3_joint2
- fr3_joint3
- fr3_joint4
- fr3_joint5
- fr3_joint6
- fr3_joint7
- fr3_finger_joint1
- fr3_finger_joint2
position:
- 0.7532199462078529
- -0.09319987064896508
- 0.08423136074711923
- -1.9365244919924731
- 0.6881337750576635
- 2.9772482986280924
- -2.2516613800857654
- 0.0
- 0.0
velocity:
- 0.1283423831515103
- 0.018785101482847053
- -0.15791297463234505
- -0.01602005941783132
- -0.2445300807193485
- -0.15380727979354106
- 0.1754882205426466
- 0.0
- 0.0
effort:
- 0.705876350402832
- -27.488985061645508
- -0.4670829176902771
- 23.006147384643555
- -1.0601619482040405
- 1.8632968664169312
- 0.356941819190979
- 0.0
- 0.0
---
header:
  stamp:
    sec: 1756275915
    nanosec: 133889344
  frame_id: ''
name:
- fr3_joint1
- fr3_joint2
- fr3_joint3
- fr3_joint4
- fr3_joint5
- fr3_joint6
- fr3_joint7
- fr3_finger_joint1
- fr3_finger_joint2
position:
- 0.7578107201109815
- -0.09253705858216994
- 0.07875502431134136
- -1.9371231322956126
- 0.6802109290153239
- 2.9719988248203726
- -2.2453615213266964
- 0.0
- 0.0
velocity:
- 0.13254273093132218
- 0.019567597328161268
- -0.1543595667701405
- -0.01636420955713027
- -0.23391432475595764
- -0.1535930214662992
- 0.1819441578006328
- 0.0
- 0.0
effort:
- 0.578923225402832
- -27.512788772583008
- -0.5464286208152771
- 22.950605392456055
- -1.0729793310165405
- 1.9035800695419312
- 0.398140549659729
- 0.0
- 0.0
---
header:
  stamp:
    sec: 1756275915
    nanosec: 167554897
  frame_id: ''
name:
- fr3_joint1
- fr3_joint2
- fr3_joint3
- fr3_joint4
- fr3_joint5
- fr3_joint6
- fr3_joint7
- fr3_finger_joint1
- fr3_finger_joint2
position:
- 0.7619844254369504
- -0.0919781177403508
- 0.07382911733603427
- -1.9377364378398534
- 0.6717095787780751
- 2.966455135223874
