header:
  stamp:
    sec: 1756281919
    nanosec: 305659542
  frame_id: ''
name:
- fr3_joint1
- fr3_joint2
- fr3_joint3
- fr3_joint4
- fr3_joint5
- fr3_joint6
- fr3_joint7
- fr3_finger_joint1
- fr3_finger_joint2
position:
- 0.17497806783746805
- -0.39528923978083186
- -0.41457085360194224
- -2.533783006966245
- -0.10154715405204533
- 2.215564314593038
- -0.09311827700704983
- 0.0
- 0.0
velocity:
- 0.05911524928121366
- 0.038299259241356326
- -0.08233883800208679
- 0.021674117231619463
- 0.20275118118974775
- 0.155413437563193
- 0.05521743953439067
- 0.0
- 0.0
effort:
- 0.654301643371582
- -14.341402053833008
- 3.464496612548828
- 22.113508224487305
- 1.1407657861709595
- 2.5160677433013916
- 0.316658616065979
- 0.0
- 0.0
---
header:
  stamp:
    sec: 1756281919
    nanosec: 339392699
  frame_id: ''
name:
- fr3_joint1
- fr3_joint2
- fr3_joint3
- fr3_joint4
- fr3_joint5
- fr3_joint6
- fr3_joint7
- fr3_finger_joint1
- fr3_finger_joint2
position:
- 0.17703391259104506
- -0.39403147757119605
- -0.4173842639046069
- -2.5331655539440456
- -0.09492508383078495
- 2.2210645952597505
- -0.09121163791329763
- 0.0
- 0.0
velocity:
- 0.06234575731656516
- 0.03547956936264323
- -0.08544940550210771
- 0.016097941136374194
- 0.19981456579982354
- 0.16608265939112218
- 0.05759372008327673
- 0.0
- 0.0
effort:
- 0.678105354309082
- -14.492158889770508
- 3.412921905517578
- 22.085737228393555
- 1.1535831689834595
- 2.4428255558013916
- 0.289192795753479
- 0.0
- 0.0
---
header:
  stamp:
    sec: 1756281919
    nanosec: 372378773
  frame_id: ''
name:
- fr3_joint1
- fr3_joint2
- fr3_joint3
- fr3_joint4
- fr3_joint5
- fr3_joint6
- fr3_joint7
- fr3_finger_joint1
- fr3_finger_joint2
position:
- 0.1792150848302141
- -0.3928763675970033
- -0.4201641432936817
- -2.532599086497286
- -0.08807103565005726
- 2.2264561022760234
- -0.08950538864798437
- 0.0
- 0.0
velocity:
- 0.06507471914543024
- 0.03494653026394579
- -0.08269607970774463
- 0.0155514338162514
- 0.21172134873700463
- 0.16718372721989724
- 0.05134065985917518
- 0.0
- 0.0
effort:
- 0.705876350402832
- -14.519929885864258
- 3.646991729736328
- 22.272199630737305
- 1.0684391260147095
- 2.5700838565826416
- 0.329475998878479
- 0.0
- 0.0
---
header:
  stamp:
    sec: 1756281919
    nanosec: 405676650
  frame_id: ''
name:
- fr3_joint1
- fr3_joint2
- fr3_joint3
- fr3_joint4
- fr3_joint5
- fr3_joint6
- fr3_joint7
- fr3_finger_joint1
- fr3_finger_joint2
position:
- 0.18135233974535053
- -0.39172362528233146
- -0.42291840216342336
- -2.5319894958476943
- -0.08121550530292856
- 2.232238650492616
- -0.0876500781073047
- 0.0
- 0.0
velocity:
- 0.061814443028357216
- 0.031182582595156126
- -0.07971763982751716
- 0.018137784566420012
- 0.20249879531138046
- 0.16523787762651918
- 0.04932302381221238
- 0.0
- 0.0
effort:
- 0.578923225402832
- -14.543733596801758
- 3.412921905517578
- 22.192853927612305
- 1.1206241846084595
- 2.4831087589263916
- 0.343208909034729
- 0.0
- 0.0
---
header:
  stamp:
    sec: 1756281919
    nanosec: 438924597
  frame_id: ''
name:
- fr3_joint1
- fr3_joint2
- fr3_joint3
- fr3_joint4
- fr3_joint5
- fr3_joint6
- fr3_joint7
- fr3_finger_joint1
- fr3_finger_joint2
position:
- 0.1833901320695299
- -0.39071580556366114
- -0.4256118112136407
- -2.5313272353763185
- -0.07467829460743845
- 2.237441747878826
- -0.08595653224185092
- 0.0
- 0.0
velocity:
- 0.05845599859945148
- 0.029634975994503442
- -0.08153670394973066
- 0.020592015489610763
- 0.19773762471530387
- 0.15530606822967638
- 0.050065018005370235
- 0.0
- 0.0
effort:
- 0.40039539337158203
- -14.468355178833008
- 3.258197784423828
- 22.113508224487305
- 1.0949894189834595
- 2.4702913761138916
- 0.370674729347229
- 0.0
- 0.0
---
header:
  stamp:
    sec: 1756281919
    nanosec: 472506218
  frame_id: ''
name:
- fr3_joint1
- fr3_joint2
- fr3_joint3
- fr3_joint4
- fr3_joint5
- fr3_joint6
- fr3_joint7
- fr3_finger_joint1
- fr3_finger_joint2
position:
- 0.18520091260837143
- -0.3897326709982437
- -0.4282812647721784
- -2.5306893632589116
- -0.06809001744059374
- 2.2428290067886043
- -0.08436333526967836
- 0.0
- 0.0
velocity:
- 0.051576428044110306
- 0.02918727750670652
- -0.08414542243871595
- 0.0216952760021807
- 0.1993554733796711
- 0.1706486845933074
- 0.050372894867595025
- 0.0
- 0.0
effort:
- 0.44800281524658203
- -14.519929885864258
- 3.361347198486328
- 22.272199630737305
- 1.1078068017959595
- 2.5627596378326416
- 0.356941819190979
- 0.0
- 0.0
---
header:
  stamp:
    sec: 1756281919
    nanosec: 505659382
  frame_id: ''
name:
- fr3_joint1
- fr3_joint2
- fr3_joint3
- fr3_joint4
- fr3_joint5
- fr3_joint6
- fr3_joint7
- fr3_finger_joint1
- fr3_finger_joint2
position:
- 0.18723708142377818
- -0.3886787123730714
- -0.43124664408494495
- -2.52994506898044
- -0.061269982806570686
- 2.2489535278680224
- -0.0828578925378535
- 0.0
- 0.0
velocity:
- 0.06032317517803953
- 0.03081456922898888
- -0.08688560580765839
- 0.024783614916646362
- 0.2016916074181708
- 0.18123268668968517
- 0.041696493792292455
- 0.0
- 0.0
effort:
- 0.551152229309082
- -14.571504592895508
- 3.516071319580078
- 22.272199630737305
- 1.0556217432022095
- 2.5096590518951416
- 0.329475998878479
- 0.0
- 0.0
---
header:
  stamp:
    sec: 1756281919
    nanosec: 538921020
  frame_id: ''
name:
- fr3_joint1
- fr3_joint2
- fr3_joint3
- fr3_joint4
- fr3_joint5
- fr3_joint6
- fr3_joint7
- fr3_finger_joint1
- fr3_finger_joint2
position:
- 0.18922858135535456
- -0.3876455035611249
- -0.4341015657994194
- -2.5291063332664865
- -0.05463160880678407
- 2.254582563506021
- -0.08151776857622427
- 0.0
- 0.0
velocity:
- 0.055706600608193754
- 0.02978108510006868
- -0.08231566530118069
- 0.023251797860676653
- 0.2050692649239878
- 0.1594165067803249
- 0.04218843083941703
- 0.0
- 0.0
effort:
- 0.884404182434082
- -14.543733596801758
- 3.773944854736328
- 22.010358810424805
- 1.1142154932022095
- 2.4895174503326416
- 0.336800217628479
- 0.0
- 0.0
---
header:
  stamp:
    sec: 1756281919
    nanosec: 572436215
  frame_id: ''
name:
- fr3_joint1
- fr3_joint2
- fr3_joint3
- fr3_joint4
- fr3_joint5
- fr3_joint6
- fr3_joint7
- fr3_finger_joint1
- fr3_finger_joint2
position:
- 0.19133959857980376
- -0.3867527450144935
- -0.4369396366474914
- -2.52836590366467
- -0.0479315183443676
- 2.259806366542751
- -0.08008468310771778
- 0.0
- 0.0
velocity:
- 0.06611508945740213
- 0.025627639493447693
- -0.08639441283381225
- 0.022671771210263158
- 0.20241437516403346
- 0.162620879516673
- 0.04695122310062834
- 0.0
- 0.0
effort:
- 0.959782600402832
- -14.416780471801758
- 4.059589385986328
- 22.085737228393555
- 1.0290714502334595
- 2.5032503604888916
- 0.269051194190979
- 0.0
- 0.0
---
header:
  stamp:
    sec: 1756281919
    nanosec: 605827672
  frame_id: ''
name:
- fr3_joint1
- fr3_joint2
- fr3_joint3
- fr3_joint4
- fr3_joint5
- fr3_joint6
- fr3_joint7
- fr3_finger_joint1
- fr3_finger_joint2
position:
- 0.1936596413403801
- -0.385738739298772
- -0.43987043222195166
- -2.5276156549248188
- -0.04102983195185887
- 2.2656569827919912
- -0.07862078129158155
- 0.0
- 0.0
velocity:
- 0.06830883192370887
- 0.03241066754140607
- -0.08385264409667559
- 0.022692486790701655
- 0.1987411709850488
- 0.1787666948174887
- 0.04427695384653562
- 0.0
- 0.0
effort:
- 0.551152229309082
- -14.341402053833008
- 3.567646026611328
- 22.034162521362305
- 1.0556217432022095
- 2.5700838565826416
- 0.363350510597229
- 0.0
- 0.0
---
header:
  stamp:
    sec: 1756281919
    nanosec: 639489629
  frame_id: ''
name:
- fr3_joint1
- fr3_joint2
- fr3_joint3
- fr3_joint4
- fr3_joint5
- fr3_joint6
- fr3_joint7
- fr3_finger_joint1
- fr3_finger_joint2
position:
- 0.1958501706088014
- -0.3846152176055184
- -0.44258473815656957
- -2.526798857991555
- -0.03450757502526437
- 2.271368365046705
- -0.0770393542844877
- 0.0
- 0.0
velocity:
- 0.06611994613079929
- 0.03277642419185512
- -0.08122817992872429
- 0.02493028764831202
- 0.19808686274382578
- 0.16345875185806782
- 0.043198717541647176
- 0.0
- 0.0
effort:
- 0.578923225402832
- -14.341402053833008
- 3.543842315673828
- 22.034162521362305
- 1.1013981103897095
- 2.5499422550201416
- 0.384407639503479
- 0.0
- 0.0
---
header:
  stamp:
    sec: 1756281919
    nanosec: 672309818
  frame_id: ''
name:
- fr3_joint1
- fr3_joint2
- fr3_joint3
- fr3_joint4
- fr3_joint5
- fr3_joint6
- fr3_joint7
- fr3_finger_joint1
- fr3_finger_joint2
position:
- 0.19779279075491682
- -0.38344051291183257
- -0.44506621258498297
- -2.52601346433228
- -0.028015219804182184
- 2.2765165390182296
- -0.0754480181312526
- 0.0
- 0.0
velocity:
- 0.05684088646241212
- 0.039619772555297646
- -0.0775412825257053
- 0.02360599266261739
- 0.19310708986194275
- 0.16095445989866167
- 0.05103658590612357
- 0.0
- 0.0
effort:
- 0.34882068634033203
- -14.492158889770508
- 3.309772491455078
- 22.034162521362305
- 1.1013981103897095
- 2.5096590518951416
- 0.363350510597229
- 0.0
- 0.0
---
header:
  stamp:
    sec: 1756281919
    nanosec: 705721529
  frame_id: ''
name:
- fr3_joint1
- fr3_joint2
- fr3_joint3
- fr3_joint4
- fr3_joint5
- fr3_joint6
- fr3_joint7
- fr3_finger_joint1
- fr3_finger_joint2
position:
- 0.19972769040208369
- -0.3821627764610213
- -0.44773012989643307
- -2.525310173907682
- -0.021186487133005107
- 2.282094668547927
- -0.07356682268809601
- 0.0
- 0.0
velocity:
- 0.060260187177955206
- 0.037132029245729344
- -0.0820634834589447
- 0.019271116077560553
- 0.2028660913881
- 0.16845515604257486
- 0.05743483083029289
- 0.0
- 0.0
effort:
- 0.44800281524658203
- -14.492158889770508
- 3.412921905517578
- 22.061933517456055
- 1.1013981103897095
- 2.5435335636138916
- 0.289192795753479
- 0.0
- 0.0
---
header:
  stamp:
    sec: 1756281919
    nanosec: 738944780
  frame_id: ''
name:
- fr3_joint1
- fr3_joint2
- fr3_joint3
- fr3_joint4
- fr3_joint5
- fr3_joint6
- fr3_joint7
- fr3_finger_joint1
- fr3_finger_joint2
position:
- 0.20171521391558642
- -0.3809501774524015
- -0.45053591572031276
- -2.52475296976437
- -0.014486979248399354
- 2.288001225852728
- -0.07157922790312919
- 0.0
- 0.0
velocity:
- 0.05803215411435447
- 0.03684621141608499
- -0.08402064014722131
- 0.013856090033801718
- 0.21074000360828032
- 0.18487911464890158
- 0.06691566582136739
- 0.0
- 0.0
effort:
- 0.551152229309082
- -14.722261428833008
- 3.646991729736328
- 22.113508224487305
- 1.0418888330459595
- 2.4895174503326416
- 0.329475998878479
- 0.0
- 0.0
---
header:
  stamp:
    sec: 1756281919
    nanosec: 772546060
  frame_id: ''
name:
- fr3_joint1
- fr3_joint2
- fr3_joint3
- fr3_joint4
- fr3_joint5
- fr3_joint6
- fr3_joint7
- fr3_finger_joint1
- fr3_finger_joint2
position:
- 0.2038068127930584
- -0.379852305508719
- -0.45345880490014956
- -2.5242494618491844
- -0.007756001531074821
- 2.2934501119030086
- -0.06937632925991945
- 0.0
- 0.0
velocity:
- 0.06803635390063216
- 0.031587834997081954
- -0.09462976657944694
- 0.01719158069608885
- 0.19985322657350577
- 0.15904975670262206
- 0.06947053853339091
- 0.0
- 0.0
effort:
- 0.626530647277832
- -14.595308303833008
- 3.698566436767578
- 22.113508224487305
- 1.0354801416397095
- 2.5700838565826416
- 0.329475998878479
- 0.0
- 0.0
---
header:
  stamp:
    sec: 1756281919
    nanosec: 805652434
  frame_id: ''
name:
- fr3_joint1
- fr3_joint2
- fr3_joint3
- fr3_joint4
- fr3_joint5
- fr3_joint6
- fr3_joint7
- fr3_finger_joint1
- fr3_finger_joint2
position:
- 0.20614942026902297
- -0.3787530397863013
- -0.45651062382058266
- -2.5237386632799885
- -0.0009758818868299348
- 2.2989848192545446
- -0.06716732121076999
- 0.0
- 0.0
velocity:
- 0.06667983278834505
- 0.030495746782647097
- -0.08763062303544834
- 0.015520894336690454
- 0.19808124898596102
- 0.16840444813396216
- 0.05685642118320377
- 0.0
- 0.0
effort:
- 0.37262439727783203
- -14.873018264770508
- 3.492267608642578
- 22.296003341674805
- 1.0290714502334595
- 2.5362093448638916
- 0.255318284034729
- 0.0
- 0.0
---
header:
  stamp:
    sec: 1756281919
    nanosec: 839325301
  frame_id: ''
name:
- fr3_joint1
- fr3_joint2
- fr3_joint3
- fr3_joint4
- fr3_joint5
- fr3_joint6
- fr3_joint7
- fr3_finger_joint1
- fr3_finger_joint2
position:
- 0.20819124906861633
- -0.3777353320534536
- -0.4592382877618774
- -2.5231916159691434
- 0.005547175903297514
- 2.304458456964362
- -0.0654104671375333
- 0.0
- 0.0
velocity:
- 0.06043197816253569
- 0.03010928107528675
- -0.0825084408317911
- 0.01708890905717697
- 0.19672194217973882
- 0.16870083363628532
- 0.05346048827796026
- 0.0
- 0.0
effort:
- 0.44800281524658203
- -14.825410842895508
- 3.646991729736328
- 22.403120040893555
- 1.0812565088272095
- 2.6231844425201416
- 0.316658616065979
- 0.0
- 0.0
---
header:
  stamp:
    sec: 1756281919
    nanosec: 872426510
  frame_id: ''
name:
- fr3_joint1
- fr3_joint2
- fr3_joint3
- fr3_joint4
- fr3_joint5
- fr3_joint6
- fr3_joint7
- fr3_finger_joint1
- fr3_finger_joint2
position:
- 0.2101102577823852
- -0.37676489652624584
- -0.46183690512142384
- -2.5225656624207753
- 0.0120357799456587
- 2.309970782030718
- -0.0638146027858661
- 0.0
- 0.0
velocity:
- 0.05755133157540945
- 0.02867091739349982
- -0.08077967781490507
- 0.020813920161936998
- 0.1977551961217564
- 0.16375756733823318
- 0.04292614569125317
- 0.0
- 0.0
effort:
- 0.42419910430908203
- -14.670686721801758
- 3.543842315673828
- 22.244428634643555
- 1.0492130517959595
- 2.5700838565826416
- 0.255318284034729
- 0.0
- 0.0
---
header:
  stamp:
    sec: 1756281919
    nanosec: 905806594
  frame_id: ''
name:
- fr3_joint1
- fr3_joint2
- fr3_joint3
- fr3_joint4
- fr3_joint5
- fr3_joint6
- fr3_joint7
- fr3_finger_joint1
- fr3_finger_joint2
position:
- 0.21199320219352882
- -0.3757708262980165
- -0.46457930464513203
- -2.521762663217855
- 0.018793376151562916
- 2.31529372885724
- -0.062303661211765615
- 0.0
- 0.0
velocity:
- 0.05786587335711295
- 0.028644239123904805
- -0.08467675774736183
- 0.024049099598088146
- 0.19606877274196333
- 0.14986705279178628
- 0.047702412531695146
- 0.0
- 0.0
effort:
- 0.678105354309082
- -14.646883010864258
- 3.773944854736328
- 22.296003341674805
- 1.0684391260147095
- 2.6295931339263916
- 0.282784104347229
- 0.0
- 0.0
---
header:
  stamp:
    sec: 1756281919
    nanosec: 938942111
  frame_id: ''
name:
- fr3_joint1
- fr3_joint2
- fr3_joint3
- fr3_joint4
- fr3_joint5
- fr3_joint6
- fr3_joint7
- fr3_finger_joint1
- fr3_finger_joint2
position:
- 0.21401993657597
- -0.3747985018686704
- -0.4674971755228829
- -2.5208972895519004
- 0.025589528451240216
- 2.3208493899130618
- -0.06076956581958182
- 0.0
- 0.0
velocity:
- 0.06050759319183047
- 0.029400199189466892
- -0.08655039221610025
- 0.02663554312704801
- 0.21018782074175885
- 0.1725036073195749
- 0.046477125197480686
- 0.0
- 0.0
effort:
- 0.678105354309082
- -14.543733596801758
- 3.904865264892578
- 22.141279220581055
- 1.0418888330459595
- 2.5966341495513916
- 0.2415853887796402
- 0.0
- 0.0
---
header:
  stamp:
    sec: 1756281919
    nanosec: 972307538
  frame_id: ''
name:
- fr3_joint1
- fr3_joint2
- fr3_joint3
- fr3_joint4
- fr3_joint5
- fr3_joint6
- fr3_joint7
- fr3_finger_joint1
- fr3_finger_joint2
position:
- 0.21603939586279047
- -0.3738112875769521
- -0.47027273653964974
- -2.5201103025988694
- 0.032199877702900365
- 2.3267526092401285
- -0.059269096930444166
- 0.0
- 0.0
velocity:
- 0.0664695238858527
- 0.030610955073380013
- -0.08481412827111605
- 0.020357392067948645
- 0.20271220271734275
- 0.1896538660212145
- 0.051553709358707255
- 0.0
- 0.0
effort:
- 0.654301643371582
- -14.416780471801758
- 3.773944854736328
- 22.085737228393555
- 1.0162540674209595
- 2.5233919620513916
- 0.255318284034729
- 0.0
- 0.0
---
header:
  stamp:
    sec: 1756281920
    nanosec: 5552921
  frame_id: ''
name:
- fr3_joint1
- fr3_joint2
- fr3_joint3
- fr3_joint4
- fr3_joint5
- fr3_joint6
- fr3_joint7
- fr3_finger_joint1
- fr3_finger_joint2
position:
- 0.2183364431588729
- -0.372747620475662
- -0.4731959996836468
- -2.5192905362224987
- 0.03892602836514013
- 2.3324874367396853
- -0.05775676790521767
- 0.0
- 0.0
velocity:
- 0.0672036570174376
- 0.033498925036495715
- -0.08291918867503724
- 0.025359115497888402
- 0.19211685028184994
- 0.16097628179831436
- 0.04579114334421965
- 0.0
- 0.0
effort:
- 0.908207893371582
- -14.365205764770508
- 4.111164093017578
- 21.982587814331055
- 1.0556217432022095
- 2.5902254581451416
- 0.343208909034729
- 0.0
- 0.0
---
header:
  stamp:
    sec: 1756281920
    nanosec: 39303093
  frame_id: ''
name:
- fr3_joint1
- fr3_joint2
- fr3_joint3
- fr3_joint4
- fr3_joint5
- fr3_joint6
- fr3_joint7
- fr3_finger_joint1
- fr3_finger_joint2
position:
- 0.22053780421612643
- -0.371552962315362
- -0.4759302205245768
- -2.51850955844952
- 0.04553279325600082
- 2.337922499903305
- -0.05614055988041691
- 0.0
- 0.0
velocity:
- 0.06337930158233746
- 0.037262384746166125
- -0.07866512839804554
- 0.021644244451186245
- 0.2051529783524208
- 0.16627910970351403
- 0.05098597453632427
- 0.0
- 0.0
effort:
- 0.678105354309082
- -14.571504592895508
- 3.928668975830078
- 22.165082931518555
- 1.0354801416397095
- 2.5435335636138916
- 0.261726975440979
- 0.0
- 0.0
---
header:
  stamp:
    sec: 1756281920
    nanosec: 72255469
  frame_id: ''
name:
- fr3_joint1
- fr3_joint2
- fr3_joint3
- fr3_joint4
- fr3_joint5
- fr3_joint6
- fr3_joint7
- fr3_finger_joint1
- fr3_finger_joint2
position:
- 0.22265453817919362
- -0.3703367827742468
- -0.47861082091682944
- -2.517819817985352
- 0.05199056897043039
- 2.3434421040937594
- -0.054465787366990405
- 0.0
- 0.0
velocity:
- 0.06437334016863916
- 0.036411694992297454
- -0.08230639742582094
- 0.019877388370687973
- 0.1943047859575598
- 0.17699146740657523
- 0.04762714776317851
- 0.0
- 0.0
effort:
- 0.42419910430908203
- -14.416780471801758
- 3.646991729736328
- 22.272199630737305
- 1.0812565088272095
- 2.6295931339263916
- 0.350533127784729
- 0.0
- 0.0
---
header:
  stamp:
    sec: 1756281920
    nanosec: 105670354
  frame_id: ''
name:
- fr3_joint1
- fr3_joint2
- fr3_joint3
- fr3_joint4
- fr3_joint5
- fr3_joint6
- fr3_joint7
- fr3_finger_joint1
- fr3_finger_joint2
position:
- 0.2245974477310784
- -0.368915159872604
- -0.4813433549706599
- -2.5170682764760173
- 0.05881041626065857
- 2.3492353329152627
- -0.05255815379997584
- 0.0
- 0.0
velocity:
- 0.05601011175588792
- 0.040554259417959565
- -0.08088483158318632
- 0.021919292793938824
- 0.19593057150513796
- 0.16078150542956526
- 0.06197435997768492
- 0.0
- 0.0
effort:
- 0.551152229309082
- -14.698457717895508
- 3.750141143798828
- 22.141279220581055
- 1.0418888330459595
- 2.5563509464263916
- 0.302925705909729
- 0.0
- 0.0
---
header:
  stamp:
    sec: 1756281920
    nanosec: 138947356
  frame_id: ''
name:
- fr3_joint1
- fr3_joint2
- fr3_joint3
- fr3_joint4
- fr3_joint5
- fr3_joint6
- fr3_joint7
- fr3_finger_joint1
- fr3_finger_joint2
position:
- 0.22660338471992816
- -0.3675443050436046
- -0.484153339774424
- -2.5163078949526434
- 0.06560714529336456
- 2.3545150146022036
- -0.05059921691788469
- 0.0
- 0.0
velocity:
- 0.06003239983220844
- 0.03916526353395503
- -0.0832930709066585
- 0.022046406014287857
- 0.2164808753595544
- 0.15518851950648058
- 0.0559898132694971
- 0.0
- 0.0
effort:
- 0.49957752227783203
- -14.849214553833008
- 3.853290557861328
- 22.192853927612305
- 0.9897038340568542
- 2.6167757511138916
- 0.309334397315979
- 0.0
- 0.0
---
header:
  stamp:
    sec: 1756281920
    nanosec: 172500210
  frame_id: ''
name:
- fr3_joint1
- fr3_joint2
- fr3_joint3
- fr3_joint4
- fr3_joint5
- fr3_joint6
- fr3_joint7
- fr3_finger_joint1
- fr3_finger_joint2
position:
- 0.228503690341578
- -0.3662647131496739
- -0.48682846647378775
- -2.5156332636027714
- 0.07229190002336622
- 2.359803486235095
- -0.04855593153460735
- 0.0
- 0.0
velocity:
- 0.056697918087591954
- 0.03824153402790201
- -0.08189131252371097
- 0.018739051288849982
- 0.19862651188218125
- 0.1636862013085182
- 0.05890533474442058
- 0.0
- 0.0
effort:
- 0.654301643371582
- -14.900789260864258
- 3.904865264892578
- 22.192853927612305
- 0.9832951426506042
- 2.5902254581451416
- 0.295601487159729
- 0.0
- 0.0
---
header:
  stamp:
    sec: 1756281920
    nanosec: 205650214
  frame_id: ''
name:
- fr3_joint1
- fr3_joint2
- fr3_joint3
- fr3_joint4
- fr3_joint5
- fr3_joint6
- fr3_joint7
- fr3_finger_joint1
- fr3_finger_joint2
position:
- 0.23057548275387738
- -0.3651135966510765
- -0.489685227259231
- -2.5150028945458045
- 0.07905910502781742
- 2.3657594870920122
- -0.04674998948621926
- 0.0
- 0.0
velocity:
- 0.06020505262010506
- 0.031429308907953736
- -0.08550633707387706
- 0.018514669978459262
- 0.19729615769661055
- 0.1822368128836933
- 0.050839894791915176
- 0.0
- 0.0
effort:
- 0.781254768371582
- -14.825410842895508
- 4.242084503173828
- 22.272199630737305
- 0.9567448496818542
- 2.6030428409576416
- 0.295601487159729
- 0.0
- 0.0
---
header:
  stamp:
    sec: 1756281920
    nanosec: 238919112
  frame_id: ''
name:
- fr3_joint1
- fr3_joint2
- fr3_joint3
- fr3_joint4
- fr3_joint5
- fr3_joint6
- fr3_joint7
- fr3_finger_joint1
- fr3_finger_joint2
position:
- 0.23274943583224672
- -0.3640865624437469
- -0.49260193863572027
- -2.5143329379449635
- 0.08551084258241917
- 2.371450523740233
- -0.04518526381031982
- 0.0
- 0.0
velocity:
- 0.06532581799337363
- 0.029059019673844038
- -0.08652758354482569
- 0.022034786518426705
- 0.1958316230689175
- 0.16125841262736676
- 0.04689699194948436
- 0.0
- 0.0
effort:
- 0.527348518371582
- -14.670686721801758
- 3.853290557861328
- 22.216657638549805
- 1.0876652002334595
- 2.6167757511138916
- 0.316658616065979
- 0.0
- 0.0
---
header:
  stamp:
    sec: 1756281920
    nanosec: 272488885
  frame_id: ''
name:
- fr3_joint1
- fr3_joint2
- fr3_joint3
- fr3_joint4
- fr3_joint5
- fr3_joint6
- fr3_joint7
- fr3_finger_joint1
- fr3_finger_joint2
position:
- 0.23478197202645898
- -0.36312630134453766
- -0.49531061784688213
- -2.5136301641181253
- 0.0918816273787368
- 2.3767153546632107
- -0.043799331326534914
- 0.0
- 0.0
velocity:
- 0.0601738693193545
- 0.02854531754716315
- -0.08158478684216669
- 0.02155829052214073
- 0.19549044371678445
- 0.1674034574143483
- 0.039237759014692744
- 0.0
- 0.0
effort:
- 0.551152229309082
- -14.746065139770508
- 3.825519561767578
- 22.244428634643555
- 1.0556217432022095
- 2.6030428409576416
- 0.363350510597229
- 0.0
- 0.0
---
header:
  stamp:
    sec: 1756281920
    nanosec: 305665337
  frame_id: ''
name:
- fr3_joint1
- fr3_joint2
- fr3_joint3
- fr3_joint4
- fr3_joint5
- fr3_joint6
- fr3_joint7
- fr3_finger_joint1
- fr3_finger_joint2
position:
- 0.23676518095903193
- -0.3621236983515863
- -0.49797909183634026
- -2.5128776739022656
- 0.09875129467774878
- 2.3823353562657
- -0.0424999305767067
- 0.0
- 0.0
velocity:
- 0.0556258933410674
- 0.03058216075681817
- -0.07744510343596284
- 0.023185761471969497
- 0.20029116382876752
- 0.16922862074948525
- 0.03999516574040822
- 0.0
- 0.0
effort:
- 0.26947498321533203
- -14.670686721801758
- 3.595417022705078
- 22.085737228393555
- 1.0290714502334595
- 2.6295931339263916
- 0.329475998878479
- 0.0
- 0.0
---
header:
  stamp:
    sec: 1756281920
    nanosec: 338993326
  frame_id: ''
name:
- fr3_joint1
- fr3_joint2
- fr3_joint3
- fr3_joint4
- fr3_joint5
- fr3_joint6
- fr3_joint7
- fr3_finger_joint1
- fr3_finger_joint2
position:
- 0.23862271415027933
- -0.3610969446126953
- -0.5006605098268627
- -2.5121843294478037
- 0.10572254579021398
- 2.388102302423342
- -0.04107817767245839
- 0.0
- 0.0
velocity:
- 0.05988258467767198
- 0.030672213562312707
- -0.0864226962454771
- 0.020753696903996654
- 0.21251589830017764
- 0.1681481461316065
- 0.04390541533067082
- 0.0
- 0.0
effort:
- 0.47577381134033203
- -14.825410842895508
- 3.773944854736328
- 22.034162521362305
- 0.9567448496818542
- 2.6094515323638916
- 0.269051194190979
- 0.0
- 0.0
---
header:
  stamp:
    sec: 1756281920
    nanosec: 372474587
  frame_id: ''
name:
- fr3_joint1
- fr3_joint2
- fr3_joint3
- fr3_joint4
- fr3_joint5
- fr3_joint6
- fr3_joint7
- fr3_finger_joint1
- fr3_finger_joint2
position:
- 0.24062096710202263
- -0.3601556174279179
- -0.5034603369475359
- -2.511524419321821
- 0.11242599342398849
- 2.3933146950281188
- -0.03975570991086345
- 0.0
- 0.0
velocity:
- 0.06190974042363242
- 0.02645880268027459
- -0.08568258303070055
- 0.018196334531691356
- 0.20753252546367618
- 0.15030598501839398
- 0.042889163490096915
- 0.0
- 0.0
effort:
- 0.578923225402832
- -14.519929885864258
- 3.825519561767578
- 21.879438400268555
- 0.9961125254631042
- 2.6094515323638916
- 0.275459885597229
- 0.0
- 0.0
---
header:
  stamp:
    sec: 1756281920
    nanosec: 405643242
  frame_id: ''
name:
- fr3_joint1
- fr3_joint2
- fr3_joint3
- fr3_joint4
- fr3_joint5
- fr3_joint6
- fr3_joint7
- fr3_finger_joint1
- fr3_finger_joint2
position:
- 0.24287303590148662
- -0.3591010800125423
- -0.506550351596503
- -2.5109545198442036
- 0.11909045254901757
- 2.398892846201247
- -0.03811483526335707
- 0.0
- 0.0
velocity:
- 0.07057576372589397
- 0.03128975156776885
- -0.09357536686675463
- 0.016441614172511818
- 0.1848227476312056
- 0.17096667196457213
- 0.04897557865507611
- 0.0
- 0.0
effort:
- 0.654301643371582
- -14.670686721801758
- 4.059589385986328
- 22.061933517456055
- 0.9375187754631042
- 2.5829012393951416
- 0.323067307472229
- 0.0
- 0.0
---
header:
  stamp:
    sec: 1756281920
    nanosec: 439443341
  frame_id: ''
name:
- fr3_joint1
- fr3_joint2
- fr3_joint3
- fr3_joint4
- fr3_joint5
- fr3_joint6
- fr3_joint7
- fr3_finger_joint1
- fr3_finger_joint2
position:
- 0.24529037193015124
- -0.3579872739801568
- -0.5096403449976578
- -2.510429324752881
- 0.1257128974557445
- 2.404880150993605
- -0.03637832249482546
- 0.0
- 0.0
velocity:
- 0.06820759465641713
- 0.03516498754189846
- -0.08647469583251693
- 0.015564129755940778
- 0.20098581265063892
- 0.1850110462074832
- 0.05413188221387247
- 0.0
- 0.0
effort:
- 0.626530647277832
- -14.619112014770508
- 4.138935089111328
- 22.113508224487305
- 0.9832951426506042
- 2.5902254581451416
- 0.269051194190979
- 0.0
- 0.0
---
header:
  stamp:
    sec: 1756281920
    nanosec: 472299198
  frame_id: ''
name:
- fr3_joint1
- fr3_joint2
- fr3_joint3
- fr3_joint4
- fr3_joint5
- fr3_joint6
- fr3_joint7
- fr3_finger_joint1
- fr3_finger_joint2
position:
- 0.24736583489837563
- -0.35679753869640085
- -0.5122825464424762
- -2.5098777153036456
- 0.13208784974762156
- 2.410440398676463
- -0.034542025778611714
- 0.0
- 0.0
velocity:
- 0.06245667347311537
- 0.037526061039460476
- -0.07881383195446874
- 0.018501696831496817
- 0.20466161573894576
- 0.16092568427045797
- 0.0547084829915843
- 0.0
- 0.0
effort:
- 0.626530647277832
- -14.873018264770508
- 4.083393096923828
- 22.165082931518555
- 0.9832951426506042
- 2.5829012393951416
- 0.323067307472229
- 0.0
- 0.0
---
header:
  stamp:
    sec: 1756281920
    nanosec: 506535074
  frame_id: ''
name:
- fr3_joint1
- fr3_joint2
- fr3_joint3
- fr3_joint4
- fr3_joint5
- fr3_joint6
- fr3_joint7
- fr3_finger_joint1
- fr3_finger_joint2
position:
- 0.24934165071774045
- -0.35561397603756467
- -0.5148341343964291
- -2.5092991276116576
- 0.1386955130134365
- 2.4155382655272155
- -0.03269901607589273
- 0.0
- 0.0
velocity:
- 0.05684633932497233
- 0.03759795140581525
- -0.07675028148577201
- 0.016574459097086224
- 0.19136710694384543
- 0.1616009442460826
- 0.05985723793764735
- 0.0
- 0.0
effort:
- 0.47577381134033203
- -14.825410842895508
- 3.980243682861328
- 22.272199630737305
- 0.9640690684318542
- 2.6231844425201416
- 0.289192795753479
- 0.0
- 0.0
---
header:
  stamp:
    sec: 1756281920
    nanosec: 538950249
  frame_id: ''
name:
- fr3_joint1
- fr3_joint2
- fr3_joint3
- fr3_joint4
- fr3_joint5
- fr3_joint6
- fr3_joint7
- fr3_finger_joint1
- fr3_finger_joint2
position:
- 0.25125294046142094
- -0.354320992882644
- -0.5175375697637891
- -2.5086796738116406
- 0.14576034227933501
- 2.421317783999777
- -0.03054485763399126
- 0.0
- 0.0
velocity:
- 0.05769714402148328
- 0.035159674893912564
- -0.08136672336859634
- 0.01859888929116651
- 0.2063682409152828
- 0.17228649332750512
- 0.05956006836557204
- 0.0
- 0.0
effort:
- 0.44800281524658203
- -14.825410842895508
- 3.928668975830078
- 22.403120040893555
- 0.9961125254631042
- 2.6964266300201416
- 0.275459885597229
- 0.0
- 0.0
---
header:
  stamp:
    sec: 1756281920
    nanosec: 572679384
  frame_id: ''
name:
- fr3_joint1
- fr3_joint2
- fr3_joint3
- fr3_joint4
- fr3_joint5
- fr3_joint6
- fr3_joint7
- fr3_finger_joint1
- fr3_finger_joint2
position:
- 0.25321732701382577
- -0.35314881517692637
- -0.520323490835002
- -2.508013126448349
- 0.15222019253846752
- 2.4269397942413558
- -0.028336312846818038
- 0.0
- 0.0
velocity:
- 0.059631511173218216
- 0.03593033992687425
- -0.08605945707589531
- 0.02150150753360721
- 0.1984201640380683
- 0.1656484016034692
- 0.06760333717401598
- 0.0
- 0.0
effort:
- 0.527348518371582
- -14.873018264770508
- 4.008014678955078
- 22.216657638549805
- 0.9704777598381042
- 2.6231844425201416
- 0.2278524786233902
- 0.0
- 0.0
---
header:
  stamp:
    sec: 1756281920
    nanosec: 605663199
  frame_id: ''
name:
- fr3_joint1
- fr3_joint2
- fr3_joint3
- fr3_joint4
- fr3_joint5
- fr3_joint6
- fr3_joint7
- fr3_finger_joint1
- fr3_finger_joint2
position:
- 0.25531780740248183
- -0.35205924772490527
- -0.5231714350460808
- -2.5072840710875206
- 0.15885150818875896
- 2.432272544803332
- -0.02653762298200207
- 0.0
- 0.0
velocity:
- 0.0648633494669135
- 0.029013107192549115
- -0.0842878284870527
- 0.019684881739981938
- 0.19218134307484352
- 0.15465701372338397
- 0.06016999076886762
- 0.0
- 0.0
effort:
- 0.578923225402832
- -14.825410842895508
- 4.083393096923828
- 22.061933517456055
- 0.9768864512443542
- 2.6360018253326416
- 0.295601487159729
- 0.0
- 0.0
---
header:
  stamp:
    sec: 1756281920
    nanosec: 639011474
  frame_id: ''
name:
- fr3_joint1
- fr3_joint2
- fr3_joint3
- fr3_joint4
- fr3_joint5
- fr3_joint6
- fr3_joint7
- fr3_finger_joint1
- fr3_finger_joint2
position:
- 0.25753944382855354
- -0.3511097528304008
- -0.5260378181061774
- -2.5066752164768507
- 0.16560735172186566
- 2.437858454315526
- -0.02478719613241966
- 0.0
- 0.0
velocity:
- 0.06675328478865565
- 0.029330240015880357
- -0.08196795891769532
- 0.018790751106729297
- 0.2038600645335716
- 0.16827177868732074
- 0.04350899027983968
- 0.0
- 0.0
effort:
- 0.654301643371582
- -14.746065139770508
- 4.214313507080078
- 22.192853927612305
- 0.9311100840568542
- 2.5829012393951416
- 0.2489096075296402
- 0.0
- 0.0
---
header:
  stamp:
    sec: 1756281920
    nanosec: 672298760
  frame_id: ''
name:
- fr3_joint1
- fr3_joint2
- fr3_joint3
- fr3_joint4
- fr3_joint5
- fr3_joint6
- fr3_joint7
- fr3_finger_joint1
- fr3_finger_joint2
position:
- 0.25960069817288467
- -0.35019997491499927
- -0.5286885158047876
- -2.506091147083466
- 0.17206118975652246
- 2.44353721503133
- -0.02339113736631139
- 0.0
- 0.0
velocity:
- 0.06233560069090843
- 0.028151056093490077
- -0.0820936812183203
- 0.017961591686208624
- 0.20172104080918324
- 0.18683118679419608
- 0.042868576786931664
- 0.0
- 0.0
effort:
- 0.47577381134033203
- -14.825410842895508
- 4.111164093017578
- 22.216657638549805
- 0.9704777598381042
- 2.6231844425201416
- 0.295601487159729
- 0.0
- 0.0
---
header:
  stamp:
    sec: 1756281920
    nanosec: 705681008
  frame_id: ''
name:
- fr3_joint1
- fr3_joint2
- fr3_joint3
- fr3_joint4
- fr3_joint5
- fr3_joint6
- fr3_joint7
- fr3_finger_joint1
- fr3_finger_joint2
position:
- 0.2617129052836418
- -0.3492305616844931
- -0.5315257020678276
- -2.505423460618408
- 0.17883973693790628
- 2.4494298411043243
- -0.021907267252887334
- 0.0
- 0.0
velocity:
- 0.062485540120437784
- 0.028794462641537098
- -0.08503148580251402
- 0.02124933295036868
- 0.2001246099794968
- 0.15949853934316632
- 0.04064970326991528
- 0.0
- 0.0
effort:
- 0.32104969024658203
- -14.773836135864258
- 3.877094268798828
- 22.192853927612305
- 0.9832951426506042
- 2.6295931339263916
- 0.295601487159729
- 0.0
- 0.0
---
header:
  stamp:
    sec: 1756281920
    nanosec: 739452483
  frame_id: ''
name:
- fr3_joint1
- fr3_joint2
- fr3_joint3
- fr3_joint4
- fr3_joint5
- fr3_joint6
- fr3_joint7
- fr3_finger_joint1
- fr3_finger_joint2
position:
- 0.2636537217180781
- -0.34821016314138115
- -0.5342467330473305
- -2.5047109664225253
- 0.18576675564620868
- 2.4548124930544417
- -0.02051373820175954
- 0.0
- 0.0
velocity:
- 0.05392478110487704
- 0.030489943584845993
- -0.0806162576671967
- 0.01906055066887339
- 0.20241952797660787
- 0.1680982112001808
- 0.04866979197135208
- 0.0
- 0.0
effort:
- 0.47577381134033203
- -14.849214553833008
- 3.928668975830078
- 22.272199630737305
- 0.9311100840568542
- 2.6094515323638916
- 0.2489096075296402
- 0.0
- 0.0
---
header:
  stamp:
    sec: 1756281920
    nanosec: 772446540
  frame_id: ''
name:
- fr3_joint1
- fr3_joint2
- fr3_joint3
- fr3_joint4
- fr3_joint5
- fr3_joint6
- fr3_joint7
- fr3_finger_joint1
- fr3_finger_joint2
position:
- 0.2656328031375997
- -0.3471329274669433
- -0.5370131859917343
- -2.503949854052774
- 0.19240244918200414
- 2.4601934765591236
- -0.01901926420649403
- 0.0
- 0.0
velocity:
- 0.06058848575390026
- 0.03464637466071599
- -0.08550750441421434
- 0.02501224929580454
- 0.20758115778095507
- 0.16691246389361278
- 0.04133677626419162
- 0.0
- 0.0
effort:
- 0.527348518371582
- -14.773836135864258
- 4.265888214111328
- 22.165082931518555
- 0.8587834239006042
- 2.6360018253326416
- 0.323067307472229
- 0.0
- 0.0
---
header:
  stamp:
    sec: 1756281920
    nanosec: 805846670
  frame_id: ''
name:
- fr3_joint1
- fr3_joint2
- fr3_joint3
- fr3_joint4
- fr3_joint5
- fr3_joint6
- fr3_joint7
- fr3_finger_joint1
- fr3_finger_joint2
position:
- 0.2675930298207717
- -0.34588075949633657
- -0.539881019641339
- -2.50313382617261
- 0.1990408094458035
- 2.4660774191882044
- -0.017394790915948293
- 0.0
- 0.0
velocity:
- 0.05847585521658012
- 0.0360325794576765
- -0.08655715435043734
- 0.024644646733577306
- 0.1887863678569678
- 0.17158070396041888
- 0.05272700050796216
- 0.0
- 0.0
effort:
- 0.678105354309082
- -14.797639846801758
- 4.242084503173828
- 22.165082931518555
- 0.8853337168693542
- 2.5764925479888916
- 0.261726975440979
- 0.0
- 0.0
---
header:
  stamp:
    sec: 1756281920
    nanosec: 839505177
  frame_id: ''
name:
- fr3_joint1
- fr3_joint2
- fr3_joint3
- fr3_joint4
- fr3_joint5
- fr3_joint6
- fr3_joint7
- fr3_finger_joint1
- fr3_finger_joint2
position:
- 0.26970156581857
- -0.34466119133252554
- -0.5428180908507074
- -2.5023052223178683
- 0.20569813186524313
- 2.4714833872304167
- -0.015495163755398271
- 0.0
- 0.0
velocity:
- 0.06438374012769517
- 0.034644166890686015
- -0.09062278639841023
- 0.02547930564992635
- 0.1971563389209652
- 0.15008173673270986
- 0.05940676291092983
- 0.0
- 0.0
effort:
- 0.935978889465332
- -14.571504592895508
- 4.575336456298828
- 22.141279220581055
- 0.9247013926506042
- 2.5902254581451416
- 0.2351766973733902
- 0.0
- 0.0
---
header:
  stamp:
    sec: 1756281920
    nanosec: 872486793
  frame_id: ''
name:
- fr3_joint1
- fr3_joint2
- fr3_joint3
- fr3_joint4
- fr3_joint5
- fr3_joint6
- fr3_joint7
- fr3_finger_joint1
- fr3_finger_joint2
position:
- 0.2719490945755407
- -0.3434164283758621
- -0.5456954432225615
- -2.50151269486741
- 0.2122336275481953
- 2.4767428619503296
- -0.013658776564673562
- 0.0
- 0.0
velocity:
- 0.06696046699213314
- 0.03989760986503229
- -0.08025780371844915
- 0.02310548087375023
- 0.20813896965926756
- 0.1698246312263588
- 0.059369854939028015
- 0.0
- 0.0
effort:
- 0.47577381134033203
- -14.773836135864258
- 4.265888214111328
- 22.113508224487305
- 0.8459660410881042
- 2.6094515323638916
- 0.316658616065979
- 0.0
- 0.0
---
header:
  stamp:
    sec: 1756281920
    nanosec: 905617872
  frame_id: ''
name:
- fr3_joint1
- fr3_joint2
- fr3_joint3
- fr3_joint4
- fr3_joint5
- fr3_joint6
- fr3_joint7
- fr3_finger_joint1
- fr3_finger_joint2
position:
- 0.2741642307094556
- -0.34206120543687246
- -0.548471751869661
- -2.5007913061140497
- 0.21912562592943427
- 2.4827868925973693
- -0.011709990100338623
- 0.0
- 0.0
velocity:
- 0.06668425199221555
- 0.03935793567950826
- -0.08041573266307747
- 0.020340582787235058
- 0.20154974197622086
- 0.1845635081583097
- 0.05351267253299889
- 0.0
- 0.0
effort:
- 0.527348518371582
- -14.773836135864258
- 4.265888214111328
- 22.010358810424805
- 0.9045597910881042
- 2.5966341495513916
- 0.269051194190979
- 0.0
- 0.0
---
header:
  stamp:
    sec: 1756281920
    nanosec: 939513937
  frame_id: ''
name:
- fr3_joint1
- fr3_joint2
- fr3_joint3
- fr3_joint4
- fr3_joint5
- fr3_joint6
- fr3_joint7
- fr3_finger_joint1
- fr3_finger_joint2
position:
- 0.2762088901724355
- -0.3407861954312771
- -0.551034517564802
- -2.5001358746692692
- 0.22593922085570742
- 2.488555057932274
- -0.009865743456045514
- 0.0
- 0.0
velocity:
- 0.055230183583524696
- 0.037017521960485814
- -0.0730063535772045
- 0.02009424539729018
- 0.19918703741075586
- 0.16064716340892174
- 0.054751004047884994
- 0.0
- 0.0
effort:
- 0.37262439727783203
- -14.825410842895508
- 4.008014678955078
- 22.113508224487305
- 0.8917424082756042
- 2.6094515323638916
- 0.289192795753479
- 0.0
- 0.0
---
header:
  stamp:
    sec: 1756281920
    nanosec: 972372847
  frame_id: ''
name:
- fr3_joint1
- fr3_joint2
- fr3_joint3
- fr3_joint4
- fr3_joint5
- fr3_joint6
- fr3_joint7
- fr3_finger_joint1
- fr3_finger_joint2
position:
- 0.27813252555668483
- -0.3395889614235491
- -0.5536071979623391
- -2.4995030948349597
- 0.23231520639714623
- 2.4936477647717803
- -0.008202788023919936
- 0.0
- 0.0
velocity:
- 0.061145497243144206
- 0.03355048570812458
- -0.08089766301523463
- 0.01907318611494483
- 0.19696528896113305
- 0.15982891303439498
- 0.05157061193337663
- 0.0
- 0.0
effort:
- 0.42419910430908203
- -14.976167678833008
- 4.111164093017578
- 22.192853927612305
- 0.8716008067131042
- 2.6634676456451416
- 0.275459885597229
- 0.0
- 0.0
---
header:
  stamp:
    sec: 1756281921
    nanosec: 5607077
  frame_id: ''
name:
- fr3_joint1
- fr3_joint2
- fr3_joint3
- fr3_joint4
- fr3_joint5
- fr3_joint6
- fr3_joint7
- fr3_finger_joint1
- fr3_finger_joint2
position:
- 0.28022419199748455
- -0.33845946256800724
- -0.5564544958511243
- -2.498919216913978
- 0.23900379865678748
- 2.499243204146353
- -0.006483126558023699
- 0.0
- 0.0
velocity:
- 0.06036050417348398
- 0.031255122589409
- -0.08419225886067495
- 0.015731859067342674
- 0.1985720196643696
- 0.17349017880122553
- 0.04870397311571058
- 0.0
- 0.0
effort:
- 0.34882068634033203
- -14.976167678833008
- 4.059589385986328
- 22.192853927612305
- 0.8395573496818542
- 2.6231844425201416
- 0.336800217628479
- 0.0
- 0.0
---
header:
  stamp:
    sec: 1756281921
    nanosec: 39180709
  frame_id: ''
name:
- fr3_joint1
- fr3_joint2
- fr3_joint3
- fr3_joint4
- fr3_joint5
- fr3_joint6
- fr3_joint7
- fr3_finger_joint1
- fr3_finger_joint2
position:
- 0.28235337062525817
- -0.3374276300563901
- -0.5593791057617532
- -2.4983922978469333
- 0.24569532251059356
- 2.5051278849459253
- -0.004893979419423045
- 0.0
- 0.0
velocity:
- 0.06473344528369274
- 0.030228409445751867
- -0.08926776156707945
- 0.01639266186208509
- 0.20063143699436606
- 0.1668495572064633
- 0.04183652506692238
- 0.0
- 0.0
effort:
- 0.527348518371582
- -14.900789260864258
- 4.111164093017578
- 22.192853927612305
- 0.8130070567131042
- 2.5966341495513916
- 0.363350510597229
- 0.0
- 0.0
---
header:
  stamp:
    sec: 1756281921
    nanosec: 72485854
  frame_id: ''
name:
- fr3_joint1
- fr3_joint2
- fr3_joint3
- fr3_joint4
- fr3_joint5
- fr3_joint6
- fr3_joint7
- fr3_finger_joint1
- fr3_finger_joint2
position:
- 0.2845100581946704
- -0.3364764813678476
- -0.5623026842917155
- -2.4978322883095245
- 0.25222811014475266
- 2.5103585849521637
- -0.0035889250256959477
- 0.0
- 0.0
velocity:
- 0.06183884455180044
- 0.02849001080050593
- -0.08508841081113162
- 0.018908075788748913
- 0.20245491989250375
- 0.15605793621022998
- 0.04176916635033957
- 0.0
- 0.0
effort:
- 0.602726936340332
- -14.746065139770508
- 4.293659210205078
- 22.244428634643555
- 0.8194157481193542
- 2.5563509464263916
- 0.2489096075296402
- 0.0
- 0.0
---
header:
  stamp:
    sec: 1756281921
    nanosec: 105601292
  frame_id: ''
name:
- fr3_joint1
- fr3_joint2
- fr3_joint3
- fr3_joint4
- fr3_joint5
- fr3_joint6
- fr3_joint7
- fr3_finger_joint1
- fr3_finger_joint2
position:
- 0.28646627884612275
- -0.33542400282314494
- -0.5650428439056834
- -2.497253700767228
- 0.25900020540316465
- 2.5157718443561436
- -0.002091686190680886
- 0.0
- 0.0
velocity:
- 0.058077189094488904
- 0.03156190485638665
- -0.07961343710784138
- 0.01762201467797117
- 0.2042822599854688
- 0.16761186392763855
- 0.04323981977050133
- 0.0
- 0.0
effort:
- 0.626530647277832
- -14.825410842895508
- 4.317462921142578
- 22.216657638549805
- 0.8459660410881042
- 2.5902254581451416
- 0.363350510597229
- 0.0
- 0.0
---
header:
  stamp:
    sec: 1756281921
    nanosec: 139543972
  frame_id: ''
name:
- fr3_joint1
- fr3_joint2
- fr3_joint3
- fr3_joint4
- fr3_joint5
- fr3_joint6
- fr3_joint7
- fr3_finger_joint1
- fr3_finger_joint2
position:
- 0.2883880572522426
- -0.3343867461096212
- -0.5677893979328474
- -2.4966543520950846
- 0.26592500966738497
- 2.52160235000665
- -0.0006166093530143435
- 0.0
- 0.0
velocity:
- 0.05470583379824289
- 0.03148840932695115
- -0.07978638210689014
- 0.015480344404822271
- 0.19787845007663116
- 0.18439586745025469
- 0.04143579436562322
- 0.0
- 0.0
effort:
- 0.527348518371582
- -14.825410842895508
- 4.265888214111328
- 22.375349044799805
- 0.8523747324943542
- 2.6433260440826416
- 0.323067307472229
- 0.0
- 0.0
---
header:
  stamp:
    sec: 1756281921
    nanosec: 172345668
  frame_id: ''
name:
- fr3_joint1
- fr3_joint2
- fr3_joint3
- fr3_joint4
- fr3_joint5
- fr3_joint6
- fr3_joint7
- fr3_finger_joint1
- fr3_finger_joint2
position:
- 0.2900924315936814
- -0.3333258512782436
- -0.5704441294438384
- -2.4959844250820025
- 0.272549052751342
- 2.5272981938413164
- 0.0008758198742226894
- 0.0
- 0.0
velocity:
- 0.055990740563999095
- 0.033630530467444256
- -0.08636841289261338
- 0.02498573467709652
- 0.19940490838853342
- 0.16539169975723506
- 0.04599679382475654
- 0.0
- 0.0
effort:
- 0.49957752227783203
- -14.773836135864258
- 4.162738800048828
- 22.244428634643555
- 0.7086369395256042
- 2.5764925479888916
- 0.336800217628479
- 0.0
- 0.0
---
header:
  stamp:
    sec: 1756281921
    nanosec: 205589523
  frame_id: ''
name:
- fr3_joint1
- fr3_joint2
- fr3_joint3
- fr3_joint4
- fr3_joint5
- fr3_joint6
- fr3_joint7
- fr3_finger_joint1
- fr3_finger_joint2
position:
- 0.292087280391894
- -0.33217605487450363
- -0.573412153139827
- -2.4950963876673176
- 0.2790891216420357
- 2.5327926557049616
- 0.0024852545000649874
- 0.0
- 0.0
velocity:
- 0.0636262783817612
- 0.03683119275787073
- -0.08856200137335316
- 0.025332232507717725
- 0.19643955681770436
- 0.1675083074846487
- 0.04978658210247431
- 0.0
- 0.0
effort:
- 0.602726936340332
- -14.773836135864258
- 4.345233917236328
- 22.244428634643555
- 0.7937809824943542
- 2.6094515323638916
- 0.302925705909729
- 0.0
- 0.0
---
header:
  stamp:
    sec: 1756281921
    nanosec: 239008362
  frame_id: ''
name:
- fr3_joint1
- fr3_joint2
- fr3_joint3
- fr3_joint4
- fr3_joint5
- fr3_joint6
- fr3_joint7
- fr3_finger_joint1
- fr3_finger_joint2
position:
- 0.29422111902179265
- -0.33102180905430406
- -0.5762975717095595
- -2.494190683925256
- 0.2856861623878608
- 2.538387739445727
- 0.004269023919245071
- 0.0
- 0.0
velocity:
- 0.06703379566208897
- 0.03487312856553057
- -0.08647102360014784
- 0.02709245848887212
- 0.19574196375178027
- 0.16835835218482834
- 0.05452643124305172
- 0.0
- 0.0
effort:
- 0.578923225402832
- -14.646883010864258
- 4.369037628173828
- 21.903242111206055
- 0.7736393809318542
- 2.5435335636138916
- 0.295601487159729
- 0.0
- 0.0
---
header:
  stamp:
    sec: 1756281921
    nanosec: 272596956
  frame_id: ''
name:
- fr3_joint1
- fr3_joint2
- fr3_joint3
- fr3_joint4
- fr3_joint5
- fr3_joint6
- fr3_joint7
- fr3_finger_joint1
- fr3_finger_joint2
position:
- 0.29643033546564096
- -0.32991336747191474
- -0.5791034567343223
- -2.4934497013566475
- 0.2923168555105253
- 2.544098763593634
- 0.006121625528876429
- 0.0
- 0.0
velocity:
- 0.07048387961893247
- 0.032796044203947966
- -0.08852424889301277
- 0.021185745943160524
- 0.20698233958653994
- 0.1709371796546393
- 0.059089135770974306
- 0.0
- 0.0
effort:
- 0.654301643371582
- -14.646883010864258
- 4.575336456298828
- 22.113508224487305
- 0.7278630137443542
- 2.5435335636138916
- 0.316658616065979
- 0.0
- 0.0
---
header:
  stamp:
    sec: 1756281921
    nanosec: 305633618
  frame_id: ''
name:
- fr3_joint1
- fr3_joint2
- fr3_joint3
- fr3_joint4
- fr3_joint5
- fr3_joint6
- fr3_joint7
- fr3_finger_joint1
- fr3_finger_joint2
position:
- 0.2987753064174936
- -0.32879551628739745
- -0.5819150950348247
- -2.4926746938446787
- 0.29906478873463316
- 2.5494918127727164
- 0.008357510468171138
- 0.0
- 0.0
velocity:
- 0.0672538061260537
- 0.03379112269709008
- -0.08267780857742318
- 0.02280621257704591
- 0.2028835014449514
- 0.14881078097646855
- 0.06478200262092552
- 0.0
- 0.0
effort:
- 0.578923225402832
- -14.773836135864258
- 4.448383331298828
- 21.982587814331055
- 0.7480046153068542
- 2.5435335636138916
- 0.336800217628479
- 0.0
- 0.0
---
header:
  stamp:
    sec: 1756281921
    nanosec: 338945750
  frame_id: ''
name:
- fr3_joint1
- fr3_joint2
- fr3_joint3
- fr3_joint4
- fr3_joint5
- fr3_joint6
- fr3_joint7
- fr3_finger_joint1
- fr3_finger_joint2
position:
- 0.3010425621307054
- -0.3276881759057176
- -0.5846778516956629
- -2.4919883842571946
- 0.3060000001400535
- 2.5548437360782157
- 0.010700213126304639
- 0.0
- 0.0
velocity:
- 0.06501388470585806
- 0.03496083067351354
- -0.07975655794188183
- 0.017914539083573447
- 0.19871805091215
- 0.1693089412048889
- 0.06766440903714604
- 0.0
- 0.0
effort:
- 0.42419910430908203
- -14.773836135864258
- 4.317462921142578
- 22.192853927612305
- 0.7013127207756042
- 2.5499422550201416
- 0.261726975440979
- 0.0
- 0.0
---
header:
  stamp:
    sec: 1756281921
    nanosec: 372585634
  frame_id: ''
name:
- fr3_joint1
- fr3_joint2
- fr3_joint3
- fr3_joint4
- fr3_joint5
- fr3_joint6
- fr3_joint7
- fr3_finger_joint1
- fr3_finger_joint2
position:
- 0.30296798738205466
- -0.32655669259286263
- -0.5871977547974221
- -2.491407508720776
- 0.31242625440743554
- 2.560557942506702
- 0.012335810447728902
- 0.0
- 0.0
velocity:
- 0.05789184140193764
- 0.03323342777483607
- -0.0791624174445428
- 0.017865144361908936
- 0.19621510407150958
- 0.18295968269451224
- 0.04699562676900557
- 0.0
- 0.0
effort:
- 0.22186756134033203
- -14.900789260864258
- 4.031818389892578
- 22.272199630737305
- 0.7480046153068542
- 2.5966341495513916
- 0.282784104347229
- 0.0
- 0.0
---
header:
  stamp:
    sec: 1756281921
    nanosec: 405829956
  frame_id: ''
name:
- fr3_joint1
- fr3_joint2
- fr3_joint3
- fr3_joint4
- fr3_joint5
- fr3_joint6
- fr3_joint7
- fr3_finger_joint1
- fr3_finger_joint2
position:
- 0.3050011138003123
- -0.32545700157026847
- -0.5899650631432533
- -2.490763997596087
- 0.31911879330268345
- 2.566480653843495
- 0.014162277216697772
- 0.0
- 0.0
velocity:
- 0.05933655380527907
- 0.03147785118776039
- -0.08458007183637663
- 0.021362061258673255
- 0.19982772346661662
- 0.16271907741786554
- 0.05050067626287883
- 0.0
- 0.0
effort:
- 0.40039539337158203
- -15.003938674926758
- 4.317462921142578
- 22.272199630737305
- 0.6949040293693542
- 2.5966341495513916
- 0.309334397315979
- 0.0
- 0.0
---
header:
  stamp:
    sec: 1756281921
    nanosec: 439413630
  frame_id: ''
name:
- fr3_joint1
- fr3_joint2
- fr3_joint3
- fr3_joint4
- fr3_joint5
- fr3_joint6
- fr3_joint7
- fr3_finger_joint1
- fr3_finger_joint2
position:
- 0.30695705763708436
- -0.3244614259660405
- -0.5927199835876714
- -2.4900456322782385
- 0.325814079256496
- 2.5717566372163843
- 0.015694675419879154
- 0.0
- 0.0
velocity:
- 0.05822434182112782
- 0.029300791487903044
- -0.08366838138985688
- 0.023087266081742813
- 0.19878090563407289
- 0.16177465904635793
- 0.04561396154325999
- 0.0
- 0.0
effort:
- 0.44800281524658203
- -14.722261428833008
- 4.242084503173828
- 22.192853927612305
- 0.7150456309318542
- 2.6030428409576416
- 0.275459885597229
- 0.0
- 0.0
---
header:
  stamp:
    sec: 1756281921
    nanosec: 472318505
  frame_id: ''
name:
- fr3_joint1
- fr3_joint2
- fr3_joint3
- fr3_joint4
- fr3_joint5
- fr3_joint6
- fr3_joint7
- fr3_finger_joint1
- fr3_finger_joint2
position:
- 0.30896645726555394
- -0.3235395809584906
- -0.5955052941983984
- -2.4893242457937372
- 0.3324243818893678
- 2.5771639655672742
- 0.017170498015346453
- 0.0
- 0.0
velocity:
- 0.06180665695042692
- 0.026773663842451372
- -0.08636715462698542
- 0.019870767618069277
- 0.2070336917564435
- 0.17224589482506214
- 0.046293280000677006
- 0.0
- 0.0
effort:
- 0.678105354309082
- -14.646883010864258
- 4.626911163330078
- 22.216657638549805
- 0.5777165293693542
- 2.5700838565826416
- 0.275459885597229
- 0.0
- 0.0
---
header:
  stamp:
    sec: 1756281921
    nanosec: 505881969
  frame_id: ''
name:
- fr3_joint1
- fr3_joint2
- fr3_joint3
- fr3_joint4
- fr3_joint5
- fr3_joint6
- fr3_joint7
- fr3_finger_joint1
- fr3_finger_joint2
position:
- 0.31117072034625615
- -0.3225725225157092
- -0.5984924074631881
- -2.488553893835385
- 0.3394235789791511
- 2.58321500115463
- 0.018668964885145824
- 0.0
- 0.0
velocity:
- 0.05735629281050609
- 0.029503555823492386
- -0.08222051534961061
- 0.022757408068557514
- 0.2092775360379149
- 0.16804269317262682
- 0.046908362146094465
- 0.0
- 0.0
effort:
- 0.602726936340332
- -14.492158889770508
- 4.448383331298828
- 21.982587814331055
- 0.6884953379631042
- 2.5499422550201416
- 0.343208909034729
- 0.0
- 0.0
---
header:
  stamp:
    sec: 1756281921
    nanosec: 539449682
  frame_id: ''
name:
- fr3_joint1
- fr3_joint2
- fr3_joint3
- fr3_joint4
- fr3_joint5
- fr3_joint6
- fr3_joint7
- fr3_finger_joint1
- fr3_finger_joint2
position:
- 0.3132036723156021
- -0.3215402012883148
- -0.6012570034382702
- -2.4877489869383504
- 0.3462058979230736
- 2.588623739408082
- 0.020301109777761745
- 0.0
- 0.0
velocity:
- 0.06093358164652955
- 0.030665313199049065
- -0.08152201394260303
- 0.025201072199491022
- 0.20082067329938788
- 0.15466429053835087
- 0.04578929223360117
- 0.0
- 0.0
effort:
- 0.551152229309082
- -14.519929885864258
- 4.448383331298828
- 21.954816818237305
- 0.6427189707756042
- 2.5096590518951416
- 0.309334397315979
- 0.0
- 0.0
---
header:
  stamp:
    sec: 1756281921
    nanosec: 572314795
  frame_id: ''
name:
- fr3_joint1
- fr3_joint2
- fr3_joint3
- fr3_joint4
- fr3_joint5
- fr3_joint6
- fr3_joint7
- fr3_finger_joint1
- fr3_finger_joint2
position:
- 0.3151273899920815
- -0.3204574262661144
- -0.6038459870799314
- -2.487017000816238
- 0.35268605949161125
- 2.5938649082764442
- 0.021791233874700354
- 0.0
- 0.0
velocity:
- 0.05405504461495614
- 0.03695605696784327
- -0.0759920596916443
- 0.021796407938883464
- 0.19002077068828524
- 0.16603648099682483
- 0.04791140724759224
- 0.0
- 0.0
effort:
- 0.49957752227783203
- -14.468355178833008
- 4.472187042236328
- 22.034162521362305
- 0.5969426035881042
- 2.5362093448638916
- 0.329475998878479
- 0.0
- 0.0
---
header:
  stamp:
    sec: 1756281921
    nanosec: 605741206
  frame_id: ''
name:
- fr3_joint1
- fr3_joint2
- fr3_joint3
- fr3_joint4
- fr3_joint5
- fr3_joint6
- fr3_joint7
- fr3_finger_joint1
- fr3_finger_joint2
position:
- 0.3170752334051475
- -0.31923712561349393
- -0.6066231482576291
- -2.486281837482092
- 0.35931478586886867
- 2.5997191849771992
- 0.023645471709686165
- 0.0
- 0.0
velocity:
- 0.060251558010356226
- 0.034165868930596574
- -0.08369458532013731
- 0.020035624178323518
- 0.2085014779636918
- 0.18587999847805764
- 0.055019560118568324
- 0.0
- 0.0
effort:
- 0.527348518371582
- -14.492158889770508
- 4.626911163330078
- 22.085737228393555
- 0.5841252207756042
- 2.5627596378326416
- 0.289192795753479
- 0.0
- 0.0
---
header:
  stamp:
    sec: 1756281921
    nanosec: 639213980
  frame_id: ''
name:
- fr3_joint1
- fr3_joint2
- fr3_joint3
- fr3_joint4
- fr3_joint5
- fr3_joint6
- fr3_joint7
- fr3_finger_joint1
- fr3_finger_joint2
position:
- 0.31909219680066137
- -0.31801920614061174
- -0.6095233197122679
- -2.4856069100012346
- 0.3659568518011534
- 2.605620623607974
- 0.02540216326790078
- 0.0
- 0.0
velocity:
- 0.05995249290003174
- 0.037677564945491814
- -0.08664068020863916
- 0.023308718859368697
- 0.19678777066191977
- 0.16846639531796237
- 0.05337967635869049
- 0.0
- 0.0
effort:
- 0.626530647277832
- -14.365205764770508
- 4.448383331298828
- 21.851667404174805
- 0.6097599864006042
- 2.4831087589263916
- 0.350533127784729
- 0.0
- 0.0
---
header:
  stamp:
    sec: 1756281921
    nanosec: 672392236
  frame_id: ''
name:
- fr3_joint1
- fr3_joint2
- fr3_joint3
- fr3_joint4
- fr3_joint5
- fr3_joint6
- fr3_joint7
- fr3_finger_joint1
- fr3_finger_joint2
position:
- 0.32120499647355316
- -0.31679556171250356
- -0.6124458687211486
- -2.4850080240497934
- 0.37258749911622946
- 2.6109412636664473
- 0.027311812664890047
- 0.0
- 0.0
velocity:
- 0.06768741685990047
- 0.038304684452075966
- -0.09094544065280492
- 0.014872000142674004
- 0.20546593563996232
- 0.1676152094524073
- 0.05477831343684267
- 0.0
- 0.0
effort:
- 0.705876350402832
- -14.519929885864258
- 4.603107452392578
- 21.982587814331055
- 0.5639836192131042
- 2.4968416690826416
- 0.343208909034729
- 0.0
- 0.0
---
header:
  stamp:
    sec: 1756281921
    nanosec: 705774702
  frame_id: ''
name:
- fr3_joint1
- fr3_joint2
- fr3_joint3
- fr3_joint4
- fr3_joint5
- fr3_joint6
- fr3_joint7
- fr3_finger_joint1
- fr3_finger_joint2
position:
- 0.32357415206595896
- -0.3155038143747308
- -0.6155011813339022
- -2.4844715820596037
- 0.3796164421585425
- 2.6165962990206624
- 0.02935387064602321
- 0.0
- 0.0
velocity:
- 0.06653579114881752
- 0.03780721034082771
- -0.08319659349370641
- 0.016120686498262298
- 0.21503498865830123
- 0.16484261967494718
- 0.06297208901624227
- 0.0
- 0.0
effort:
- 0.757451057434082
- -14.595308303833008
- 4.757831573486328
- 22.034162521362305
- 0.48524826765060425
- 2.5298006534576416
- 0.282784104347229
- 0.0
- 0.0
---
header:
  stamp:
    sec: 1756281921
    nanosec: 739383384
  frame_id: ''
name:
- fr3_joint1
- fr3_joint2
- fr3_joint3
- fr3_joint4
- fr3_joint5
- fr3_joint6
- fr3_joint7
- fr3_finger_joint1
- fr3_finger_joint2
position:
- 0.3256643245356672
- -0.31420991351667543
- -0.6181845874822997
- -2.4840150509331593
- 0.38641544187548804
- 2.622270498395409
- 0.031119781764143057
- 0.0
- 0.0
velocity:
- 0.061564084130966666
- 0.039444206330764196
- -0.08080811091661419
- 0.014344033207773043
- 0.19628693571107086
- 0.16659720597893954
- 0.050180171304112176
- 0.0
- 0.0
effort:
- 0.654301643371582
- -14.698457717895508
- 4.499958038330078
- 22.113508224487305
- 0.49257248640060425
- 2.5362093448638916
- 0.295601487159729
- 0.0
- 0.0
---
header:
  stamp:
    sec: 1756281921
    nanosec: 772497158
  frame_id: ''
name:
- fr3_joint1
- fr3_joint2
- fr3_joint3
- fr3_joint4
- fr3_joint5
- fr3_joint6
- fr3_joint7
- fr3_finger_joint1
- fr3_finger_joint2
position:
- 0.32766913876656356
- -0.3130469909969128
- -0.6208087713766808
- -2.483494591253864
- 0.3928412666168378
- 2.627483820594342
- 0.032697344695175705
- 0.0
- 0.0
velocity:
- 0.05529673730513939
- 0.035050665628806106
- -0.0786100363028795
- 0.01725387896045506
- 0.1917559313728554
- 0.14693974406692425
- 0.04749523136768273
- 0.0
- 0.0
effort:
- 0.551152229309082
- -14.873018264770508
- 4.499958038330078
- 22.141279220581055
- 0.5246159434318542
- 2.5563509464263916
- 0.261726975440979
- 0.0
- 0.0
---
header:
  stamp:
    sec: 1756281921
    nanosec: 805772375
  frame_id: ''
name:
- fr3_joint1
- fr3_joint2
- fr3_joint3
- fr3_joint4
- fr3_joint5
- fr3_joint6
- fr3_joint7
- fr3_finger_joint1
- fr3_finger_joint2
position:
- 0.32956634726427547
- -0.31192434626147497
- -0.6235535150610714
- -2.482953101341364
- 0.3995102106260375
- 2.632723194173421
- 0.034153756685812886
- 0.0
- 0.0
velocity:
- 0.0604597415335224
- 0.03163540650669555
- -0.08352828092357341
- 0.014856831787633779
- 0.19920512593505932
- 0.16960353638130568
- 0.037939447945223324
- 0.0
- 0.0
effort:
- 0.49957752227783203
- -14.670686721801758
- 4.448383331298828
- 22.323774337768555
- 0.5246159434318542
- 2.5096590518951416
- 0.309334397315979
- 0.0
- 0.0
---
header:
  stamp:
    sec: 1756281921
    nanosec: 839505781
  frame_id: ''
name:
- fr3_joint1
- fr3_joint2
- fr3_joint3
- fr3_joint4
- fr3_joint5
- fr3_joint6
- fr3_joint7
- fr3_finger_joint1
- fr3_finger_joint2
position:
- 0.3315984299304128
- -0.31088145386828453
- -0.6263364490149347
- -2.4823531809811485
- 0.40616298782887567
- 2.6385839507174276
- 0.0353708465146802
- 0.0
- 0.0
velocity:
- 0.061930009618979084
- 0.030124979095975224
- -0.08308102079510005
- 0.019185713222325405
- 0.19699772536836035
- 0.18720604345227296
- 0.03574394936111107
- 0.0
- 0.0
effort:
- 0.49957752227783203
- -14.670686721801758
- 4.420612335205078
- 22.323774337768555
- 0.5117985606193542
- 2.5160677433013916
- 0.289192795753479
- 0.0
- 0.0
---
header:
  stamp:
    sec: 1756281921
    nanosec: 872533949
  frame_id: ''
name:
- fr3_joint1
- fr3_joint2
- fr3_joint3
- fr3_joint4
- fr3_joint5
- fr3_joint6
- fr3_joint7
- fr3_finger_joint1
- fr3_finger_joint2
position:
- 0.33360624613594597
- -0.3098952845897333
- -0.6289991171299043
- -2.481667708605403
- 0.41271920805443724
- 2.6443570633267894
- 0.036561661462242115
- 0.0
- 0.0
velocity:
- 0.06023524077147578
- 0.030757143806889455
- -0.08212809480066738
- 0.0221543587185656
- 0.20310966712741893
- 0.1690687227667181
- 0.0363260663641582
- 0.0
- 0.0
effort:
- 0.527348518371582
- -14.595308303833008
- 4.448383331298828
- 22.165082931518555
- 0.45320481061935425
- 2.4895174503326416
- 0.289192795753479
- 0.0
- 0.0
---
header:
  stamp:
    sec: 1756281921
    nanosec: 905742123
  frame_id: ''
name:
- fr3_joint1
- fr3_joint2
- fr3_joint3
- fr3_joint4
- fr3_joint5
- fr3_joint6
- fr3_joint7
- fr3_finger_joint1
- fr3_finger_joint2
position:
- 0.33576698031531854
- -0.3088778277784299
- -0.6318325439410696
- -2.4808590650189783
- 0.4197762568612194
- 2.6498178766231693
- 0.03788380116495653
- 0.0
- 0.0
velocity:
- 0.06746814310019505
- 0.027261582128403142
- -0.08629301819208415
- 0.02129812625830481
- 0.20554706173605194
- 0.16585382659289608
- 0.04022492661536742
- 0.0
- 0.0
effort:
- 0.678105354309082
- -14.543733596801758
- 4.523761749267578
- 22.085737228393555
- 0.47883957624435425
- 2.5096590518951416
- 0.302925705909729
- 0.0
- 0.0
---
header:
  stamp:
    sec: 1756281921
    nanosec: 939421758
  frame_id: ''
name:
- fr3_joint1
- fr3_joint2
- fr3_joint3
- fr3_joint4
- fr3_joint5
- fr3_joint6
- fr3_joint7
- fr3_finger_joint1
- fr3_finger_joint2
position:
- 0.33788925731564906
- -0.30793674145949707
- -0.6346488049383322
- -2.4801650777265736
- 0.42653527750760495
- 2.6553511865311625
- 0.0392689207025596
- 0.0
- 0.0
velocity:
- 0.06135121537809357
- 0.030121778778375737
- -0.08545984379221573
- 0.0182788863126898
- 0.19820936853128443
- 0.17096498000155708
- 0.04379496060883467
- 0.0
- 0.0
effort:
- 0.578923225402832
- -14.444551467895508
- 4.551532745361328
- 22.192853927612305
- 0.47243088483810425
- 2.5032503604888916
- 0.356941819190979
- 0.0
- 0.0
---
header:
  stamp:
    sec: 1756281921
    nanosec: 972455109
  frame_id: ''
name:
- fr3_joint1
- fr3_joint2
- fr3_joint3
- fr3_joint4
- fr3_joint5
- fr3_joint6
- fr3_joint7
- fr3_finger_joint1
- fr3_finger_joint2
position:
- 0.339911069559877
- -0.3069144293345634
- -0.6374350453899265
- -2.4795053869869568
- 0.43277036190922774
- 2.6611787711007016
- 0.040901419516587136
- 0.0
- 0.0
velocity:
- 0.059291706976021125
- 0.03332203191423034
- -0.08518207584600174
- 0.02128929804829681
- 0.18224709773499512
- 0.17309571659826722
- 0.05123497767417914
- 0.0
- 0.0
effort:
- 0.44800281524658203
- -14.365205764770508
- 4.345233917236328
- 22.085737228393555
- 0.48524826765060425
- 2.4702913761138916
- 0.255318284034729
- 0.0
- 0.0
---
header:
  stamp:
    sec: 1756281922
    nanosec: 5846211
  frame_id: ''
name:
- fr3_joint1
- fr3_joint2
- fr3_joint3
- fr3_joint4
- fr3_joint5
- fr3_joint6
- fr3_joint7
- fr3_finger_joint1
- fr3_finger_joint2
position:
- 0.34179169985796726
- -0.30573475482377566
- -0.6401983224642607
- -2.478780294394369
- 0.4394827283682122
- 2.666674895602022
- 0.04273081448661145
- 0.0
- 0.0
velocity:
- 0.05635509572916981
- 0.035383425399418085
- -0.08124021847805092
- 0.02054954835231922
- 0.2063585570624604
