header:
  stamp:
    sec: 1756276483
    nanosec: 270311303
  frame_id: ''
name:
- fr3_joint1
- fr3_joint2
- fr3_joint3
- fr3_joint4
- fr3_joint5
- fr3_joint6
- fr3_joint7
- fr3_finger_joint1
- fr3_finger_joint2
position:
- 0.16901242915323514
- 0.3924857378331742
- 0.11609743379879575
- -1.243278769111375
- -0.037074138524714834
- 2.403938711552348
- 0.22821765881907966
- 0.0
- 0.0
velocity:
- -0.164198823592695
- -0.052484712284857495
- 0.13058611688437247
- -0.004555966070759936
- -0.09181639376842406
- 0.08175353467763824
- 0.03208319548835441
- 0.0
- 0.0
effort:
- -0.722346305847168
- -43.814361572265625
- 1.9648628234863281
- 22.819684982299805
- 0.30855149030685425
- 2.8896028995513916
- 0.1060873419046402
- 0.0
- 0.0
---
header:
  stamp:
    sec: 1756276483
    nanosec: 303430985
  frame_id: ''
name:
- fr3_joint1
- fr3_joint2
- fr3_joint3
- fr3_joint4
- fr3_joint5
- fr3_joint6
- fr3_joint7
- fr3_finger_joint1
- fr3_finger_joint2
position:
- 0.16331069348882896
- 0.3906496890322805
- 0.12029440063979156
- -1.2434494472965893
- -0.04034492746452865
- 2.406527772794129
- 0.22928597582236024
- 0.0
- 0.0
velocity:
- -0.17224215604687565
- -0.05406951600053383
- 0.12311900762236858
- -0.0033063753825032776
- -0.09446898160022317
- 0.07799250955028555
- 0.037701492386629384
- 0.0
- 0.0
effort:
- -0.670771598815918
- -43.508880615234375
- 2.091815948486328
- 22.716535568237305
- 0.36165207624435425
- 2.9097445011138916
- 0.0923544317483902
- 0.0
- 0.0
---
header:
  stamp:
    sec: 1756276483
    nanosec: 336609508
  frame_id: ''
name:
- fr3_joint1
- fr3_joint2
- fr3_joint3
- fr3_joint4
- fr3_joint5
- fr3_joint6
- fr3_joint7
- fr3_finger_joint1
- fr3_finger_joint2
position:
- 0.1575220466184438
- 0.38878045323041827
- 0.12465050168731932
- -1.2437129818595851
- -0.043293693935490735
- 2.4089621579194507
- 0.2305093093367447
- 0.0
- 0.0
velocity:
- -0.17095034177040294
- -0.05779691412243013
- 0.13261280972114772
- -0.010188730728446414
- -0.09173883406820062
- 0.07149228043770273
- 0.036873874023642395
- 0.0
- 0.0
effort:
- -0.520014762878418
- -43.715179443359375
- 2.171161651611328
- 22.768110275268555
- 0.33510178327560425
- 2.9298861026763916
- 0.1399618536233902
- 0.0
- 0.0
---
header:
  stamp:
    sec: 1756276483
    nanosec: 370020330
  frame_id: ''
name:
- fr3_joint1
- fr3_joint2
- fr3_joint3
- fr3_joint4
- fr3_joint5
- fr3_joint6
- fr3_joint7
- fr3_finger_joint1
- fr3_finger_joint2
position:
- 0.15199283606998065
- 0.3867257124542709
- 0.12920231374822702
- -1.2440296976955987
- -0.0462062110828137
- 2.4112025616123764
- 0.23170086660920666
- 0.0
- 0.0
velocity:
- -0.16419972209182004
- -0.061018550284230394
- 0.13343143705354396
- -0.007645597534032606
- -0.08817193337484049
- 0.06431060299764682
- 0.032852703895245354
- 0.0
- 0.0
effort:
- -0.21453380584716797
- -43.508880615234375
- 2.508380889892578
- 22.688764572143555
- 0.32228440046310425
- 2.9298861026763916
- 0.1198202520608902
- 0.0
- 0.0
---
header:
  stamp:
    sec: 1756276483
    nanosec: 403401195
  frame_id: ''
name:
- fr3_joint1
- fr3_joint2
- fr3_joint3
- fr3_joint4
- fr3_joint5
- fr3_joint6
- fr3_joint7
- fr3_finger_joint1
- fr3_finger_joint2
position:
- 0.14656834618388495
- 0.38472989214913944
- 0.13391177419582698
- -1.244314148946621
- -0.04926157547872167
- 2.4134014522265006
- 0.2329415008474535
- 0.0
- 0.0
velocity:
- -0.16281918790288413
- -0.06041785841619499
- 0.14679803731881644
- -0.010244936533418944
- -0.0953112003912097
- 0.06918877058611743
- 0.04201095897735771
- 0.0
- 0.0
effort:
- -0.646967887878418
- -43.076446533203125
- 2.250507354736328
- 22.637189865112305
- 0.33510178327560425
- 2.8758699893951416
- 0.1134115606546402
- 0.0
- 0.0
---
header:
  stamp:
    sec: 1756276483
    nanosec: 437335114
  frame_id: ''
name:
- fr3_joint1
- fr3_joint2
- fr3_joint3
- fr3_joint4
- fr3_joint5
- fr3_joint6
- fr3_joint7
- fr3_finger_joint1
- fr3_finger_joint2
position:
- 0.14137097309404043
- 0.38279798725986164
- 0.13878517258241602
- -1.2445152635964798
- -0.05234191595057204
- 2.415887560148903
- 0.2342407852446236
- 0.0
- 0.0
velocity:
- -0.15249870791769743
- -0.05250110806697825
- 0.1421209176917632
- -0.004167389669342284
- -0.08570420911983763
- 0.07450888502560526
- 0.03959354468028388
- 0.0
- 0.0
effort:
- -0.31371593475341797
- -42.671783447265625
- 2.456806182861328
- 22.375349044799805
- 0.30855149030685425
- 2.8566439151763916
- 0.1601034551858902
- 0.0
- 0.0
---
header:
  stamp:
    sec: 1756276483
    nanosec: 470296403
  frame_id: ''
name:
- fr3_joint1
- fr3_joint2
- fr3_joint3
- fr3_joint4
- fr3_joint5
- fr3_joint6
- fr3_joint7
- fr3_finger_joint1
- fr3_finger_joint2
position:
- 0.13606809184237234
- 0.38110621989847204
- 0.14353433946361904
- -1.2447269187852912
- -0.055274953936438526
- 2.418270129591184
- 0.23548824456366618
- 0.0
- 0.0
velocity:
- -0.170699654954099
- -0.04929196582373879
- 0.14536528063761583
- -0.008372012490699727
- -0.08549831318564537
- 0.0732606996260084
- 0.035824419998073766
- 0.0
- 0.0
effort:
- -0.39306163787841797
- -42.897918701171875
- 2.429035186767578
- 22.403120040893555
- 0.30855149030685425
- 2.8694612979888916
- 0.2214437872171402
- 0.0
- 0.0
---
header:
  stamp:
    sec: 1756276483
    nanosec: 503437832
  frame_id: ''
name:
- fr3_joint1
- fr3_joint2
- fr3_joint3
- fr3_joint4
- fr3_joint5
- fr3_joint6
- fr3_joint7
- fr3_finger_joint1
- fr3_finger_joint2
position:
- 0.13065198030924727
- 0.3794641470635258
- 0.14846528666351277
- -1.2451495248641014
- -0.05845291878995273
- 2.420819404130556
- 0.2369548055607952
- 0.0
- 0.0
velocity:
- -0.15140834591626964
- -0.04736375482756853
- 0.14626441844624147
- -0.014195305385161765
- -0.09679142113662688
- 0.07811000220817041
- 0.04206339832833183
- 0.0
- 0.0
effort:
- -0.571589469909668
- -42.747161865234375
- 2.325885772705078
- 22.613386154174805
- 0.32228440046310425
- 2.9097445011138916
- 0.0859457403421402
- 0.0
- 0.0
---
header:
  stamp:
    sec: 1756276483
    nanosec: 537333589
  frame_id: ''
name:
- fr3_joint1
- fr3_joint2
- fr3_joint3
- fr3_joint4
- fr3_joint5
- fr3_joint6
- fr3_joint7
- fr3_finger_joint1
- fr3_finger_joint2
position:
- 0.12594091125800147
- 0.37797469598917927
- 0.15312225166282697
- -1.2455627942120135
- -0.06157858600207669
- 2.4234658124119406
- 0.2384051217366993
- 0.0
- 0.0
velocity:
- -0.146194245411602
- -0.04535683226349792
- 0.15127816552815004
- -0.014331022809017395
- -0.09636065770735172
- 0.07453626282311707
- 0.04761586212292096
- 0.0
- 0.0
effort:
- -0.722346305847168
- -42.850311279296875
- 2.302082061767578
- 22.557844161987305
- 0.35432785749435425
- 2.8694612979888916
- 0.1198202520608902
- 0.0
- 0.0
---
header:
  stamp:
    sec: 1756276483
    nanosec: 569983697
  frame_id: ''
name:
- fr3_joint1
- fr3_joint2
- fr3_joint3
- fr3_joint4
- fr3_joint5
- fr3_joint6
- fr3_joint7
- fr3_finger_joint1
- fr3_finger_joint2
position:
- 0.12081686713828697
- 0.37647110021318964
- 0.1582370052139687
- -1.2460641292303012
- -0.06475024832138808
- 2.4257967228128385
- 0.24010810153849313
- 0.0
- 0.0
velocity:
- -0.14822146012553472
- -0.047593901904505374
- 0.1521992167059043
- -0.019168056292126496
- -0.0918358137835974
- 0.06887105989755457
- 0.054244904869739985
- 0.0
- 0.0
effort:
- -1.257929801940918
- -43.052642822265625
- 1.7585639953613281
- 22.613386154174805
- 0.34151047468185425
- 2.8896028995513916
- 0.0795370489358902
- 0.0
- 0.0
---
header:
  stamp:
    sec: 1756276483
    nanosec: 603317504
  frame_id: ''
name:
- fr3_joint1
- fr3_joint2
- fr3_joint3
- fr3_joint4
- fr3_joint5
- fr3_joint6
- fr3_joint7
- fr3_finger_joint1
- fr3_finger_joint2
position:
- 0.116057008888354
- 0.37490581309207455
- 0.16307774705449163
- -1.2466651791348906
- -0.06790425443354353
- 2.428039736019757
- 0.2418013810812736
- 0.0
- 0.0
velocity:
- -0.14000560245943758
- -0.04862088599728725
- 0.14327977050022567
- -0.017319385949931897
- -0.0988327169148735
- 0.06759955345034241
- 0.05511286143072358
- 0.0
- 0.0
effort:
- -0.976252555847168
- -43.128021240234375
- 2.040241241455078
- 22.744306564331055
- 0.38087815046310425
- 2.8896028995513916
- 0.1198202520608902
- 0.0
- 0.0
---
header:
  stamp:
    sec: 1756276483
    nanosec: 637323608
  frame_id: ''
name:
- fr3_joint1
- fr3_joint2
- fr3_joint3
- fr3_joint4
- fr3_joint5
- fr3_joint6
- fr3_joint7
- fr3_finger_joint1
- fr3_finger_joint2
position:
- 0.11088783458424112
- 0.3732186828530379
- 0.16791087033327362
- -1.2472462637148864
- -0.07123739266506998
- 2.430255542253098
- 0.24387664573649076
- 0.0
- 0.0
velocity:
- -0.16177207009615685
- -0.04889104070044513
- 0.14519838244665514
- -0.014736151169632124
- -0.09954354302592174
- 0.0597902430938286
- 0.06155348619047038
- 0.0
- 0.0
effort:
- -0.952448844909668
- -42.798736572265625
- 2.119586944580078
- 22.716535568237305
- 0.39369553327560425
- 2.9097445011138916
- 0.1198202520608902
- 0.0
- 0.0
---
header:
  stamp:
    sec: 1756276483
    nanosec: 670241875
  frame_id: ''
name:
- fr3_joint1
- fr3_joint2
- fr3_joint3
- fr3_joint4
- fr3_joint5
- fr3_joint6
- fr3_joint7
- fr3_finger_joint1
- fr3_finger_joint2
position:
- 0.10536839447146536
- 0.3716279522231436
- 0.17262946726131556
- -1.247713617780863
- -0.0744801266393366
- 2.4325269035546526
- 0.24595243061009167
- 0.0
- 0.0
velocity:
- -0.1623394732844692
- -0.04632776514631667
- 0.13501549780441996
- -0.012455927931029842
- -0.09470987802449234
- 0.06740028577823595
- 0.06107015421635393
- 0.0
- 0.0
effort:
- -0.952448844909668
- -42.695587158203125
- 2.377460479736328
- 22.613386154174805
- 0.40742844343185425
- 2.8630526065826416
- 0.1738363653421402
- 0.0
- 0.0
---
header:
  stamp:
    sec: 1756276483
    nanosec: 703270196
  frame_id: ''
name:
- fr3_joint1
- fr3_joint2
- fr3_joint3
- fr3_joint4
- fr3_joint5
- fr3_joint6
- fr3_joint7
- fr3_finger_joint1
- fr3_finger_joint2
position:
- 0.10036633279452603
- 0.3701166770366091
- 0.17717608274267704
- -1.2481191030641983
- -0.07748343749472435
- 2.4348250075034104
- 0.24763593103516984
- 0.0
- 0.0
velocity:
- -0.15438595335448463
- -0.04714801877769286
- 0.13919349729721822
- -0.01314079923941592
- -0.09283370629093052
- 0.07588056895234223
- 0.045604052293616484
- 0.0
- 0.0
effort:
- -0.928645133972168
- -42.544830322265625
- 2.559955596923828
- 22.664960861206055
- 0.37446945905685425
- 2.8694612979888916
- 0.1335531622171402
- 0.0
- 0.0
---
header:
  stamp:
    sec: 1756276483
    nanosec: 736860863
  frame_id: ''
name:
- fr3_joint1
- fr3_joint2
- fr3_joint3
- fr3_joint4
- fr3_joint5
- fr3_joint6
- fr3_joint7
- fr3_finger_joint1
- fr3_finger_joint2
position:
- 0.09489101077296197
- 0.3686472542455045
- 0.18222746911042556
- -1.2485265751385686
- -0.08061966232528694
- 2.4372640359513285
- 0.2493004532403883
- 0.0
- 0.0
velocity:
- -0.15957949515693967
- -0.04203352793527253
- 0.1505130372424906
- -0.012382203741457893
- -0.09194973910246959
- 0.07364861353365
- 0.047261115056563316
- 0.0
- 0.0
effort:
- -1.361079216003418
- -42.338531494140625
- 2.198932647705078
- 22.613386154174805
- 0.35432785749435425
- 2.8493196964263916
- 0.1262289434671402
- 0.0
- 0.0
---
header:
  stamp:
    sec: 1756276483
    nanosec: 770295327
  frame_id: ''
name:
- fr3_joint1
- fr3_joint2
- fr3_joint3
- fr3_joint4
- fr3_joint5
- fr3_joint6
- fr3_joint7
- fr3_finger_joint1
- fr3_finger_joint2
position:
- 0.08974133096030376
- 0.3672014301434815
- 0.18698885764305556
- -1.2489626730591916
- -0.08371752035943468
- 2.4396795496176518
- 0.25057788811728177
- 0.0
- 0.0
velocity:
- -0.1495529879658312
- -0.04377420753246669
- 0.13797549022032174
- -0.01429233897248212
- -0.08718120076067973
- 0.07316827245639043
- 0.03459876341431034
- 0.0
- 0.0
effort:
- -0.750117301940918
- -42.544830322265625
- 2.480609893798828
- 22.585615158081055
- 0.34791916608810425
- 2.8831942081451416
- 0.1811605840921402
- 0.0
- 0.0
---
header:
  stamp:
    sec: 1756276483
    nanosec: 803358363
  frame_id: ''
name:
- fr3_joint1
- fr3_joint2
- fr3_joint3
- fr3_joint4
- fr3_joint5
- fr3_joint6
- fr3_joint7
- fr3_finger_joint1
- fr3_finger_joint2
position:
- 0.08469415228332978
- 0.365792315490499
- 0.19147532676058687
- -1.249420152690656
- -0.08668706814370747
- 2.4422888628751314
- 0.2518006209323934
- 0.0
- 0.0
velocity:
- -0.1671918130174384
- -0.042755840723389074
- 0.1465787369006608
- -0.013785946956474351
- -0.0954793056367077
- 0.08045847452521158
- 0.03680592688107929
- 0.0
- 0.0
effort:
- -0.646967887878418
- -42.747161865234375
- 2.635334014892578
- 22.688764572143555
- 0.37446945905685425
- 2.8758699893951416
- 0.1472860723733902
- 0.0
- 0.0
---
header:
  stamp:
    sec: 1756276483
    nanosec: 836593512
  frame_id: ''
name:
- fr3_joint1
- fr3_joint2
- fr3_joint3
- fr3_joint4
- fr3_joint5
- fr3_joint6
- fr3_joint7
- fr3_finger_joint1
- fr3_finger_joint2
position:
- 0.07884644767802765
- 0.36427823143137883
- 0.19635339270387686
- -1.2498886987854536
- -0.08975554718831927
- 2.4448989420794547
- 0.25321786435232635
- 0.0
- 0.0
velocity:
- -0.16820976069108612
- -0.045815047653808706
- 0.13914608918461543
- -0.01242302770198833
- -0.08834548063558147
- 0.07302616321496946
- 0.03817486108839066
- 0.0
- 0.0
effort:
- -0.646967887878418
- -42.596405029296875
- 2.738483428955078
- 22.795881271362305
- 0.38087815046310425
- 2.9033358097076416
- 0.2150350958108902
- 0.0
- 0.0
---
header:
  stamp:
    sec: 1756276483
    nanosec: 870324169
  frame_id: ''
name:
- fr3_joint1
- fr3_joint2
- fr3_joint3
- fr3_joint4
- fr3_joint5
- fr3_joint6
- fr3_joint7
- fr3_finger_joint1
- fr3_finger_joint2
position:
- 0.07365430684428204
- 0.3626684180257535
- 0.20090288857700517
- -1.2503408718200448
- -0.09272155230183328
- 2.4473393102810364
- 0.2546044532143334
- 0.0
- 0.0
velocity:
- -0.15526477240553743
- -0.04945516622854978
- 0.13880434457472007
- -0.014051406640692782
- -0.08957747141992137
- 0.06714305235685687
- 0.047414268248731524
- 0.0
- 0.0
effort:
- -0.646967887878418
- -42.747161865234375
- 2.817829132080078
- 22.819684982299805
- 0.36806076765060425
- 2.9097445011138916
- 0.1335531622171402
- 0.0
- 0.0
---
header:
  stamp:
    sec: 1756276483
    nanosec: 903312917
  frame_id: ''
name:
- fr3_joint1
- fr3_joint2
- fr3_joint3
- fr3_joint4
- fr3_joint5
- fr3_joint6
- fr3_joint7
- fr3_finger_joint1
- fr3_finger_joint2
position:
- 0.06849395031627427
- 0.3609255451531624
- 0.20568429733847018
- -1.2508009854068018
- -0.09577495572985388
- 2.4495137703612424
- 0.25601404679969086
- 0.0
- 0.0
velocity:
- -0.1588016458511485
- -0.05248908439329554
- 0.15347632058742763
- -0.012136354587494631
- -0.09587494580101312
- 0.06314702430610349
- 0.04158925791874069
- 0.0
- 0.0
effort:
- -0.797724723815918
- -42.671783447265625
- 2.611530303955078
- 22.875226974487305
- 0.40742844343185425
- 2.8960115909576416
- 0.2013021856546402
- 0.0
- 0.0
---
header:
  stamp:
    sec: 1756276483
    nanosec: 937168490
  frame_id: ''
name:
- fr3_joint1
- fr3_joint2
- fr3_joint3
- fr3_joint4
- fr3_joint5
- fr3_joint6
- fr3_joint7
- fr3_finger_joint1
- fr3_finger_joint2
position:
- 0.0633062699974701
- 0.3590246985409404
- 0.21054861880565412
- -1.251135679791236
- -0.09891118253185144
- 2.4517784011395083
- 0.257425850222208
- 0.0
- 0.0
velocity:
- -0.14670225765860467
- -0.05674000992567863
- 0.13559193283436705
- -0.007913686530184334
- -0.09235998789321843
- 0.0703848502845342
- 0.04310624192831238
- 0.0
- 0.0
effort:
- -0.670771598815918
- -42.263153076171875
- 2.663105010986328
- 22.744306564331055
- 0.38728684186935425
- 2.8630526065826416
- 0.2077108770608902
- 0.0
- 0.0
---
header:
  stamp:
    sec: 1756276483
    nanosec: 970386810
  frame_id: ''
name:
- fr3_joint1
- fr3_joint2
- fr3_joint3
- fr3_joint4
- fr3_joint5
- fr3_joint6
- fr3_joint7
- fr3_finger_joint1
- fr3_finger_joint2
position:
- 0.05817087683521221
- 0.35717603872046827
- 0.2152594418696234
- -1.2513280894237078
- -0.10180466809457947
- 2.4542095294920534
- 0.2590851962037453
- 0.0
- 0.0
velocity:
- -0.16244071565318632
- -0.05694083529630789
- 0.14457816417607258
- -0.005777140825025317
- -0.08980141339137099
- 0.0742231862238951
- 0.054140591069793347
- 0.0
- 0.0
effort:
- -0.928645133972168
- -41.906097412109375
- 2.583759307861328
- 22.482465744018555
- 0.38087815046310425
- 2.8493196964263916
- 0.1536947637796402
- 0.0
- 0.0
---
header:
  stamp:
    sec: 1756276484
    nanosec: 3329933
  frame_id: ''
name:
- fr3_joint1
- fr3_joint2
- fr3_joint3
- fr3_joint4
- fr3_joint5
- fr3_joint6
- fr3_joint7
- fr3_finger_joint1
- fr3_finger_joint2
position:
- 0.05280250579771957
- 0.3554389527428612
- 0.22002870560661703
- -1.251517514641109
- -0.10477064080284058
- 2.456598064848725
- 0.2607417479921396
- 0.0
- 0.0
velocity:
- -0.16348181398451592
- -0.051786810245491345
- 0.1458760582836071
- -0.003347044881742191
- -0.0902660755770353
- 0.06859156016122553
- 0.05339124097158495
- 0.0
- 0.0
effort:
- -0.698542594909668
- -41.525238037109375
- 2.766254425048828
- 22.296003341674805
- 0.38728684186935425
- 2.8163607120513916
- 0.1198202520608902
- 0.0
- 0.0
---
header:
  stamp:
    sec: 1756276484
    nanosec: 36716648
  frame_id: ''
name:
- fr3_joint1
- fr3_joint2
- fr3_joint3
- fr3_joint4
- fr3_joint5
- fr3_joint6
- fr3_joint7
- fr3_finger_joint1
- fr3_finger_joint2
position:
- 0.047505302722019686
- 0.3536891076846666
- 0.22474147748183557
- -1.251758228661936
- -0.10807105946992358
- 2.459049809163663
- 0.26265604365564027
- 0.0
- 0.0
velocity:
- -0.15246420883721234
- -0.05224265254477644
- 0.13633558532865975
- -0.007742139650497193
- -0.0971680966996029
- 0.07277536262646583
- 0.05499677376809123
- 0.0
- 0.0
effort:
- -0.722346305847168
- -41.449859619140625
- 2.869403839111328
- 22.351545333862305
- 0.42665451765060425
- 2.8227694034576416
- 0.1939779669046402
- 0.0
- 0.0
---
header:
  stamp:
    sec: 1756276484
    nanosec: 70315564
  frame_id: ''
name:
- fr3_joint1
- fr3_joint2
- fr3_joint3
- fr3_joint4
- fr3_joint5
- fr3_joint6
- fr3_joint7
- fr3_finger_joint1
- fr3_finger_joint2
position:
- 0.04223299813949043
- 0.35203354027202627
- 0.22966857807887137
- -1.2521013060085044
- -0.11133436201782772
- 2.461529099020218
- 0.2646011194826044
- 0.0
- 0.0
velocity:
- -0.15671212227052492
- -0.04855398636582945
- 0.15282231456533113
- -0.009835640079650265
- -0.09593724054179147
- 0.07539493711769163
- 0.0628198603271708
- 0.0
- 0.0
effort:
- -1.234126091003418
- -41.398284912109375
- 2.611530303955078
- 22.403120040893555
- 0.43306320905685425
- 2.8566439151763916
- 0.1875692754983902
- 0.0
- 0.0
---
header:
  stamp:
    sec: 1756276484
    nanosec: 103286959
  frame_id: ''
name:
- fr3_joint1
- fr3_joint2
- fr3_joint3
- fr3_joint4
- fr3_joint5
- fr3_joint6
- fr3_joint7
- fr3_finger_joint1
- fr3_finger_joint2
position:
- 0.03728583970164741
- 0.35040355274193613
- 0.23443393473710464
- -1.252516920678158
- -0.1144678643633933
- 2.46393072321595
- 0.2664472970203188
- 0.0
- 0.0
velocity:
- -0.14790408625753
- -0.05091036395707343
- 0.1383578215836906
- -0.012149870672841913
- -0.09413823636013538
- 0.07126453490514319
- 0.04800716233231208
- 0.0
- 0.0
effort:
- -0.698542594909668
- -41.525238037109375
- 2.920978546142578
- 22.403120040893555
- 0.42665451765060425
- 2.8429110050201416
- 0.1536947637796402
- 0.0
- 0.0
---
header:
  stamp:
    sec: 1756276484
    nanosec: 136605747
  frame_id: ''
name:
- fr3_joint1
- fr3_joint2
- fr3_joint3
- fr3_joint4
- fr3_joint5
- fr3_joint6
- fr3_joint7
- fr3_finger_joint1
- fr3_finger_joint2
position:
- 0.03203282148105799
- 0.3486801714296656
- 0.23917839665261842
- -1.253005253193447
- -0.11768988981963294
- 2.466322682997681
- 0.26805085508164755
- 0.0
- 0.0
velocity:
- -0.16555692621940804
- -0.0521017646161113
- 0.14444064483445393
- -0.014627799764859738
- -0.098948904036358
- 0.06813163132418618
- 0.04405448295207857
- 0.0
- 0.0
effort:
- -0.877070426940918
- -41.652191162109375
- 2.790058135986328
- 22.506269454956055
- 0.40742844343185425
- 2.8227694034576416
- 0.0722128301858902
- 0.0
- 0.0
---
header:
  stamp:
    sec: 1756276484
    nanosec: 170210748
  frame_id: ''
name:
- fr3_joint1
- fr3_joint2
- fr3_joint3
- fr3_joint4
- fr3_joint5
- fr3_joint6
- fr3_joint7
- fr3_finger_joint1
- fr3_finger_joint2
position:
- 0.02656773625520025
- 0.34697435372941426
- 0.24405923366186832
- -1.2535052539652165
- -0.12065704946158676
- 2.4686232525931926
- 0.26949536867491614
- 0.0
- 0.0
velocity:
- -0.16324234166979895
- -0.0489055961501882
- 0.14899384918724826
- -0.013694035613116839
- -0.09047666080243673
- 0.06734450379873758
- 0.03780239990895024
- 0.0
- 0.0
effort:
- -0.722346305847168
- -41.398284912109375
- 3.024127960205078
- 22.557844161987305
- 0.42665451765060425
- 2.8300936222076416
- 0.1674276739358902
- 0.0
- 0.0
---
header:
  stamp:
    sec: 1756276484
    nanosec: 203422477
  frame_id: ''
name:
- fr3_joint1
- fr3_joint2
- fr3_joint3
- fr3_joint4
- fr3_joint5
- fr3_joint6
- fr3_joint7
- fr3_finger_joint1
- fr3_finger_joint2
position:
- 0.021256551864063857
- 0.3453187981289563
- 0.24879352768261237
- -1.2538491290173157
- -0.12352868225520511
- 2.4707716862119202
- 0.27074065064724545
- 0.0
- 0.0
velocity:
- -0.15633005815190562
- -0.04734218622477096
- 0.13936964837752258
- -0.009796613533713376
- -0.08174692895574787
- 0.0631945547480527
- 0.032231134889828525
- 0.0
- 0.0
effort:
- -0.670771598815918
- -41.195953369140625
- 3.051898956298828
- 22.426923751831055
- 0.38087815046310425
- 2.7962191104888916
- 0.2278524786233902
- 0.0
- 0.0
---
header:
  stamp:
    sec: 1756276484
    nanosec: 236701151
  frame_id: ''
name:
- fr3_joint1
- fr3_joint2
- fr3_joint3
- fr3_joint4
- fr3_joint5
- fr3_joint6
- fr3_joint7
- fr3_finger_joint1
- fr3_finger_joint2
position:
- 0.016016715915825878
- 0.3438501443537355
- 0.2535957537706043
- -1.2541371374788655
- -0.12652282333916418
- 2.47290466547564
- 0.2719813553408352
- 0.0
- 0.0
velocity:
- -0.1546431737682135
- -0.04309972789256751
- 0.14844375246439304
- -0.01020286040423537
- -0.09613688189253852
- 0.06818874493188877
- 0.037244410369719975
- 0.0
- 0.0
effort:
- -1.027827262878418
- -41.172149658203125
- 2.686908721923828
- 22.375349044799805
- 0.38728684186935425
- 2.8227694034576416
- 0.1674276739358902
- 0.0
- 0.0
---
header:
  stamp:
    sec: 1756276484
    nanosec: 270016915
  frame_id: ''
name:
- fr3_joint1
- fr3_joint2
- fr3_joint3
- fr3_joint4
- fr3_joint5
- fr3_joint6
- fr3_joint7
- fr3_finger_joint1
- fr3_finger_joint2
position:
- 0.011006621982406243
- 0.342395646561686
- 0.258404950252909
- -1.2544860423916178
- -0.12971007642191468
- 2.475298321657616
- 0.27319359800842224
- 0.0
- 0.0
velocity:
- -0.14989394657180502
- -0.04174284809519783
- 0.14462940616799047
- -0.009493821271089307
- -0.09608096779605209
- 0.07287377464426083
- 0.03563813801955864
- 0.0
- 0.0
effort:
- -0.619196891784668
- -40.942047119140625
- 3.000324249267578
- 22.375349044799805
- 0.41383713483810425
- 2.8227694034576416
- 0.1811605840921402
- 0.0
- 0.0
---
header:
  stamp:
    sec: 1756276484
    nanosec: 303273883
  frame_id: ''
name:
- fr3_joint1
- fr3_joint2
- fr3_joint3
- fr3_joint4
- fr3_joint5
- fr3_joint6
- fr3_joint7
- fr3_finger_joint1
- fr3_finger_joint2
position:
- 0.005988119319971771
- 0.3409994933365967
- 0.26290644793467455
- -1.254820899201436
- -0.13270492615135615
- 2.477660304468568
- 0.27440683033818053
- 0.0
- 0.0
velocity:
- -0.16279347765275745
- -0.04507421444673529
- 0.1384176420934666
- -0.010850309340974805
- -0.09229321750778471
- 0.07290404773682481
- 0.03700601224379209
- 0.0
- 0.0
effort:
- -1.004023551940918
- -41.017425537109375
- 2.845600128173828
- 22.426923751831055
- 0.43947190046310425
- 2.8099520206451416
- 0.1811605840921402
- 0.0
- 0.0
---
header:
  stamp:
    sec: 1756276484
    nanosec: 336598136
  frame_id: ''
name:
- fr3_joint1
- fr3_joint2
- fr3_joint3
- fr3_joint4
- fr3_joint5
- fr3_joint6
- fr3_joint7
- fr3_finger_joint1
- fr3_finger_joint2
position:
- 0.0004320256850377243
- 0.33955847865331384
- 0.26783655995988503
- -1.255198981417017
- -0.13582715327768835
- 2.4803177257938267
- 0.2759400162848635
- 0.0
- 0.0
velocity:
- -0.15956227981152737
- -0.04350120394670995
- 0.1387159087505731
- -0.01096531657499652
- -0.09225433264073829
- 0.0831105160854337
- 0.04830746424414101
- 0.0
- 0.0
effort:
- -0.900874137878418
- -41.219757080078125
- 3.075702667236328
- 22.557844161987305
- 0.42665451765060425
- 2.8163607120513916
- 0.1939779669046402
- 0.0
- 0.0
---
header:
  stamp:
    sec: 1756276484
    nanosec: 369981658
  frame_id: ''
name:
- fr3_joint1
- fr3_joint2
- fr3_joint3
- fr3_joint4
- fr3_joint5
- fr3_joint6
- fr3_joint7
- fr3_finger_joint1
- fr3_finger_joint2
position:
- -0.004785881074324839
- 0.33809581597964045
- 0.2725382191796836
- -1.2555358931603082
- -0.1389802088716268
- 2.4829814605608123
- 0.277625164033689
- 0.0
- 0.0
velocity:
- -0.15964966810365833
- -0.04605694159955716
- 0.138604510955369
- -0.008509596615037996
- -0.09224782101326649
- 0.07960484650822151
- 0.05262969152370206
- 0.0
- 0.0
effort:
- -0.595393180847168
- -40.965850830078125
- 3.309772491455078
- 22.482465744018555
- 0.44679611921310425
- 2.8026278018951416
- 0.1811605840921402
- 0.0
- 0.0
---
header:
  stamp:
    sec: 1756276484
    nanosec: 403364746
  frame_id: ''
name:
- fr3_joint1
- fr3_joint2
- fr3_joint3
- fr3_joint4
- fr3_joint5
- fr3_joint6
- fr3_joint7
- fr3_finger_joint1
- fr3_finger_joint2
position:
- -0.010094660909432679
- 0.3365551499210033
- 0.27719091095547677
- -1.2559066509249903
- -0.14204822422383984
- 2.4854806645432066
- 0.2794705958033381
- 0.0
- 0.0
velocity:
- -0.15737054343845938
- -0.04956362967736729
- 0.14123387279362423
- -0.012948794226936388
- -0.09815542164183408
- 0.07310332807087262
- 0.051484999010001475
- 0.0
- 0.0
effort:
- -1.257929801940918
- -41.247528076171875
- 3.024127960205078
- 22.688764572143555
- 0.47243088483810425
- 2.8365023136138916
- 0.1601034551858902
- 0.0
- 0.0
---
header:
  stamp:
    sec: 1756276484
    nanosec: 437273258
  frame_id: ''
name:
- fr3_joint1
- fr3_joint2
- fr3_joint3
- fr3_joint4
- fr3_joint5
- fr3_joint6
- fr3_joint7
- fr3_finger_joint1
- fr3_finger_joint2
position:
- -0.015262144978344324
- 0.3347080625663893
- 0.28197923020177307
- -1.256337782800852
- -0.14519067582952022
- 2.4877888267552852
- 0.2812976700628812
- 0.0
- 0.0
velocity:
- -0.14820549872800262
- -0.055729542707898885
- 0.13665525494185915
- -0.013470062638887049
- -0.09645647967268012
- 0.06774211771262752
- 0.05634757866301534
- 0.0
- 0.0
effort:
- -0.670771598815918
- -41.374481201171875
- 3.361347198486328
- 22.664960861206055
- 0.44679611921310425
- 2.8227694034576416
- 0.1536947637796402
- 0.0
- 0.0
---
header:
  stamp:
    sec: 1756276484
    nanosec: 469984682
  frame_id: ''
name:
- fr3_joint1
- fr3_joint2
- fr3_joint3
- fr3_joint4
- fr3_joint5
- fr3_joint6
- fr3_joint7
- fr3_finger_joint1
- fr3_finger_joint2
position:
- -0.020515332775278942
- 0.3327731117879495
- 0.28670268079533534
- -1.2566648210027758
- -0.14831117679777522
- 2.489974668366391
- 0.2832445013523247
- 0.0
- 0.0
velocity:
- -0.16799464210044154
- -0.0583875705402864
- 0.14041065746506295
- -0.007101856212429685
- -0.0961064723338046
- 0.06781813279222158
- 0.059628551975274065
- 0.0
- 0.0
effort:
- -0.773921012878418
- -40.787322998046875
- 3.309772491455078
- 22.426923751831055
- 0.44679611921310425
- 2.8227694034576416
- 0.1262289434671402
- 0.0
- 0.0
---
header:
  stamp:
    sec: 1756276484
    nanosec: 503311161
  frame_id: ''
name:
- fr3_joint1
- fr3_joint2
- fr3_joint3
- fr3_joint4
- fr3_joint5
- fr3_joint6
- fr3_joint7
- fr3_finger_joint1
- fr3_finger_joint2
position:
- -0.02588404114974944
- 0.3309217130746759
- 0.29141651044639705
- -1.2568943192976243
- -0.15152893460033706
- 2.492233271286644
- 0.2853245076154679
- 0.0
- 0.0
velocity:
- -0.15963217932515392
- -0.05789436924812286
- 0.14675934918658554
- -0.007686658405193786
- -0.1005300703501634
- 0.0718017652679481
- 0.06337877272175856
- 0.0
- 0.0
effort:
- -0.825495719909668
- -40.331085205078125
- 3.361347198486328
- 22.272199630737305
- 0.49257248640060425
- 2.7696688175201416
- 0.1198202520608902
- 0.0
- 0.0
---
header:
  stamp:
    sec: 1756276484
    nanosec: 536638000
  frame_id: ''
name:
- fr3_joint1
- fr3_joint2
- fr3_joint3
- fr3_joint4
- fr3_joint5
- fr3_joint6
- fr3_joint7
- fr3_finger_joint1
- fr3_finger_joint2
position:
- -0.03102481428052366
- 0.3290723984565447
- 0.29622489494154003
- -1.2570575295367157
- -0.1547275097903308
- 2.494703141586152
- 0.2870027368367401
- 0.0
- 0.0
velocity:
- -0.15583383633235495
- -0.052482192142182256
- 0.14967458185916954
- -0.0050150535651060195
- -0.0948007054533704
- 0.07426048828073178
- 0.04596175937201646
- 0.0
- 0.0
effort:
- -0.670771598815918
- -40.025604248046875
- 3.516071319580078
- 22.141279220581055
- 0.49257248640060425
- 2.7559359073638916
- 0.1674276739358902
- 0.0
- 0.0
---
header:
  stamp:
    sec: 1756276484
    nanosec: 569994172
  frame_id: ''
name:
- fr3_joint1
- fr3_joint2
- fr3_joint3
- fr3_joint4
- fr3_joint5
- fr3_joint6
- fr3_joint7
- fr3_finger_joint1
- fr3_finger_joint2
position:
- -0.03642338522121265
- 0.32737405615651916
- 0.3012004993083988
- -1.2573344125636707
- -0.1578898148233482
- 2.4971147262554965
- 0.28852621113330673
- 0.0
- 0.0
velocity:
- -0.15585065662258007
- -0.050510477956360045
- 0.14942958734748163
- -0.009700668026275654
- -0.09715035161002121
- 0.07605504325278103
- 0.038522146764694266
- 0.0
- 0.0
effort:
- -1.004023551940918
- -40.025604248046875
- 3.103473663330078
- 22.272199630737305
- 0.49898117780685425
- 2.7431185245513916
- 0.255318284034729
- 0.0
- 0.0
---
header:
  stamp:
    sec: 1756276484
    nanosec: 603439441
  frame_id: ''
name:
- fr3_joint1
- fr3_joint2
- fr3_joint3
- fr3_joint4
- fr3_joint5
- fr3_joint6
- fr3_joint7
- fr3_finger_joint1
- fr3_finger_joint2
position:
- -0.04133535591267318
- 0.3257685915774643
- 0.30586531164357605
- -1.257653701779245
- -0.1609172221260912
- 2.4996001059330357
- 0.28972624008666525
- 0.0
- 0.0
velocity:
- -0.14411359508296454
- -0.05020783434691817
- 0.1411315719469023
- -0.010859327518120732
- -0.0941184348911795
- 0.07630081722240353
- 0.03645564601051737
- 0.0
- 0.0
effort:
- -0.797724723815918
- -39.950225830078125
- 3.103473663330078
- 22.216657638549805
- 0.45320481061935425
- 2.7760775089263916
- 0.1674276739358902
- 0.0
- 0.0
---
header:
  stamp:
    sec: 1756276484
    nanosec: 636639358
  frame_id: ''
name:
- fr3_joint1
- fr3_joint2
- fr3_joint3
- fr3_joint4
- fr3_joint5
- fr3_joint6
- fr3_joint7
- fr3_finger_joint1
- fr3_finger_joint2
position:
- -0.04645778829952712
- 0.32411002138153505
- 0.3106409861765906
- -1.2580121743601516
- -0.16396174853120987
- 2.502382271401012
- 0.29094164473847844
- 0.0
- 0.0
velocity:
- -0.16638081722363302
- -0.0489745924704625
- 0.151297726518163
- -0.011885850715203337
- -0.09091901111957335
- 0.07558835786436244
- 0.03400600121033888
- 0.0
- 0.0
effort:
- -0.928645133972168
- -40.053375244140625
- 3.178852081298828
- 22.141279220581055
- 0.46602219343185425
- 2.7165682315826416
- 0.1601034551858902
- 0.0
- 0.0
---
header:
  stamp:
    sec: 1756276484
    nanosec: 670682772
  frame_id: ''
name:
- fr3_joint1
- fr3_joint2
- fr3_joint3
- fr3_joint4
- fr3_joint5
- fr3_joint6
- fr3_joint7
- fr3_finger_joint1
- fr3_finger_joint2
position:
- -0.05190126693014095
- 0.32244374489476846
- 0.3154476558250458
- -1.2584383334540026
- -0.16699849379337192
- 2.504765949752199
- 0.29211766597529826
- 0.0
- 0.0
velocity:
- -0.1589627074555078
- -0.05212049976310057
- 0.13755338059971264
- -0.013279264942714506
- -0.08816494618717573
- 0.07132686065882707
- 0.0299509364469476
- 0.0
- 0.0
effort:
- -0.900874137878418
- -40.025604248046875
- 3.282001495361328
- 22.323774337768555
- 0.47883957624435425
- 2.7696688175201416
- 0.255318284034729
- 0.0
- 0.0
---
header:
  stamp:
    sec: 1756276484
    nanosec: 703336077
  frame_id: ''
name:
- fr3_joint1
- fr3_joint2
- fr3_joint3
- fr3_joint4
- fr3_joint5
- fr3_joint6
- fr3_joint7
- fr3_finger_joint1
- fr3_finger_joint2
position:
- -0.05686828170785802
- 0.3207347254928853
- 0.32007209739295817
- -1.2588962151573018
- -0.16987277491443492
- 2.5069421976314517
- 0.2932833901959554
- 0.0
- 0.0
velocity:
- -0.14920861890661632
- -0.05181753299321814
- 0.13910396716318119
- -0.011992091077637728
- -0.08783687740015494
- 0.06597384010034567
- 0.03917269015902724
- 0.0
- 0.0
effort:
- -0.849299430847168
- -39.747894287109375
- 3.464496612548828
- 22.351545333862305
- 0.48524826765060425
- 2.7696688175201416
- 0.2415853887796402
- 0.0
- 0.0
---
header:
  stamp:
    sec: 1756276484
    nanosec: 737476624
  frame_id: ''
name:
- fr3_joint1
- fr3_joint2
- fr3_joint3
- fr3_joint4
- fr3_joint5
- fr3_joint6
- fr3_joint7
- fr3_finger_joint1
- fr3_finger_joint2
position:
- -0.06240336018134281
- 0.31906045683544393
- 0.3251451796575125
- -1.2592612128142016
- -0.17299594386910597
- 2.5092331605808114
- 0.29463550639958874
- 0.0
- 0.0
velocity:
- -0.16236423443915704
- -0.04750439040995969
- 0.1495875397237556
- -0.01053266531677235
- -0.09454226404060584
- 0.06899976495378576
- 0.03558306617106238
- 0.0
- 0.0
effort:
- -1.206355094909668
- -39.517791748046875
- 3.127277374267578
- 22.272199630737305
- 0.49257248640060425
- 2.7632601261138916
- 0.2150350958108902
- 0.0
- 0.0
---
header:
  stamp:
    sec: 1756276484
    nanosec: 770008965
  frame_id: ''
name:
- fr3_joint1
- fr3_joint2
- fr3_joint3
- fr3_joint4
- fr3_joint5
- fr3_joint6
- fr3_joint7
- fr3_finger_joint1
- fr3_finger_joint2
position:
- -0.06755786770885026
- 0.3175158248786917
- 0.3298123930427452
- -1.2595275009809856
- -0.1760560889418502
- 2.5114794132857208
- 0.2960222167590146
- 0.0
- 0.0
velocity:
- -0.1469065107959915
- -0.045461209961560736
- 0.13143245827628489
- -0.0069429397015116304
- -0.09500781439410474
- 0.06761213305408216
- 0.04598891823843606
- 0.0
- 0.0
effort:
- -0.722346305847168
- -39.466217041015625
- 3.464496612548828
- 22.113508224487305
- 0.45961350202560425
- 2.7559359073638916
- 0.1674276739358902
- 0.0
- 0.0
---
header:
  stamp:
    sec: 1756276484
    nanosec: 803270821
  frame_id: ''
name:
- fr3_joint1
- fr3_joint2
- fr3_joint3
- fr3_joint4
- fr3_joint5
- fr3_joint6
- fr3_joint7
- fr3_finger_joint1
- fr3_finger_joint2
position:
- -0.07253710291317982
- 0.316101666377078
- 0.3342794970278335
- -1.259777972459245
- -0.17896919193273667
- 2.513775082263868
- 0.29755954708955695
- 0.0
- 0.0
velocity:
- -0.16073143373034546
- -0.04281942130186901
- 0.14188460684074358
- -0.006293717497703686
- -0.08399425695897451
- 0.07320341155035257
- 0.048093177966567445
- 0.0
- 0.0
effort:
- -1.004023551940918
- -39.263885498046875
- 3.436725616455078
- 22.061933517456055
- 0.45320481061935425
- 2.7229769229888916
- 0.275459885597229
- 0.0
- 0.0
---
header:
  stamp:
    sec: 1756276484
    nanosec: 837296892
  frame_id: ''
name:
- fr3_joint1
- fr3_joint2
- fr3_joint3
- fr3_joint4
- fr3_joint5
- fr3_joint6
- fr3_joint7
- fr3_finger_joint1
- fr3_finger_joint2
position:
- -0.07823075875125692
- 0.31462600000554364
- 0.33926655660798466
- -1.2601609594856387
- -0.18201694049618652
- 2.5162233201156834
- 0.29934722464172037
- 0.0
- 0.0
velocity:
- -0.1645876663555126
- -0.04584136785956056
- 0.14157978329243137
- -0.011845059776448206
- -0.08961386906531953
- 0.07058138454301645
- 0.05420137558492847
- 0.0
- 0.0
effort:
- -0.773921012878418
- -39.363067626953125
- 3.619220733642578
- 22.165082931518555
- 0.47883957624435425
- 2.7495272159576416
- 0.1875692754983902
- 0.0
- 0.0
---
header:
  stamp:
    sec: 1756276484
    nanosec: 870275031
  frame_id: ''
name:
- fr3_joint1
- fr3_joint2
- fr3_joint3
- fr3_joint4
- fr3_joint5
- fr3_joint6
- fr3_joint7
- fr3_finger_joint1
- fr3_finger_joint2
position:
- -0.08337246453521903
- 0.31315719074597326
- 0.3438995626328495
- -1.2605831526344213
- -0.18515108781877165
- 2.5185829340638657
- 0.3013540660466734
- 0.0
- 0.0
velocity:
- -0.15292046854785826
- -0.04416862758862866
- 0.14111182586877175
- -0.013141394501823549
- -0.097650949378975
- 0.07283377482476591
- 0.060986918815385205
- 0.0
- 0.0
effort:
- -0.750117301940918
- -39.569366455078125
- 3.722370147705078
- 22.272199630737305
- 0.47883957624435425
- 2.7696688175201416
- 0.1811605840921402
- 0.0
- 0.0
---
header:
  stamp:
    sec: 1756276484
    nanosec: 903465580
  frame_id: ''
name:
- fr3_joint1
- fr3_joint2
- fr3_joint3
- fr3_joint4
- fr3_joint5
- fr3_joint6
- fr3_joint7
- fr3_finger_joint1
- fr3_finger_joint2
position:
- -0.08881595942388147
- 0.3116214814422712
- 0.34895965280341706
- -1.261104584010789
- -0.18847652644867885
- 2.5212814148643496
- 0.30326114120431674
- 0.0
- 0.0
velocity:
- -0.15834908238737413
- -0.043886583928227973
- 0.15391806783184195
- -0.016412445087679178
- -0.1002795504748875
- 0.08091311023539907
- 0.05649739245634495
- 0.0
- 0.0
effort:
- -0.900874137878418
- -39.339263916015625
- 3.516071319580078
- 22.323774337768555
- 0.5310246348381042
- 2.7367098331451416
- 0.1601034551858902
- 0.0
- 0.0
---
header:
  stamp:
    sec: 1756276484
    nanosec: 936649169
  frame_id: ''
name:
- fr3_joint1
- fr3_joint2
- fr3_joint3
- fr3_joint4
- fr3_joint5
- fr3_joint6
- fr3_joint7
- fr3_finger_joint1
- fr3_finger_joint2
position:
- -0.09391311480791979
- 0.3100398962075275
- 0.3536146743522546
- -1.2616220338537327
- -0.19163201529488086
- 2.523789073445454
- 0.30506665351927004
- 0.0
- 0.0
velocity:
- -0.14954265833448185
- -0.04843851374972202
- 0.13415411950704287
- -0.015694735413477396
- -0.09383343541646016
- 0.07469838554780019
- 0.049401321297490045
- 0.0
- 0.0
effort:
- -0.750117301940918
- -39.442413330078125
- 3.567646026611328
- 22.351545333862305
- 0.5182072520256042
- 2.7760775089263916
- 0.2351766973733902
- 0.0
- 0.0
---
header:
  stamp:
    sec: 1756276484
    nanosec: 969981229
  frame_id: ''
name:
- fr3_joint1
- fr3_joint2
- fr3_joint3
- fr3_joint4
- fr3_joint5
- fr3_joint6
- fr3_joint7
- fr3_finger_joint1
- fr3_finger_joint2
position:
- -0.0990937194464808
- 0.308323061889088
- 0.35820398658589686
- -1.262068284365373
- -0.19473518403391762
- 2.526135346171585
- 0.3066462232570523
- 0.0
- 0.0
velocity:
- -0.16203799956150403
- -0.05357121217845838
- 0.1428924700283836
- -0.014509887779616083
- -0.09628475950723515
- 0.07111483699036804
- 0.04275231844717532
- 0.0
- 0.0
effort:
- -1.107172966003418
- -39.414642333984375
- 3.385150909423828
- 22.351545333862305
- 0.49898117780685425
- 2.7495272159576416
- 0.2489096075296402
- 0.0
- 0.0
---
header:
  stamp:
    sec: 1756276485
    nanosec: 3318762
  frame_id: ''
name:
- fr3_joint1
- fr3_joint2
- fr3_joint3
- fr3_joint4
- fr3_joint5
- fr3_joint6
- fr3_joint7
- fr3_finger_joint1
- fr3_finger_joint2
position:
- -0.10436162122403515
- 0.30652795140012534
- 0.36289233745931987
- -1.262476824259386
- -0.19782868403609385
- 2.5283382821813047
- 0.30827904210152857
- 0.0
- 0.0
velocity:
- -0.16674212540793784
- -0.05607976436221925
- 0.14968289609634713
- -0.009962044050992509
- -0.089884064757628
- 0.06693612850002358
- 0.053756273350728564
- 0.0
- 0.0
effort:
- -0.619196891784668
- -39.085357666015625
- 3.670795440673828
- 22.296003341674805
- 0.49257248640060425
- 2.7431185245513916
- 0.1472860723733902
- 0.0
- 0.0
---
header:
  stamp:
    sec: 1756276485
    nanosec: 37335151
  frame_id: ''
name:
- fr3_joint1
- fr3_joint2
- fr3_joint3
- fr3_joint4
- fr3_joint5
- fr3_joint6
- fr3_joint7
- fr3_finger_joint1
- fr3_finger_joint2
position:
- -0.10959902710221976
- 0.30467152325688784
- 0.3676812703960487
- -1.2627690485078586
- -0.20085170674329003
- 2.530680456747677
- 0.3098398077243013
- 0.0
- 0.0
velocity:
- -0.14974190500580464
- -0.05312587341630478
- 0.1386101597581318
- -0.006828472760677865
- -0.08845717079910914
- 0.07324723412719497
- 0.04429631595114414
- 0.0
- 0.0
effort:
- -0.750117301940918
- -38.629119873046875
- 3.698566436767578
- 22.113508224487305
- 0.48524826765060425
- 2.7101595401763916
- 0.1335531622171402
- 0.0
- 0.0
---
header:
  stamp:
    sec: 1756276485
    nanosec: 70310911
  frame_id: ''
name:
- fr3_joint1
- fr3_joint2
- fr3_joint3
- fr3_joint4
- fr3_joint5
- fr3_joint6
- fr3_joint7
- fr3_finger_joint1
- fr3_finger_joint2
position:
- -0.11491762523582486
- 0.30293126341384624
- 0.3727270490946174
- -1.263029810790795
- -0.20370020307657047
- 2.5331626588366665
- 0.3112733745274805
- 0.0
- 0.0
velocity:
- -0.15592748422684255
- -0.05162522887846799
- 0.1509212829901766
- -0.007055063279816941
- -0.08826513931506641
- 0.07549255471962169
- 0.04695564419541598
- 0.0
- 0.0
effort:
- -1.285700798034668
- -38.371246337890625
- 3.258197784423828
- 21.931013107299805
- 0.43947190046310425
- 2.6634676456451416
- 0.1134115606546402
- 0.0
- 0.0
---
header:
  stamp:
    sec: 1756276485
    nanosec: 103328724
  frame_id: ''
name:
- fr3_joint1
- fr3_joint2
- fr3_joint3
- fr3_joint4
- fr3_joint5
- fr3_joint6
- fr3_joint7
- fr3_finger_joint1
- fr3_finger_joint2
position:
- -0.11988371720178052
- 0.3012971395832486
- 0.3774774448886153
- -1.2633178793339719
- -0.2067138089669601
- 2.5354420542092044
- 0.3126117245618319
- 0.0
- 0.0
velocity:
- -0.1504381993327087
- -0.04902898713415973
- 0.13768391149568723
- -0.00934157583740377
- -0.09192965587826858
- 0.06863669639588971
- 0.03879136745556466
- 0.0
- 0.0
effort:
- -0.722346305847168
- -38.347442626953125
- 3.619220733642578
- 21.931013107299805
- 0.45961350202560425
- 2.6762850284576416
- 0.1875692754983902
- 0.0
- 0.0
---
header:
  stamp:
    sec: 1756276485
    nanosec: 136618788
  frame_id: ''
name:
- fr3_joint1
- fr3_joint2
- fr3_joint3
- fr3_joint4
- fr3_joint5
- fr3_joint6
- fr3_joint7
- fr3_finger_joint1
- fr3_finger_joint2
position:
- -0.12516264151095494
- 0.2996738376155608
- 0.3821190007914868
- -1.2636187978926006
- -0.20983073420532117
- 2.5378866435998293
- 0.3140018462283086
- 0.0
- 0.0
velocity:
- -0.16347480717168245
- -0.04859214135028585
- 0.1392925661030845
- -0.008687957003927315
- -0.09161343924025955
- 0.07028857459232027
- 0.044320170011664654
- 0.0
- 0.0
effort:
- -1.004023551940918
- -38.347442626953125
- 3.619220733642578
- 21.982587814331055
- 0.49257248640060425
- 2.6634676456451416
- 0.1601034551858902
- 0.0
- 0.0
---
header:
  stamp:
    sec: 1756276485
    nanosec: 170009383
  frame_id: ''
name:
- fr3_joint1
- fr3_joint2
- fr3_joint3
- fr3_joint4
- fr3_joint5
- fr3_joint6
- fr3_joint7
- fr3_finger_joint1
- fr3_finger_joint2
position:
- -0.1306183608898284
- 0.2980844772419858
- 0.3869364166135725
- -1.2639868871128943
- -0.212895621882121
- 2.5403362130303524
- 0.31550626424131406
- 0.0
- 0.0
velocity:
- -0.16159679542731017
- -0.04799644467910229
- 0.14286281877681573
- -0.012223292322312935
- -0.08955941916958791
- 0.07877723188952715
- 0.04199813999258102
- 0.0
- 0.0
effort:
- -0.825495719909668
- -38.347442626953125
- 3.750141143798828
- 22.085737228393555
- 0.47883957624435425
- 2.6900179386138916
- 0.1674276739358902
- 0.0
- 0.0
---
header:
  stamp:
    sec: 1756276485
    nanosec: 203471816
  frame_id: ''
name:
- fr3_joint1
- fr3_joint2
- fr3_joint3
- fr3_joint4
- fr3_joint5
- fr3_joint6
- fr3_joint7
- fr3_finger_joint1
- fr3_finger_joint2
position:
- -0.1356200487470771
- 0.29649192145346986
- 0.39151040736452764
- -1.264336623561188
- -0.2159175501599851
- 2.5426849402791025
- 0.31700277541771943
- 0.0
- 0.0
velocity:
- -0.15452524417297134
- -0.05103913472505504
- 0.13937104533958022
- -0.014769339477734348
- -0.09328811021669883
- 0.07087698829672058
- 0.04919061426792303
- 0.0
- 0.0
effort:
- -0.670771598815918
- -38.347442626953125
- 3.956439971923828
- 22.141279220581055
- 0.47243088483810425
- 2.7028353214263916
- 0.1536947637796402
- 0.0
- 0.0
---
header:
  stamp:
    sec: 1756276485
    nanosec: 236627340
  frame_id: ''
name:
- fr3_joint1
- fr3_joint2
- fr3_joint3
- fr3_joint4
- fr3_joint5
- fr3_joint6
- fr3_joint7
- fr3_finger_joint1
- fr3_finger_joint2
position:
- -0.141083194827574
- 0.2947205476689679
- 0.3965122759572145
- -1.2648342436419686
- -0.21910077012271217
- 2.545057684888251
- 0.3187429716777767
- 0.0
- 0.0
velocity:
- -0.15701789657882692
- -0.053121072499015556
- 0.14980072482584392
- -0.017660485661335313
- -0.09445086022457302
- 0.06938519700867853
- 0.0512104310236887
- 0.0
- 0.0
effort:
- -1.055598258972168
- -38.244293212890625
- 3.567646026611328
- 22.272199630737305
- 0.48524826765060425
- 2.7101595401763916
- 0.1875692754983902
- 0.0
- 0.0
---
header:
  stamp:
    sec: 1756276485
    nanosec: 270348504
  frame_id: ''
name:
- fr3_joint1
- fr3_joint2
- fr3_joint3
- fr3_joint4
- fr3_joint5
- fr3_joint6
- fr3_joint7
- fr3_finger_joint1
- fr3_finger_joint2
position:
- -0.14614936959126765
- 0.29301318268423243
- 0.4013730874434715
- -1.2652137627677909
- -0.2221289105827396
- 2.5474124902170616
- 0.3205523555548468
- 0.0
- 0.0
velocity:
- -0.15145709737936022
- -0.048381298752770856
- 0.1461626826677104
- -0.009596122397057255
- -0.08570017908802506
- 0.070866996699894
- 0.058695711656122286
- 0.0
- 0.0
effort:
- -0.646967887878418
- -37.863433837890625
- 3.853290557861328
- 21.954816818237305
- 0.43306320905685425
- 2.6634676456451416
- 0.1472860723733902
- 0.0
- 0.0
---
header:
  stamp:
    sec: 1756276485
    nanosec: 303297248
  frame_id: ''
name:
- fr3_joint1
- fr3_joint2
- fr3_joint3
- fr3_joint4
- fr3_joint5
- fr3_joint6
- fr3_joint7
- fr3_finger_joint1
- fr3_finger_joint2
position:
- -0.1512438168499366
- 0.29148822455443857
- 0.40589992851793544
- -1.265443620046167
- -0.22512372360932556
- 2.549531724716491
- 0.3224900297595064
- 0.0
- 0.0
velocity:
- -0.16543295990662077
- -0.045922256626525784
- 0.1397848191506632
- -0.005989188806884117
- -0.09239107266619236
- 0.06357781098861828
- 0.05944089796670038
- 0.0
- 0.0
effort:
- -0.928645133972168
- -37.712677001953125
- 3.619220733642578
- 21.800092697143555
- 0.43947190046310425
- 2.6698763370513916
- 0.2415853887796402
- 0.0
- 0.0
---
header:
  stamp:
    sec: 1756276485
    nanosec: 337327884
  frame_id: ''
name:
- fr3_joint1
- fr3_joint2
- fr3_joint3
- fr3_joint4
- fr3_joint5
- fr3_joint6
- fr3_joint7
- fr3_finger_joint1
- fr3_finger_joint2
position:
- -0.15682437287515175
- 0.28994575378991205
- 0.41076882915035356
- -1.2658126715807654
- -0.228384036167768
- 2.5517136351744503
- 0.3246819749499553
- 0.0
- 0.0
velocity:
- -0.15957335084382404
- -0.044351856430068975
- 0.14020701281457285
- -0.01108514869515556
- -0.09753655470153641
- 0.06549569455798508
- 0.06547313277995716
- 0.0
- 0.0
effort:
- -0.928645133972168
- -37.557952880859375
- 3.670795440673828
- 21.800092697143555
- 0.47243088483810425
- 2.6561434268951416
- 0.1738363653421402
- 0.0
- 0.0
---
header:
  stamp:
    sec: 1756276485
    nanosec: 370235886
  frame_id: ''
name:
- fr3_joint1
- fr3_joint2
- fr3_joint3
- fr3_joint4
- fr3_joint5
- fr3_joint6
- fr3_joint7
- fr3_finger_joint1
- fr3_finger_joint2
position:
- -0.16190552201068037
- 0.28847063506015314
- 0.41549985685880336
- -1.2662175133266886
- -0.2315696319150135
- 2.554214958350237
- 0.32640042375657713
- 0.0
- 0.0
velocity:
- -0.15608596960501708
- -0.04276422009591882
- 0.14740418999607513
- -0.012425465476706171
- -0.09287965351668223
- 0.07691644808112678
- 0.04578371299750596
- 0.0
- 0.0
effort:
- -0.571589469909668
- -37.661102294921875
- 4.031818389892578
- 21.931013107299805
- 0.47243088483810425
- 2.6360018253326416
- 0.2013021856546402
- 0.0
- 0.0
---
header:
  stamp:
    sec: 1756276485
    nanosec: 403403998
  frame_id: ''
name:
- fr3_joint1
- fr3_joint2
- fr3_joint3
- fr3_joint4
- fr3_joint5
- fr3_joint6
- fr3_joint7
- fr3_finger_joint1
- fr3_finger_joint2
position:
- -0.16713759168347395
- 0.2870278995014723
- 0.4202903781415317
- -1.266692813817739
- -0.2345696774612541
- 2.5565986330176265
- 0.3279344713357699
- 0.0
- 0.0
velocity:
- -0.1588787505916002
- -0.04521781740702136
- 0.14764785729744848
- -0.017140091446021594
- -0.0948213511932547
- 0.07359658348489061
- 0.04504346947448442
- 0.0
- 0.0
effort:
- -1.206355094909668
- -37.637298583984375
- 3.567646026611328
- 22.113508224487305
- 0.47243088483810425
- 2.6826937198638916
- 0.1674276739358902
- 0.0
- 0.0
---
header:
  stamp:
    sec: 1756276485
    nanosec: 436758126
  frame_id: ''
name:
- fr3_joint1
- fr3_joint2
- fr3_joint3
- fr3_joint4
- fr3_joint5
- fr3_joint6
- fr3_joint7
- fr3_finger_joint1
- fr3_finger_joint2
position:
- -0.1722851622865631
- 0.2854862068520456
- 0.4252095553577632
- -1.2672060353647618
- -0.2377277925485044
- 2.5591897249379576
- 0.3292622885534272
- 0.0
- 0.0
velocity:
- -0.14443760290214383
- -0.045927239740671845
- 0.13268471079635513
- -0.012740863021876568
- -0.08957152563094892
- 0.08096534671976394
- 0.04247541794423866
- 0.0
- 0.0
effort:
- -0.928645133972168
- -37.407196044921875
- 3.670795440673828
- 21.931013107299805
- 0.46602219343185425
- 2.6497347354888916
- 0.1472860723733902
- 0.0
- 0.0
---
header:
  stamp:
    sec: 1756276485
    nanosec: 470329234
  frame_id: ''
name:
- fr3_joint1
- fr3_joint2
- fr3_joint3
- fr3_joint4
- fr3_joint5
- fr3_joint6
- fr3_joint7
- fr3_finger_joint1
- fr3_finger_joint2
position:
- -0.17750167848264406
- 0.28396108254260605
- 0.42987230101575596
- -1.267654040541726
- -0.24074160071502543
- 2.561863243750363
- 0.33055743551782596
- 0.0
- 0.0
velocity:
- -0.1697216555999819
- -0.04706904348494429
- 0.13825098309084835
- -0.012234804114760868
- -0.08627637365247494
- 0.07863854385873559
- 0.04175979665457259
- 0.0
- 0.0
effort:
- -0.750117301940918
- -37.684906005859375
- 3.904865264892578
- 22.010358810424805
- 0.42024582624435425
- 2.6634676456451416
- 0.2150350958108902
- 0.0
- 0.0
---
header:
  stamp:
    sec: 1756276485
    nanosec: 503439823
  frame_id: ''
name:
- fr3_joint1
- fr3_joint2
- fr3_joint3
- fr3_joint4
- fr3_joint5
- fr3_joint6
- fr3_joint7
- fr3_finger_joint1
- fr3_finger_joint2
position:
- -0.1829578532725373
- 0.2823083459196762
- 0.4344030792060313
- -1.2681166472269307
- -0.2437089492487998
- 2.5642502762767765
- 0.33191646756321075
- 0.0
- 0.0
velocity:
- -0.16341212139078887
- -0.054942735138090594
- 0.13494875685536442
- -0.012249624430854911
- -0.09322829911880168
- 0.07049536549554043
- 0.042915192709862375
- 0.0
- 0.0
effort:
- -0.698542594909668
- -37.684906005859375
- 4.059589385986328
- 22.061933517456055
- 0.47883957624435425
- 2.6762850284576416
- 0.1536947637796402
- 0.0
- 0.0
---
header:
  stamp:
    sec: 1756276485
    nanosec: 536622615
  frame_id: ''
name:
- fr3_joint1
- fr3_joint2
- fr3_joint3
- fr3_joint4
- fr3_joint5
- fr3_joint6
- fr3_joint7
- fr3_finger_joint1
- fr3_finger_joint2
position:
- -0.18818670798795506
- 0.28047581349713924
- 0.43907443783684447
- -1.2684377432177676
- -0.2468085739728566
- 2.56660761387284
- 0.33335279412830215
- 0.0
- 0.0
velocity:
- -0.1541769945997376
- -0.054343204978624646
- 0.1412265318953701
- -0.006105795011053379
- -0.08774940829999978
- 0.07007632746502476
- 0.042468623648337464
- 0.0
- 0.0
effort:
- -0.646967887878418
- -37.331817626953125
- 4.162738800048828
- 21.931013107299805
- 0.47883957624435425
- 2.6497347354888916
- 0.2150350958108902
- 0.0
- 0.0
---
header:
  stamp:
    sec: 1756276485
    nanosec: 570002217
  frame_id: ''
name:
- fr3_joint1
- fr3_joint2
- fr3_joint3
- fr3_joint4
- fr3_joint5
- fr3_joint6
- fr3_joint7
- fr3_finger_joint1
- fr3_finger_joint2
position:
- -0.1936185281589048
- 0.2786602980057503
- 0.4440837042678129
- -1.2687053228504037
- -0.24978410863487385
- 2.5688653594425386
- 0.3347398563856802
- 0.0
- 0.0
velocity:
- -0.15828510732187884
- -0.05495292591688406
- 0.14781231713467782
- -0.007042056761387384
- -0.08748910895890154
- 0.06603826937671192
- 0.04166216989617873
- 0.0
- 0.0
effort:
- -0.900874137878418
- -36.820037841796875
- 3.825519561767578
- 21.879438400268555
- 0.45320481061935425
- 2.6433260440826416
- 0.1939779669046402
- 0.0
- 0.0
---
header:
  stamp:
    sec: 1756276485
    nanosec: 603311511
  frame_id: ''
name:
- fr3_joint1
- fr3_joint2
- fr3_joint3
- fr3_joint4
- fr3_joint5
- fr3_joint6
- fr3_joint7
- fr3_finger_joint1
- fr3_finger_joint2
position:
- -0.19854281508796207
- 0.27691973017409355
- 0.44878660816031507
- -1.2689171323965884
- -0.25275236775031285
- 2.5711914350952387
- 0.3361274157031105
- 0.0
- 0.0
velocity:
- -0.14668266343296754
- -0.05249719704040615
- 0.14392378579652734
- -0.004664865528427757
- -0.09152118721702746
- 0.07192822047702227
- 0.046062242329594175
- 0.0
- 0.0
effort:
- -0.797724723815918
- -36.542327880859375
- 3.825519561767578
- 21.692975997924805
- 0.45961350202560425
- 2.5966341495513916
- 0.2278524786233902
- 0.0
- 0.0
---
header:
  stamp:
    sec: 1756276485
    nanosec: 636717714
  frame_id: ''
name:
- fr3_joint1
- fr3_joint2
- fr3_joint3
- fr3_joint4
- fr3_joint5
- fr3_joint6
- fr3_joint7
- fr3_finger_joint1
- fr3_finger_joint2
position:
- -0.20375813152368857
- 0.2751894321943445
- 0.45364544617764135
- -1.2691373456972745
- -0.25591675977270145
- 2.5736374492468532
- 0.3377736249510263
- 0.0
- 0.0
velocity:
- -0.16893109338241027
- -0.049206822481018916
- 0.15017227808610173
- -0.00928145948592603
- -0.0913730254552958
- 0.07030172544732706
- 0.052741114865211054
- 0.0
- 0.0
effort:
- -0.750117301940918
- -36.593902587890625
- 3.956439971923828
- 21.720746994018555
- 0.44679611921310425
- 2.5902254581451416
- 0.1875692754983902
- 0.0
- 0.0
---
header:
  stamp:
    sec: 1756276485
    nanosec: 670366048
  frame_id: ''
name:
- fr3_joint1
- fr3_joint2
- fr3_joint3
- fr3_joint4
- fr3_joint5
- fr3_joint6
- fr3_joint7
- fr3_finger_joint1
- fr3_finger_joint2
position:
- -0.20927845416645457
- 0.2735406787631433
- 0.45844281139596427
- -1.2694867838868278
- -0.25879749484330017
- 2.5760238518350262
- 0.33941312695231196
- 0.0
- 0.0
velocity:
- -0.162598092285705
- -0.04981172629478034
- 0.14078939649434472
- -0.01365630802034595
- -0.08616759142581203
- 0.0756757375366454
- 0.04967330148872784
- 0.0
- 0.0
effort:
- -0.698542594909668
- -36.669281005859375
- 3.928668975830078
- 21.800092697143555
- 0.41383713483810425
- 2.6094515323638916
- 0.2013021856546402
- 0.0
- 0.0
---
header:
  stamp:
    sec: 1756276485
    nanosec: 703310745
  frame_id: ''
name:
- fr3_joint1
- fr3_joint2
- fr3_joint3
- fr3_joint4
- fr3_joint5
- fr3_joint6
- fr3_joint7
- fr3_finger_joint1
- fr3_finger_joint2
position:
- -0.21430388775093764
- 0.2719190666136294
- 0.462994447596176
- -1.2698804294400603
- -0.2616633378297773
- 2.578499607543287
- 0.3412681120636508
- 0.0
- 0.0
velocity:
- -0.1518782924772532
- -0.05006418674948219
- 0.13971491893761145
- -0.01480622047096881
- -0.09022186384803155
- 0.080249989084124
- 0.06088718284762042
- 0.0
- 0.0
effort:
- -0.698542594909668
- -36.387603759765625
- 4.008014678955078
- 21.772321701049805
- 0.40010422468185425
- 2.6360018253326416
- 0.1536947637796402
- 0.0
- 0.0
---
header:
  stamp:
    sec: 1756276485
    nanosec: 737383216
  frame_id: ''
name:
- fr3_joint1
- fr3_joint2
- fr3_joint3
- fr3_joint4
- fr3_joint5
- fr3_joint6
- fr3_joint7
- fr3_finger_joint1
- fr3_finger_joint2
position:
- -0.21971350141639134
- 0.2701900046750527
- 0.4680556689872448
- -1.270375030955875
- -0.26500680335637894
- 2.581197278392416
- 0.34326202190046545
- 0.0
- 0.0
velocity:
- -0.1618904522334115
- -0.05050441071048678
- 0.1592462856795088
- -0.014518203847384788
- -0.09711578484213117
- 0.06972233258650724
- 0.062494863119314806
- 0.0
- 0.0
effort:
- -1.027827262878418
- -36.439178466796875
- 3.722370147705078
- 21.879438400268555
- 0.42024582624435425
- 2.6295931339263916
- 0.1738363653421402
- 0.0
- 0.0
---
header:
  stamp:
    sec: 1756276485
    nanosec: 770007872
  frame_id: ''
name:
- fr3_joint1
- fr3_joint2
- fr3_joint3
- fr3_joint4
- fr3_joint5
- fr3_joint6
- fr3_joint7
- fr3_finger_joint1
- fr3_finger_joint2
position:
- -0.22478401258300798
- 0.2684293503058685
- 0.4728033490794704
- -1.2709111616116844
- -0.26818942153730374
- 2.5835218803618862
- 0.3450792726253065
- 0.0
- 0.0
velocity:
- -0.1491332051266371
- -0.05315526811727605
- 0.13551972499230175
- -0.015058512170226631
- -0.09477058654107956
- 0.06736248236288336
- 0.04759285616731847
- 0.0
- 0.0
effort:
- -0.773921012878418
- -36.161468505859375
- 3.904865264892578
- 21.692975997924805
- 0.42665451765060425
- 2.6030428409576416
- 0.2150350958108902
- 0.0
- 0.0
---
header:
  stamp:
    sec: 1756276485
    nanosec: 803440397
  frame_id: ''
name:
- fr3_joint1
- fr3_joint2
- fr3_joint3
- fr3_joint4
- fr3_joint5
- fr3_joint6
- fr3_joint7
- fr3_finger_joint1
- fr3_finger_joint2
position:
- -0.23000049841336329
- 0.2667323364397998
- 0.47759193961422536
- -1.2712935683884659
- -0.27131847920976115
- 2.5858636175025786
- 0.34668201963899375
- 0.0
- 0.0
velocity:
- -0.16402865739653388
- -0.04858767318098136
- 0.14044032748581345
- -0.009895519830703779
- -0.09039473691795198
- 0.06985096741446169
- 0.050288505056231704
- 0.0
- 0.0
effort:
- -1.055598258972168
- -35.804412841796875
- 3.750141143798828
- 21.641401290893555
- 0.45320481061935425
- 2.5764925479888916
- 0.1335531622171402
- 0.0
- 0.0
---
header:
  stamp:
    sec: 1756276485
    nanosec: 837354811
  frame_id: ''
name:
- fr3_joint1
- fr3_joint2
- fr3_joint3
- fr3_joint4
- fr3_joint5
- fr3_joint6
- fr3_joint7
- fr3_finger_joint1
- fr3_finger_joint2
position:
- -0.23544909666525715
- 0.265227553815162
- 0.48236484093106563
- -1.2716263864849358
- -0.27445474528156794
- 2.588082264359322
- 0.348094323767539
- 0.0
- 0.0
velocity:
- -0.16606438438532126
- -0.047225380283149834
- 0.1424388025304632
- -0.010752087062139684
- -0.09647068167325708
- 0.06698877769171936
- 0.03887272928589139
- 0.0
- 0.0
effort:
- -0.670771598815918
- -35.701263427734375
- 4.031818389892578
- 21.669172286987305
- 0.45961350202560425
- 2.5435335636138916
- 0.1335531622171402
- 0.0
- 0.0
---
header:
  stamp:
    sec: 1756276485
    nanosec: 870307591
  frame_id: ''
name:
- fr3_joint1
- fr3_joint2
- fr3_joint3
- fr3_joint4
- fr3_joint5
- fr3_joint6
- fr3_joint7
- fr3_finger_joint1
- fr3_finger_joint2
position:
- -0.24062748299088624
- 0.2637775551168944
- 0.4868803844231971
- -1.271907833943647
- -0.2774644923545924
- 2.5902674437667033
- 0.349316837992161
- 0.0
- 0.0
velocity:
- -0.15385617774445642
- -0.04280092675833762
- 0.13397969348733496
- -0.007496662714111494
- -0.08711535174220736
- 0.06634956974712242
- 0.03454406784168178
- 0.0
- 0.0
effort:
- -0.670771598815918
- -35.701263427734375
- 4.242084503173828
- 21.538251876831055
- 0.45320481061935425
- 2.5563509464263916
- 0.2013021856546402
- 0.0
- 0.0
---
header:
  stamp:
    sec: 1756276485
    nanosec: 903335078
  frame_id: ''
name:
- fr3_joint1
- fr3_joint2
- fr3_joint3
- fr3_joint4
- fr3_joint5
- fr3_joint6
- fr3_joint7
- fr3_finger_joint1
- fr3_finger_joint2
position:
- -0.24581619898669374
- 0.2623743515081834
- 0.4916508931252755
- -1.2723403137498517
- -0.28040332376990823
- 2.592579513628799
- 0.35052017951488634
- 0.0
- 0.0
velocity:
- -0.15499860259922243
- -0.04345489495597876
- 0.14804700729280265
- -0.016037725719811116
- -0.08680913341718388
- 0.070854099247086
- 0.03979172766151956
- 0.0
- 0.0
effort:
- -1.055598258972168
- -35.729034423828125
- 3.928668975830078
- 21.720746994018555
- 0.47883957624435425
- 2.5829012393951416
- 0.1601034551858902
- 0.0
- 0.0
---
header:
  stamp:
    sec: 1756276485
    nanosec: 937316001
  frame_id: ''
name:
- fr3_joint1
- fr3_joint2
- fr3_joint3
- fr3_joint4
- fr3_joint5
- fr3_joint6
- fr3_joint7
- fr3_finger_joint1
- fr3_finger_joint2
position:
- -0.2510208213083502
- 0.2608902097010581
- 0.4966247462714885
- -1.272822692787675
- -0.28344336435612083
- 2.5949327504930766
- 0.35174303698883935
- 0.0
- 0.0
velocity:
- -0.14887556545129788
- -0.045170972443207565
- 0.13917288149357554
- -0.013461918485361313
- -0.09077234365996842
- 0.06921753704155173
- 0.0360967830171075
- 0.0
- 0.0
effort:
- -0.773921012878418
- -35.653656005859375
- 4.008014678955078
- 21.823896408081055
- 0.45320481061935425
- 2.5764925479888916
- 0.2489096075296402
- 0.0
- 0.0
---
header:
  stamp:
    sec: 1756276485
    nanosec: 970012526
  frame_id: ''
name:
- fr3_joint1
- fr3_joint2
- fr3_joint3
- fr3_joint4
- fr3_joint5
- fr3_joint6
- fr3_joint7
- fr3_finger_joint1
