header:
  stamp:
    sec: 1756277566
    nanosec: 942042298
  frame_id: ''
name:
- fr3_joint1
- fr3_joint2
- fr3_joint3
- fr3_joint4
- fr3_joint5
- fr3_joint6
- fr3_joint7
- fr3_finger_joint1
- fr3_finger_joint2
position:
- -0.25845936309685613
- 0.058419898287210704
- 0.5589032125732267
- -1.6587043828772892
- -0.37641221895332655
- 2.2020458961717697
- 0.8715596990728576
- 0.0
- 0.0
velocity:
- -0.026930116600725886
- 0.07017691500007038
- 0.1609376774819841
- 0.06635130508824838
- 0.06160572709992094
- -0.046720292323602294
- 0.11424265464738366
- 0.0
- 0.0
effort:
- -0.36529064178466797
- -27.512788772583008
- 1.6276435852050781
- 23.740095138549805
- 1.4419742822647095
- 2.4702913761138916
- 0.2351766973733902
- 0.0
- 0.0
---
header:
  stamp:
    sec: 1756277566
    nanosec: 975702299
  frame_id: ''
name:
- fr3_joint1
- fr3_joint2
- fr3_joint3
- fr3_joint4
- fr3_joint5
- fr3_joint6
- fr3_joint7
- fr3_finger_joint1
- fr3_finger_joint2
position:
- -0.2591509449542076
- 0.060885936640442936
- 0.5640820121287775
- -1.656306524212858
- -0.37419612755399023
- 2.200561781103393
- 0.8753232033066676
- 0.0
- 0.0
velocity:
- -0.017198070624167654
- 0.07633307502682159
- 0.1552390976738829
- 0.07515092251334528
- 0.06727879088741709
- -0.04406380053934574
- 0.10376787433459918
- 0.0
- 0.0
effort:
- -0.722346305847168
- -27.639741897583008
- 1.2904243469238281
- 23.791669845581055
- 1.4419742822647095
- 2.4565584659576416
- 0.2214437872171402
- 0.0
- 0.0
---
header:
  stamp:
    sec: 1756277567
    nanosec: 8858948
  frame_id: ''
name:
- fr3_joint1
- fr3_joint2
- fr3_joint3
- fr3_joint4
- fr3_joint5
- fr3_joint6
- fr3_joint7
- fr3_finger_joint1
- fr3_finger_joint2
position:
- -0.2596304751421503
- 0.06337499415108132
- 0.5692902116988076
- -1.6538190104552617
- -0.3719320669862846
- 2.199249982749364
- 0.8784135648855763
- 0.0
- 0.0
velocity:
- -0.007539565679627696
- 0.07303992544985652
- 0.15191069028471751
- 0.07199172783127844
- 0.06811587387717284
- -0.040233823450595195
- 0.08145195824231409
- 0.0
- 0.0
effort:
- -0.952448844909668
- -27.639741897583008
- 1.2150459289550781
- 23.632978439331055
- 1.4218326807022095
- 2.4235994815826416
- 0.275459885597229
- 0.0
- 0.0
---
header:
  stamp:
    sec: 1756277567
    nanosec: 42007633
  frame_id: ''
name:
- fr3_joint1
- fr3_joint2
- fr3_joint3
- fr3_joint4
- fr3_joint5
- fr3_joint6
- fr3_joint7
- fr3_finger_joint1
- fr3_finger_joint2
position:
- -0.26014887138092124
- 0.0657378555454554
- 0.5745109430656706
- -1.6514333811903954
- -0.36963866218645414
- 2.197937112189658
- 0.881052365620401
- 0.0
- 0.0
velocity:
- -0.015064772746778353
- 0.07411311458337815
- 0.1591218665889679
- 0.07449659198974545
- 0.07210809478942005
- -0.03891664159913851
- 0.08567849468351092
- 0.0
- 0.0
effort:
- -0.849299430847168
- -27.615938186645508
- 1.3935737609863281
- 23.712324142456055
- 1.3961979150772095
- 2.4300081729888916
- 0.255318284034729
- 0.0
- 0.0
---
header:
  stamp:
    sec: 1756277567
    nanosec: 75591421
  frame_id: ''
name:
- fr3_joint1
- fr3_joint2
- fr3_joint3
- fr3_joint4
- fr3_joint5
- fr3_joint6
- fr3_joint7
- fr3_finger_joint1
- fr3_finger_joint2
position:
- -0.26059610544634276
- 0.06822523945255879
- 0.5797998733547847
- -1.6488769974623343
- -0.36717227434815464
- 2.196561928077789
- 0.8839705990417472
- 0.0
- 0.0
velocity:
- -0.012451129450422009
- 0.07248639469509983
- 0.159735432112444
- 0.07379518493387349
- 0.07351863490568042
- -0.03737013398930201
- 0.09038040262003404
- 0.0
- 0.0
effort:
- -0.750117301940918
- -27.818269729614258
- 1.5244941711425781
- 23.922590255737305
- 1.4090152978897095
- 2.4831087589263916
- 0.2278524786233902
- 0.0
- 0.0
---
header:
  stamp:
    sec: 1756277567
    nanosec: 108767047
  frame_id: ''
name:
- fr3_joint1
- fr3_joint2
- fr3_joint3
- fr3_joint4
- fr3_joint5
- fr3_joint6
- fr3_joint7
- fr3_finger_joint1
- fr3_finger_joint2
position:
- -0.2610410886570387
- 0.07047723717281247
- 0.5849783679315593
- -1.6466059195786835
- -0.3648032228865371
- 2.1954150189995576
- 0.886947353958163
- 0.0
- 0.0
velocity:
- -0.017810197663260585
- 0.06456073303433257
- 0.15895992582719148
- 0.06481411148403991
- 0.07202912855149211
- -0.03386874352585803
- 0.09839360333738059
- 0.0
- 0.0
effort:
- -0.41686534881591797
- -27.615938186645508
- 1.8617134094238281
- 23.791669845581055
- 1.4026066064834595
- 2.4831087589263916
- 0.269051194190979
- 0.0
- 0.0
---
header:
  stamp:
    sec: 1756277567
    nanosec: 142018256
  frame_id: ''
name:
- fr3_joint1
- fr3_joint2
- fr3_joint3
- fr3_joint4
- fr3_joint5
- fr3_joint6
- fr3_joint7
- fr3_finger_joint1
- fr3_finger_joint2
position:
- -0.2616346199330352
- 0.07268608688057801
- 0.5901642229412132
- -1.6443572749379036
- -0.36237868481506513
- 2.1941766869754793
- 0.8903695382031002
- 0.0
- 0.0
velocity:
- -0.01255037784882317
- 0.06760653734014396
- 0.1511209866947232
- 0.0702463072877638
- 0.07302107823361169
- -0.039144610181313086
- 0.10949104639114492
- 0.0
- 0.0
effort:
- -0.722346305847168
- -27.310457229614258
- 1.6554145812988281
- 23.791669845581055
- 1.4026066064834595
- 2.5032503604888916
- 0.282784104347229
- 0.0
- 0.0
---
header:
  stamp:
    sec: 1756277567
    nanosec: 175709250
  frame_id: ''
name:
- fr3_joint1
- fr3_joint2
- fr3_joint3
- fr3_joint4
- fr3_joint5
- fr3_joint6
- fr3_joint7
- fr3_finger_joint1
- fr3_finger_joint2
position:
- -0.2619613993620135
- 0.07507998001544618
- 0.595378125897367
- -1.6419261422984694
- -0.35995878930321834
- 2.1930622696767497
- 0.8942708219749844
- 0.0
- 0.0
velocity:
- -0.008373791481806217
- 0.07325022235649739
- 0.15897458650782864
- 0.07319141717691015
- 0.07189686246592315
- -0.03332132729588315
- 0.11779116265121166
- 0.0
- 0.0
effort:
- -0.952448844909668
- -27.056550979614258
- 1.4213447570800781
- 23.791669845581055
- 1.3888736963272095
- 2.4702913761138916
- 0.255318284034729
- 0.0
- 0.0
---
header:
  stamp:
    sec: 1756277567
    nanosec: 208696548
  frame_id: ''
name:
- fr3_joint1
- fr3_joint2
- fr3_joint3
- fr3_joint4
- fr3_joint5
- fr3_joint6
- fr3_joint7
- fr3_finger_joint1
- fr3_finger_joint2
position:
- -0.26234250227134065
- 0.07754765960964498
- 0.6006949311608244
- -1.6394598268305376
- -0.3575515691470495
- 2.19194720811911
- 0.8976160456771428
- 0.0
- 0.0
velocity:
- -0.010242915557524289
- 0.07600287229318788
- 0.16123770952641742
- 0.07827826863654584
- 0.06577121749420539
- -0.03460365320511321
- 0.09745988449787783
- 0.0
- 0.0
effort:
- -0.976252555847168
- -27.032747268676758
- 1.4451484680175781
- 23.684553146362305
- 1.3824650049209595
- 2.4767000675201416
- 0.2150350958108902
- 0.0
- 0.0
---
header:
  stamp:
    sec: 1756277567
    nanosec: 242261189
  frame_id: ''
name:
- fr3_joint1
- fr3_joint2
- fr3_joint3
- fr3_joint4
- fr3_joint5
- fr3_joint6
- fr3_joint7
- fr3_finger_joint1
- fr3_finger_joint2
position:
- -0.26271413875772187
- 0.08013255067357213
- 0.6060813914002048
- -1.6368958237378224
- -0.3553315057397401
- 2.1907554206358504
- 0.9005403185901979
- 0.0
- 0.0
velocity:
- -0.009254406834825613
- 0.07561534327289522
- 0.1607857961868997
- 0.07553511044799159
- 0.06762343941632268
- -0.0361351661788128
- 0.08556972150097265
- 0.0
- 0.0
effort:
- -0.928645133972168
- -27.286653518676758
- 1.6038398742675781
- 23.740095138549805
- 1.3888736963272095
- 2.4629671573638916
- 0.323067307472229
- 0.0
- 0.0
---
header:
  stamp:
    sec: 1756277567
    nanosec: 275650730
  frame_id: ''
name:
- fr3_joint1
- fr3_joint2
- fr3_joint3
- fr3_joint4
- fr3_joint5
- fr3_joint6
- fr3_joint7
- fr3_finger_joint1
- fr3_finger_joint2
position:
- -0.2631625886003861
- 0.08264833991914175
- 0.6115243992993404
- -1.634414022074892
- -0.35316838694155794
- 2.189560398124396
- 0.903386013961087
- 0.0
- 0.0
velocity:
- -0.018499667371955804
- 0.07385487007896066
- 0.16344672354467807
- 0.07212566355657217
- 0.06070304802698022
- -0.03497138376401516
- 0.08486850842814593
- 0.0
- 0.0
effort:
- -0.646967887878418
- -27.385835647583008
- 1.9132881164550781
- 23.371137619018555
- 1.3760563135147095
- 2.4162752628326416
- 0.269051194190979
- 0.0
- 0.0
---
header:
  stamp:
    sec: 1756277567
    nanosec: 309012514
  frame_id: ''
name:
- fr3_joint1
- fr3_joint2
- fr3_joint3
- fr3_joint4
- fr3_joint5
- fr3_joint6
- fr3_joint7
- fr3_finger_joint1
- fr3_finger_joint2
position:
- -0.26376262486355734
- 0.08506752589852581
- 0.6167084037303037
- -1.6320976400636038
- -0.3509692198820789
- 2.188374821316204
- 0.9067328700204017
- 0.0
- 0.0
velocity:
- -0.014487608487601097
- 0.06850283696167266
- 0.1519531537259016
- 0.06780023887784332
- 0.0683505095876524
- -0.037463037390579365
- 0.10575892904953291
- 0.0
- 0.0
effort:
- -0.900874137878418
- -27.615938186645508
- 1.7585639953613281
- 23.740095138549805
- 1.3824650049209595
- 2.4565584659576416
- 0.2489096075296402
- 0.0
- 0.0
---
header:
  stamp:
    sec: 1756277567
    nanosec: 343702082
  frame_id: ''
name:
- fr3_joint1
- fr3_joint2
- fr3_joint3
- fr3_joint4
- fr3_joint5
- fr3_joint6
- fr3_joint7
- fr3_finger_joint1
- fr3_finger_joint2
position:
- -0.26416035756115086
- 0.08743052516382376
- 0.6217096889476956
- -1.6297495971821157
- -0.3486713327110803
- 2.1871175180478084
- 0.9101789412678285
- 0.0
- 0.0
velocity:
- -0.00816628678049537
- 0.07128646744527482
- 0.15066027048562716
- 0.07190084059571769
- 0.0742582550681814
- -0.034378267121859096
- 0.10870042576965147
- 0.0
- 0.0
effort:
- -1.055598258972168
- -27.385835647583008
- 1.6276435852050781
- 23.581403732299805
- 1.3568302392959595
- 2.4428255558013916
- 0.2278524786233902
- 0.0
- 0.0
---
header:
  stamp:
    sec: 1756277567
    nanosec: 375379337
  frame_id: ''
name:
- fr3_joint1
- fr3_joint2
- fr3_joint3
- fr3_joint4
- fr3_joint5
- fr3_joint6
- fr3_joint7
- fr3_finger_joint1
- fr3_finger_joint2
position:
- -0.2646778890465049
- 0.08988123234953814
- 0.6270552548827406
- -1.6272568493196429
- -0.3462808724738267
- 2.1859113417258187
- 0.9140237335038516
- 0.0
- 0.0
velocity:
- -0.015651923967202597
- 0.07329995047365546
- 0.15578927737652948
- 0.07329807381878847
- 0.072219112153253
- -0.03763057858347508
- 0.11827023712752205
- 0.0
- 0.0
effort:
- -0.797724723815918
- -27.413606643676758
- 1.9132881164550781
- 23.843244552612305
- 1.3760563135147095
- 2.4895174503326416
- 0.2489096075296402
- 0.0
- 0.0
---
header:
  stamp:
    sec: 1756277567
    nanosec: 408928667
  frame_id: ''
name:
- fr3_joint1
- fr3_joint2
- fr3_joint3
- fr3_joint4
- fr3_joint5
- fr3_joint6
- fr3_joint7
- fr3_finger_joint1
- fr3_finger_joint2
position:
- -0.2651681623741298
- 0.09239054678239803
- 0.632344421650119
- -1.6246669615224045
- -0.3439884537240416
- 2.184497858393279
- 0.9173791782874376
- 0.0
- 0.0
velocity:
- -0.014187195057299543
- 0.07567662257227542
- 0.15981876924406652
- 0.07406303183474815
- 0.07046374876002974
- -0.04307330348198846
- 0.09091866353665075
- 0.0
- 0.0
effort:
- -0.797724723815918
- -27.334260940551758
- 1.9886665344238281
- 23.763898849487305
- 1.4026066064834595
- 2.4831087589263916
- 0.295601487159729
- 0.0
- 0.0
---
header:
  stamp:
    sec: 1756277567
    nanosec: 442007367
  frame_id: ''
name:
- fr3_joint1
- fr3_joint2
- fr3_joint3
- fr3_joint4
- fr3_joint5
- fr3_joint6
- fr3_joint7
- fr3_finger_joint1
- fr3_finger_joint2
position:
- -0.2656764343499961
- 0.09472065858211243
- 0.6374873518132624
- -1.6222945867923775
- -0.3417881045274253
- 2.1831544882334564
- 0.9200355641596842
- 0.0
- 0.0
velocity:
- -0.02025482594911308
- 0.0702493569411411
- 0.15883076003869342
- 0.07089951592789591
- 0.06304584114091948
- -0.04215388685001813
- 0.08177455970992246
- 0.0
- 0.0
effort:
- -0.595393180847168
- -27.437410354614258
- 2.274311065673828
- 23.763898849487305
- 1.4483829736709595
- 2.5298006534576416
- 0.302925705909729
- 0.0
- 0.0
---
header:
  stamp:
    sec: 1756277567
    nanosec: 475458147
  frame_id: ''
name:
- fr3_joint1
- fr3_joint2
- fr3_joint3
- fr3_joint4
- fr3_joint5
- fr3_joint6
- fr3_joint7
- fr3_finger_joint1
- fr3_finger_joint2
position:
- -0.2663016389151972
- 0.09702975012197977
- 0.6426048545251436
- -1.6199749985870546
- -0.33942848724748037
- 2.181801953154597
- 0.92285116974024
- 0.0
- 0.0
velocity:
- -0.017016674988252958
- 0.06673597781868221
- 0.14783899107673076
- 0.06570299071485826
- 0.07309398703512618
- -0.04174672869067977
- 0.08578334445667836
- 0.0
- 0.0
effort:
- -0.670771598815918
- -27.334260940551758
- 2.250507354736328
- 23.763898849487305
- 1.4282413721084595
- 2.4968416690826416
- 0.2278524786233902
- 0.0
- 0.0
---
header:
  stamp:
    sec: 1756277567
    nanosec: 508871031
  frame_id: ''
name:
- fr3_joint1
- fr3_joint2
- fr3_joint3
- fr3_joint4
- fr3_joint5
- fr3_joint6
- fr3_joint7
- fr3_finger_joint1
- fr3_finger_joint2
position:
- -0.2668138117495974
- 0.09928280618229479
- 0.6478235752681056
- -1.6176903105808091
- -0.33708374463260565
- 2.180340044994691
- 0.9259587140195911
- 0.0
- 0.0
velocity:
- -0.013076345096584894
- 0.0679799616425153
- 0.15910783972349066
- 0.07198633026379199
- 0.06713860329645113
- -0.041870342723197035
- 0.10156563275984178
- 0.0
- 0.0
effort:
- -0.900874137878418
- -27.032747268676758
- 2.016437530517578
- 23.660749435424805
- 1.4282413721084595
- 2.4895174503326416
- 0.269051194190979
- 0.0
- 0.0
---
header:
  stamp:
    sec: 1756277567
    nanosec: 542579445
  frame_id: ''
name:
- fr3_joint1
- fr3_joint2
- fr3_joint3
- fr3_joint4
- fr3_joint5
- fr3_joint6
- fr3_joint7
- fr3_finger_joint1
- fr3_finger_joint2
position:
- -0.2673166145951019
- 0.10159265446619754
- 0.6530471577906155
- -1.615365739224397
- -0.3348761452971185
- 2.179136018849613
- 0.9293973088835243
- 0.0
- 0.0
velocity:
- -0.015945440601888086
- 0.07248650994939014
- 0.15953277234054775
- 0.07310800753088426
- 0.06658898607043819
- -0.0367086392169676
- 0.11153147254089231
- 0.0
- 0.0
effort:
- -0.900874137878418
- -26.802644729614258
- 2.143390655517578
- 23.502058029174805
- 1.4090152978897095
- 2.4565584659576416
- 0.261726975440979
- 0.0
- 0.0
---
header:
  stamp:
    sec: 1756277567
    nanosec: 575391624
  frame_id: ''
name:
- fr3_joint1
- fr3_joint2
- fr3_joint3
- fr3_joint4
- fr3_joint5
- fr3_joint6
- fr3_joint7
- fr3_finger_joint1
- fr3_finger_joint2
position:
- -0.2678229104278983
- 0.10413391285533546
- 0.6584425927688002
- -1.6128819703526
- -0.33278449929143944
- 2.177949420443065
- 0.9331066793307833
- 0.0
- 0.0
velocity:
- -0.014416457120524853
- 0.07898315248743586
- 0.16326525658934557
- 0.07782462640241115
- 0.06280477837026403
- -0.03812037773782825
- 0.1097032787323706
- 0.0
- 0.0
effort:
- -0.928645133972168
- -27.004976272583008
- 2.222736358642578
- 23.660749435424805
- 1.4355655908584595
- 2.5032503604888916
- 0.323067307472229
- 0.0
- 0.0
---
header:
  stamp:
    sec: 1756277567
    nanosec: 608700934
  frame_id: ''
name:
- fr3_joint1
- fr3_joint2
- fr3_joint3
- fr3_joint4
- fr3_joint5
- fr3_joint6
- fr3_joint7
- fr3_finger_joint1
- fr3_finger_joint2
position:
- -0.26837784161675216
- 0.10665730512408055
- 0.6637852439061545
- -1.610400845929876
- -0.3305715485368934
- 2.1768288385964336
- 0.9364897579067812
- 0.0
- 0.0
velocity:
- -0.02141059014668364
- 0.08075019968270386
- 0.1638638930884762
- 0.07563303917942478
- 0.06977739739359623
- -0.035003286039827906
- 0.10059091611357274
- 0.0
- 0.0
effort:
- -0.722346305847168
- -27.286653518676758
- 2.405231475830078
- 23.632978439331055
- 1.4355655908584595
- 2.4831087589263916
- 0.261726975440979
- 0.0
- 0.0
---
header:
  stamp:
    sec: 1756277567
    nanosec: 642140315
  frame_id: ''
name:
- fr3_joint1
- fr3_joint2
- fr3_joint3
- fr3_joint4
- fr3_joint5
- fr3_joint6
- fr3_joint7
- fr3_finger_joint1
- fr3_finger_joint2
position:
- -0.26913186688409546
- 0.10914557838373605
- 0.6690192012939326
- -1.607943298354495
- -0.3281511045690279
- 2.1757161228396678
- 0.9396180338507298
- 0.0
- 0.0
velocity:
- -0.021499307079537372
- 0.07174668816015971
- 0.15115964348986347
- 0.06574694335778407
- 0.0759110244910992
- -0.03166005828256155
- 0.08973556193849616
- 0.0
- 0.0
effort:
- -0.952448844909668
- -27.334260940551758
- 2.325885772705078
- 23.398908615112305
- 1.4090152978897095
- 2.4300081729888916
- 0.309334397315979
- 0.0
- 0.0
---
header:
  stamp:
    sec: 1756277567
    nanosec: 675396174
  frame_id: ''
name:
- fr3_joint1
- fr3_joint2
- fr3_joint3
- fr3_joint4
- fr3_joint5
- fr3_joint6
- fr3_joint7
- fr3_finger_joint1
- fr3_finger_joint2
position:
- -0.2697653247667141
- 0.11148560559509561
- 0.6741655694947523
- -1.6057043815746788
- -0.32566492076230713
- 2.174618001783933
- 0.9426700013874709
- 0.0
- 0.0
velocity:
- -0.016298736983615104
- 0.06865470945700956
- 0.15173592662777052
- 0.06610968682128165
- 0.07226256070632285
- -0.03292120233607781
- 0.08950429103254737
- 0.0
- 0.0
effort:
- -1.027827262878418
- -27.413606643676758
- 2.222736358642578
- 23.922590255737305
- 1.4218326807022095
- 2.5032503604888916
- 0.336800217628479
- 0.0
- 0.0
---
header:
  stamp:
    sec: 1756277567
    nanosec: 708686752
  frame_id: ''
name:
- fr3_joint1
- fr3_joint2
- fr3_joint3
- fr3_joint4
- fr3_joint5
- fr3_joint6
- fr3_joint7
- fr3_finger_joint1
- fr3_finger_joint2
position:
- -0.27040716157029593
- 0.11383953881624598
- 0.6793263693935522
- -1.6032991498289235
- -0.32338553319028124
- 2.173517922069675
- 0.9459427522993838
- 0.0
- 0.0
velocity:
- -0.02294139631795076
- 0.07331488450656
- 0.15682318553765728
- 0.07264882799782114
- 0.06962077857781897
- -0.027821153925820935
- 0.10406341044440615
- 0.0
- 0.0
effort:
- -0.698542594909668
- -27.258882522583008
- 2.583759307861328
- 23.581403732299805
- 1.4282413721084595
- 2.4629671573638916
- 0.2415853887796402
- 0.0
- 0.0
---
header:
  stamp:
    sec: 1756277567
    nanosec: 742003448
  frame_id: ''
name:
- fr3_joint1
- fr3_joint2
- fr3_joint3
- fr3_joint4
- fr3_joint5
- fr3_joint6
- fr3_joint7
- fr3_finger_joint1
- fr3_finger_joint2
position:
- -0.2710543540349319
- 0.11626752148273456
- 0.6845581060540314
- -1.6007738790615749
- -0.3210104884358696
- 2.172406099148535
- 0.9495650888260188
- 0.0
- 0.0
velocity:
- -0.019309670565299607
- 0.07323922428238744
- 0.15966263636877365
- 0.07158722963679993
- 0.06807183666259503
- -0.030596181615881794
- 0.11464701902088427
- 0.0
- 0.0
effort:
- -0.750117301940918
- -27.258882522583008
- 2.686908721923828
- 23.815473556518555
- 1.4026066064834595
- 2.5160677433013916
- 0.2278524786233902
- 0.0
- 0.0
---
header:
  stamp:
    sec: 1756277567
    nanosec: 775463717
  frame_id: ''
name:
- fr3_joint1
- fr3_joint2
- fr3_joint3
- fr3_joint4
- fr3_joint5
- fr3_joint6
- fr3_joint7
- fr3_finger_joint1
- fr3_finger_joint2
position:
- -0.2716827536172092
- 0.1187261663823312
- 0.6898677375233438
- -1.598257358799797
- -0.31863887267199875
- 2.1712733884172772
- 0.9534301959035005
- 0.0
- 0.0
velocity:
- -0.023528286269635983
- 0.07504881300894499
- 0.16024476164404797
- 0.07563633931894134
- 0.06947829838096832
- -0.031187906486149823
- 0.10983877356494841
- 0.0
- 0.0
effort:
- -0.520014762878418
- -27.032747268676758
- 2.817829132080078
- 23.712324142456055
- 1.4026066064834595
- 2.5499422550201416
- 0.323067307472229
- 0.0
- 0.0
---
header:
  stamp:
    sec: 1756277567
    nanosec: 809505732
  frame_id: ''
name:
- fr3_joint1
- fr3_joint2
- fr3_joint3
- fr3_joint4
- fr3_joint5
- fr3_joint6
- fr3_joint7
- fr3_finger_joint1
- fr3_finger_joint2
position:
- -0.2724109338114618
- 0.12115717956666136
- 0.6949217868452298
- -1.5957864233222543
- -0.31642217141020723
- 2.1701958419173084
- 0.9564956840822478
- 0.0
- 0.0
velocity:
- -0.020724560240718625
- 0.07294651342999366
- 0.15031150184496142
- 0.07317692932966803
- 0.06635309272464811
- -0.03458574210805709
- 0.0904743506910751
- 0.0
- 0.0
effort:
- -0.722346305847168
- -27.258882522583008
- 2.738483428955078
- 23.684553146362305
- 1.4090152978897095
- 2.5233919620513916
- 0.275459885597229
- 0.0
- 0.0
---
header:
  stamp:
    sec: 1756277567
    nanosec: 846312935
  frame_id: ''
name:
- fr3_joint1
- fr3_joint2
- fr3_joint3
- fr3_joint4
- fr3_joint5
- fr3_joint6
- fr3_joint7
- fr3_finger_joint1
- fr3_finger_joint2
position:
- -0.2729594709888119
- 0.12334465999938354
- 0.6998833241469041
- -1.593601261606224
- -0.31422762385521386
- 2.169150530076955
- 0.9591354632290751
- 0.0
- 0.0
velocity:
- -0.014943532335710464
- 0.06514899386982928
- 0.15217312376289902
- 0.064151754975586
- 0.06437827118340768
- -0.035393773941218606
- 0.08597706459822485
- 0.0
- 0.0
effort:
- -0.750117301940918
- -27.056550979614258
- 2.738483428955078
- 23.684553146362305
- 1.4026066064834595
- 2.5233919620513916
- 0.302925705909729
- 0.0
- 0.0
---
header:
  stamp:
    sec: 1756277567
    nanosec: 875598877
  frame_id: ''
name:
- fr3_joint1
- fr3_joint2
- fr3_joint3
- fr3_joint4
- fr3_joint5
- fr3_joint6
- fr3_joint7
- fr3_finger_joint1
- fr3_finger_joint2
position:
- -0.2735552965879179
- 0.12563250489706743
- 0.7053498711778692
- -1.591244280063719
- -0.3120088953787184
- 2.167872302702192
- 0.9622289971113073
- 0.0
- 0.0
velocity:
- -0.015137053134329073
- 0.06937001669500158
- 0.1573548029451075
- 0.07309594509444761
- 0.06687019029593728
- -0.038460578122739765
- 0.0899641824390789
- 0.0
- 0.0
effort:
- -0.670771598815918
- -26.699495315551758
- 2.869403839111328
- 23.553632736206055
- 1.4154239892959595
- 2.5160677433013916
- 0.2351766973733902
- 0.0
- 0.0
---
header:
  stamp:
    sec: 1756277567
    nanosec: 908782485
  frame_id: ''
name:
- fr3_joint1
- fr3_joint2
- fr3_joint3
- fr3_joint4
- fr3_joint5
- fr3_joint6
- fr3_joint7
- fr3_finger_joint1
- fr3_finger_joint2
position:
- -0.2739782769554394
- 0.128013589596964
- 0.7105026673452707
- -1.5888793884542698
- -0.30975787373984764
- 2.16675303950341
- 0.9651069193906405
- 0.0
- 0.0
velocity:
- -0.009904484886313212
- 0.07517083262527202
- 0.16116902054789434
- 0.07424280486472888
- 0.06939875460259463
- -0.03735743311385751
- 0.08783703167698503
- 0.0
- 0.0
effort:
- -0.646967887878418
- -26.548738479614258
- 2.948749542236328
- 23.422712326049805
- 1.4355655908584595
- 2.4831087589263916
- 0.336800217628479
- 0.0
- 0.0
---
header:
  stamp:
    sec: 1756277567
    nanosec: 942035802
  frame_id: ''
name:
- fr3_joint1
- fr3_joint2
- fr3_joint3
- fr3_joint4
- fr3_joint5
- fr3_joint6
- fr3_joint7
- fr3_finger_joint1
- fr3_finger_joint2
position:
- -0.2743425452164341
- 0.13062898324912303
- 0.7159703415905042
- -1.5863583859710189
- -0.3074567056134035
- 2.165494541222549
- 0.9684932061498064
- 0.0
- 0.0
velocity:
- -0.015976423648681775
- 0.07757872543228643
- 0.16378347671622775
- 0.07388410114624527
- 0.06706771754116347
- -0.039936290458543175
- 0.11039825735859995
- 0.0
- 0.0
effort:
- -0.520014762878418
- -26.929597854614258
- 3.230426788330078
- 23.398908615112305
- 1.4547916650772095
- 2.4895174503326416
- 0.275459885597229
- 0.0
- 0.0
---
header:
  stamp:
    sec: 1756277567
    nanosec: 975421802
  frame_id: ''
name:
- fr3_joint1
- fr3_joint2
- fr3_joint3
- fr3_joint4
- fr3_joint5
- fr3_joint6
- fr3_joint7
- fr3_finger_joint1
- fr3_finger_joint2
position:
- -0.27472374726154136
- 0.1332657624065376
- 0.7212191244790973
- -1.5838018671836152
- -0.3051688163200213
- 2.1640810984186207
- 0.9723166209896194
- 0.0
- 0.0
velocity:
- -0.009102670975352094
- 0.0780150078575572
- 0.1528309388280721
- 0.07760466840705492
- 0.06965719076415378
- -0.04683278370279218
- 0.11952804488290508
- 0.0
- 0.0
effort:
- -0.797724723815918
- -27.334260940551758
- 3.024127960205078
- 23.553632736206055
- 1.4154239892959595
- 2.5160677433013916
- 0.282784104347229
- 0.0
- 0.0
---
header:
  stamp:
    sec: 1756277568
    nanosec: 8979147
  frame_id: ''
name:
- fr3_joint1
- fr3_joint2
- fr3_joint3
- fr3_joint4
- fr3_joint5
- fr3_joint6
- fr3_joint7
- fr3_finger_joint1
- fr3_finger_joint2
position:
- -0.2749868185717411
- 0.13575890310893568
- 0.7264809451325067
- -1.5814075952739397
- -0.302807530103444
- 2.162680987127687
- 0.9758910548610109
- 0.0
- 0.0
velocity:
- -0.00602102631720312
- 0.07060922258166684
- 0.1530049097012181
- 0.06632036814622956
- 0.06761839965117886
- -0.038607023395602784
- 0.09987307871946083
- 0.0
- 0.0
effort:
- -0.928645133972168
- -27.004976272583008
- 2.869403839111328
- 23.581403732299805
- 1.4154239892959595
- 2.5032503604888916
- 0.255318284034729
- 0.0
- 0.0
---
header:
  stamp:
    sec: 1756277568
    nanosec: 42007016
  frame_id: ''
name:
- fr3_joint1
- fr3_joint2
- fr3_joint3
- fr3_joint4
- fr3_joint5
- fr3_joint6
- fr3_joint7
- fr3_finger_joint1
- fr3_finger_joint2
position:
- -0.27535500083883746
- 0.13802178631129342
- 0.7316476953799256
- -1.579209525459764
- -0.3005202156799072
- 2.161213244379695
- 0.978668968144678
- 0.0
- 0.0
velocity:
- -0.01273662346244415
- 0.07207478316498377
- 0.1581999778355128
- 0.06958097524464851
- 0.07244398223406084
- -0.04709954144311323
- 0.0830582060485997
- 0.0
- 0.0
effort:
- -0.773921012878418
- -27.159700393676758
- 3.178852081298828
- 23.871015548706055
- 1.4355655908584595
- 2.5627596378326416
- 0.289192795753479
- 0.0
- 0.0
---
header:
  stamp:
    sec: 1756277568
    nanosec: 75636393
  frame_id: ''
name:
- fr3_joint1
- fr3_joint2
- fr3_joint3
- fr3_joint4
- fr3_joint5
- fr3_joint6
- fr3_joint7
- fr3_finger_joint1
- fr3_finger_joint2
position:
- -0.2757418607682804
- 0.14043734446226208
- 0.7369665430865641
- -1.5767180520284236
- -0.29811038288041225
- 2.159764447264315
- 0.9815067661375434
- 0.0
- 0.0
velocity:
- -0.011221983098320874
- 0.07135227134135648
- 0.16194807219716248
- 0.07616603893840011
- 0.0674457836841456
- -0.04265479741398963
- 0.08558039184520586
- 0.0
- 0.0
effort:
- -0.750117301940918
- -26.802644729614258
- 3.206623077392578
- 23.763898849487305
- 1.4090152978897095
- 2.5627596378326416
- 0.323067307472229
- 0.0
- 0.0
---
header:
  stamp:
    sec: 1756277568
    nanosec: 108680483
  frame_id: ''
name:
- fr3_joint1
- fr3_joint2
- fr3_joint3
- fr3_joint4
- fr3_joint5
- fr3_joint6
- fr3_joint7
- fr3_finger_joint1
- fr3_finger_joint2
position:
- -0.27614816369063566
- 0.14281609557089803
- 0.7422187841676395
- -1.5742499128336191
- -0.2958556566085035
- 2.1583797774924123
- 0.9846546735254111
- 0.0
- 0.0
velocity:
- -0.016372794397444518
- 0.07456757788553041
- 0.16163685593477942
- 0.07724380375097194
- 0.06778101113072336
- -0.047099894333454864
- 0.10361872297136132
- 0.0
- 0.0
effort:
- -0.670771598815918
- -26.878023147583008
- 3.436725616455078
- 23.740095138549805
- 1.4355655908584595
- 2.5902254581451416
- 0.261726975440979
- 0.0
- 0.0
---
header:
  stamp:
    sec: 1756277568
    nanosec: 142088920
  frame_id: ''
name:
- fr3_joint1
- fr3_joint2
- fr3_joint3
- fr3_joint4
- fr3_joint5
- fr3_joint6
- fr3_joint7
- fr3_finger_joint1
- fr3_finger_joint2
position:
- -0.2766569881186041
- 0.1453519143958213
- 0.7474844789378478
- -1.5716559670298411
- -0.2936142900155597
- 2.1569865008524665
- 0.9881230425006777
- 0.0
- 0.0
velocity:
- -0.012373932258260105
- 0.07620813273731987
- 0.15465556451590673
- 0.0779045992013231
- 0.06406562974870747
- -0.03881353886173624
- 0.10216777395812617
- 0.0
- 0.0
effort:
- -0.928645133972168
- -26.929597854614258
- 3.206623077392578
- 23.502058029174805
- 1.4026066064834595
- 2.5362093448638916
- 0.323067307472229
- 0.0
- 0.0
---
header:
  stamp:
    sec: 1756277568
    nanosec: 175738749
  frame_id: ''
name:
- fr3_joint1
- fr3_joint2
- fr3_joint3
- fr3_joint4
- fr3_joint5
- fr3_joint6
- fr3_joint7
- fr3_finger_joint1
- fr3_finger_joint2
position:
- -0.2770658528775396
- 0.14772861156720452
- 0.75266204345505
- -1.569195375176421
- -0.2912592376115443
- 2.1558196943376258
- 0.9918030858635996
- 0.0
- 0.0
velocity:
- -0.011167807825583255
- 0.06988954586709312
- 0.1562371424124028
- 0.0702444744394272
- 0.06966059294211893
- -0.032525002163082406
- 0.11348827300091748
- 0.0
- 0.0
effort:
- -0.900874137878418
- -26.802644729614258
- 3.282001495361328
- 23.398908615112305
- 1.4154239892959595
- 2.5096590518951416
- 0.350533127784729
- 0.0
- 0.0
---
header:
  stamp:
    sec: 1756277568
    nanosec: 208950065
  frame_id: ''
name:
- fr3_joint1
- fr3_joint2
- fr3_joint3
- fr3_joint4
- fr3_joint5
- fr3_joint6
- fr3_joint7
- fr3_finger_joint1
- fr3_finger_joint2
position:
- -0.2776237301000381
- 0.14992695001492964
- 0.7579699192426859
- -1.5669163286985537
- -0.2888778033125498
- 2.1546721650670806
- 0.9952121288814216
- 0.0
- 0.0
velocity:
- -0.01786550791893687
- 0.06696785442043539
- 0.15575000766945887
- 0.06660138018896378
- 0.06933670725558568
- -0.034315865835089714
- 0.09250110116681895
- 0.0
- 0.0
effort:
- -0.698542594909668
- -26.647920608520508
- 3.567646026611328
- 23.529829025268555
- 1.4483829736709595
- 2.5362093448638916
- 0.336800217628479
- 0.0
- 0.0
---
header:
  stamp:
    sec: 1756277568
    nanosec: 242124869
  frame_id: ''
name:
- fr3_joint1
- fr3_joint2
- fr3_joint3
- fr3_joint4
- fr3_joint5
- fr3_joint6
- fr3_joint7
- fr3_finger_joint1
- fr3_finger_joint2
position:
- -0.27808431261795485
- 0.15214578145904906
- 0.7630633130477147
- -1.5646587181368161
- -0.2866420052564373
- 2.1536126649834775
- 0.9979150942559007
- 0.0
- 0.0
velocity:
- -0.012885628376370754
- 0.07015047320495361
- 0.15980410491699648
- 0.06903548210192254
- 0.06811409689752627
- -0.031106686323777173
- 0.07583509764235564
- 0.0
- 0.0
effort:
- -0.722346305847168
- -26.473360061645508
- 3.619220733642578
- 23.371137619018555
- 1.4355655908584595
- 2.5096590518951416
- 0.350533127784729
- 0.0
- 0.0
---
header:
  stamp:
    sec: 1756277568
    nanosec: 275413245
  frame_id: ''
name:
- fr3_joint1
- fr3_joint2
- fr3_joint3
- fr3_joint4
- fr3_joint5
- fr3_joint6
- fr3_joint7
- fr3_finger_joint1
- fr3_finger_joint2
position:
- -0.27854053670610346
- 0.15457873116299417
- 0.7684848411177602
- -1.562255167954145
- -0.2842411640195873
- 2.15251761197526
- 1.0006547018608418
- 0.0
- 0.0
velocity:
- -0.01600878140362658
- 0.07823293224147844
- 0.16429210727008484
- 0.07366031965482811
- 0.06953070347791765
- -0.033045736337713974
- 0.08271403413062965
- 0.0
- 0.0
effort:
- -0.571589469909668
- -26.548738479614258
- 3.773944854736328
- 23.319562911987305
- 1.4483829736709595
- 2.5362093448638916
- 0.370674729347229
- 0.0
- 0.0
---
header:
  stamp:
    sec: 1756277568
    nanosec: 308686039
  frame_id: ''
name:
- fr3_joint1
- fr3_joint2
- fr3_joint3
- fr3_joint4
- fr3_joint5
- fr3_joint6
- fr3_joint7
- fr3_finger_joint1
- fr3_finger_joint2
position:
- -0.2789848721295612
- 0.1571425741976301
- 0.7735865503740241
- -1.5597542684708627
- -0.28189694153016265
- 2.151319738205277
- 1.0035998451133983
- 0.0
- 0.0
velocity:
- -0.008120265771347134
- 0.07864033578552465
- 0.15346419615334744
- 0.07563772705540682
- 0.07254797585701896
- -0.03778157793643191
- 0.09567166850079417
- 0.0
- 0.0
effort:
- -0.900874137878418
- -26.727266311645508
- 3.595417022705078
- 23.343366622924805
- 1.4218326807022095
- 2.5032503604888916
- 0.295601487159729
- 0.0
- 0.0
---
header:
  stamp:
    sec: 1756277568
    nanosec: 342429760
  frame_id: ''
name:
- fr3_joint1
- fr3_joint2
- fr3_joint3
- fr3_joint4
- fr3_joint5
- fr3_joint6
- fr3_joint7
- fr3_finger_joint1
- fr3_finger_joint2
position:
- -0.2793217087709186
- 0.15971495900443433
- 0.7788407725848234
- -1.5572010130632419
- -0.27948857981576053
- 2.1501279530575226
- 1.007064901463345
- 0.0
- 0.0
velocity:
- -0.0063505160162184065
- 0.07391493793035044
- 0.15311979933520573
- 0.07307918397830596
- 0.07227215133588737
- -0.035504154867373953
- 0.10762409382470514
- 0.0
- 0.0
effort:
- -1.079401969909668
- -26.854219436645508
- 3.516071319580078
- 23.553632736206055
- 1.4090152978897095
- 2.5096590518951416
- 0.329475998878479
- 0.0
- 0.0
---
header:
  stamp:
    sec: 1756277568
    nanosec: 375566562
  frame_id: ''
name:
- fr3_joint1
- fr3_joint2
- fr3_joint3
- fr3_joint4
- fr3_joint5
- fr3_joint6
- fr3_joint7
- fr3_finger_joint1
- fr3_finger_joint2
position:
- -0.2798416305036472
- 0.16209223140702564
- 0.7841924632110091
- -1.5549108395332092
- -0.27721336883824943
- 2.1489469040329254
- 1.010806107934926
- 0.0
- 0.0
velocity:
- -0.020434485989255517
- 0.07014484627441865
- 0.1564290443195796
- 0.06557095125084214
- 0.07090384219117928
- -0.035550300712176894
- 0.11107231799501324
- 0.0
- 0.0
effort:
- -0.670771598815918
- -26.675691604614258
- 3.877094268798828
- 23.529829025268555
- 1.4218326807022095
- 2.5435335636138916
- 0.363350510597229
- 0.0
- 0.0
---
header:
  stamp:
    sec: 1756277568
    nanosec: 409023210
  frame_id: ''
name:
- fr3_joint1
- fr3_joint2
- fr3_joint3
- fr3_joint4
- fr3_joint5
- fr3_joint6
- fr3_joint7
- fr3_finger_joint1
- fr3_finger_joint2
position:
- -0.280367300084375
- 0.16433416921222546
- 0.789277674948444
- -1.5526961986579797
- -0.2750290896931308
- 2.147623643146617
- 1.0143183944813408
- 0.0
- 0.0
velocity:
- -0.01573003233737843
- 0.07007353109846351
- 0.16158047917393792
- 0.07268135370044834
- 0.06270375429087628
- -0.041753738347194314
- 0.10671496533708287
- 0.0
- 0.0
effort:
- -0.849299430847168
- -26.774873733520508
- 3.928668975830078
- 23.946393966674805
- 1.4218326807022095
- 2.6360018253326416
- 0.289192795753479
- 0.0
- 0.0
---
header:
  stamp:
    sec: 1756277568
    nanosec: 442056908
  frame_id: ''
name:
- fr3_joint1
- fr3_joint2
- fr3_joint3
- fr3_joint4
- fr3_joint5
- fr3_joint6
- fr3_joint7
- fr3_finger_joint1
- fr3_finger_joint2
position:
- -0.2809665504511135
- 0.16675282148217035
- 0.7946599907973673
- -1.5502012836963628
- -0.2728761662251804
- 2.146323904123945
- 1.0176791874072904
- 0.0
- 0.0
velocity:
- -0.025026762583548343
- 0.0718130953797605
- 0.16043096532091325
- 0.07446588582874965
- 0.06723514516395718
- -0.040070992926638745
- 0.09389986580382899
- 0.0
- 0.0
effort:
- -0.571589469909668
- -26.473360061645508
- 4.162738800048828
- 23.529829025268555
- 1.4355655908584595
- 2.5764925479888916
- 0.316658616065979
- 0.0
- 0.0
---
header:
  stamp:
    sec: 1756277568
    nanosec: 475427043
  frame_id: ''
name:
- fr3_joint1
- fr3_joint2
- fr3_joint3
- fr3_joint4
- fr3_joint5
- fr3_joint6
- fr3_joint7
- fr3_finger_joint1
- fr3_finger_joint2
position:
- -0.2817068367402962
- 0.16919212668579853
- 0.799876341912866
- -1.5477046709185032
- -0.27054305898345904
- 2.1449715831623606
- 1.0207994978072064
- 0.0
- 0.0
velocity:
- -0.01729622792781327
- 0.0738139026779936
- 0.15172063007994716
- 0.07574774686238932
- 0.07310900705292776
- -0.0394067395950739
- 0.09061195991738469
- 0.0
- 0.0
effort:
- -0.900874137878418
- -26.520967483520508
- 3.956439971923828
- 23.474287033081055
- 1.4154239892959595
- 2.5499422550201416
- 0.350533127784729
- 0.0
- 0.0
---
header:
  stamp:
    sec: 1756277568
    nanosec: 509012979
  frame_id: ''
name:
- fr3_joint1
- fr3_joint2
- fr3_joint3
- fr3_joint4
- fr3_joint5
- fr3_joint6
- fr3_joint7
- fr3_finger_joint1
- fr3_finger_joint2
position:
- -0.2823015116310554
- 0.17166730293180169
- 0.8051244009949744
- -1.5451683351450212
- -0.2681884951962698
- 2.143703221583835
- 1.0240581031529743
- 0.0
- 0.0
velocity:
- -0.01490267838566802
- 0.07547170646983578
- 0.156479688301465
- 0.07518067209862413
- 0.0690650461771343
- -0.03723811452160756
- 0.1011178956299714
- 0.0
- 0.0
effort:
- -0.952448844909668
- -26.445589065551758
- 3.928668975830078
- 23.474287033081055
- 1.4090152978897095
- 2.5435335636138916
- 0.289192795753479
- 0.0
- 0.0
---
header:
  stamp:
    sec: 1756277568
    nanosec: 542231951
  frame_id: ''
name:
- fr3_joint1
- fr3_joint2
- fr3_joint3
- fr3_joint4
- fr3_joint5
- fr3_joint6
- fr3_joint7
- fr3_finger_joint1
- fr3_finger_joint2
position:
- -0.28294042419297516
- 0.1740259625276081
- 0.8102612279946793
- -1.5427047806429062
- -0.265909517337421
- 2.1425132358973418
- 1.0274349984543936
- 0.0
- 0.0
velocity:
- -0.020703711850593602
- 0.07083025613336531
- 0.1554172276274287
- 0.0736764520362154
- 0.07046751918822909
- -0.036546774040373244
- 0.10602194246911646
- 0.0
- 0.0
effort:
- -0.698542594909668
- -26.600313186645508
- 4.242084503173828
- 23.029951095581055
- 1.4218326807022095
- 2.5032503604888916
- 0.370674729347229
- 0.0
- 0.0
---
header:
  stamp:
    sec: 1756277568
    nanosec: 575427797
  frame_id: ''
name:
- fr3_joint1
- fr3_joint2
- fr3_joint3
- fr3_joint4
- fr3_joint5
- fr3_joint6
- fr3_joint7
- fr3_finger_joint1
- fr3_finger_joint2
position:
- -0.28362994066479547
- 0.17621565953537757
- 0.8154428200841313
- -1.5404855701091937
- -0.2636229578422257
- 2.141260557930835
- 1.0313257979467836
- 0.0
- 0.0
velocity:
- -0.019483512271452258
- 0.06715436435659902
- 0.15801031638496638
- 0.06611195505956968
- 0.06710792926736953
- -0.039474113178682574
- 0.11691414143160954
- 0.0
- 0.0
effort:
- -0.619196891784668
- -26.294832229614258
- 4.396808624267578
- 23.422712326049805
- 1.4483829736709595
- 2.5764925479888916
- 0.329475998878479
- 0.0
- 0.0
---
header:
  stamp:
    sec: 1756277568
    nanosec: 608743254
  frame_id: ''
name:
- fr3_joint1
- fr3_joint2
- fr3_joint3
- fr3_joint4
- fr3_joint5
- fr3_joint6
- fr3_joint7
- fr3_finger_joint1
- fr3_finger_joint2
position:
- -0.2842501380220675
- 0.17848472821930944
- 0.8206495071909193
- -1.5382216509524522
- -0.2613558838225974
- 2.140053923551221
- 1.034506831179419
- 0.0
- 0.0
velocity:
- -0.022074737744304046
- 0.0741399789887767
- 0.16419227170001266
- 0.07101571212424783
- 0.07044386004385313
- -0.036576474411782446
- 0.08986368513357443
- 0.0
- 0.0
effort:
- -0.49224376678466797
- -26.088533401489258
- 4.575336456298828
- 23.188642501831055
- 1.4612003564834595
- 2.5362093448638916
- 0.363350510597229
- 0.0
- 0.0
---
header:
  stamp:
    sec: 1756277568
    nanosec: 642329479
  frame_id: ''
name:
- fr3_joint1
- fr3_joint2
- fr3_joint3
- fr3_joint4
- fr3_joint5
- fr3_joint6
- fr3_joint7
- fr3_finger_joint1
- fr3_finger_joint2
position:
- -0.2847969311857304
- 0.18054486035093825
- 0.8249364787607082
- -1.5362278647977081
- -0.2593317736541598
- 2.1390916883093025
- 1.036769460643826
- 0.0
- 0.0
velocity:
- -0.017775458617084905
- 0.07670894182725631
- 0.15847442957581862
- 0.07556342187803645
- 0.07032193618769174
- -0.03546932272708555
- 0.07604387064045695
- 0.0
- 0.0
effort:
- -0.646967887878418
- -25.886201858520508
- 4.472187042236328
- 23.109296798706055
- 1.4282413721084595
- 2.5435335636138916
- 0.329475998878479
- 0.0
- 0.0
---
header:
  stamp:
    sec: 1756277568
    nanosec: 675477700
  frame_id: ''
name:
- fr3_joint1
- fr3_joint2
- fr3_joint3
- fr3_joint4
- fr3_joint5
- fr3_joint6
- fr3_joint7
- fr3_finger_joint1
- fr3_finger_joint2
position:
- -0.2853195987766581
- 0.18368253953585703
- 0.8312255536932979
- -1.5332471007827382
- -0.25659816644186795
- 2.1377001951377297
- 1.0401673590446074
- 0.0
- 0.0
velocity:
- -0.009992554529812899
- 0.07685446194074481
- 0.15607278454252596
- 0.07285982605500661
- 0.06980139446494082
- -0.03508852835076292
- 0.0862671765544839
- 0.0
- 0.0
effort:
- -1.027827262878418
- -26.342439651489258
- 4.162738800048828
- 23.553632736206055
- 1.4154239892959595
- 2.5764925479888916
- 0.410957932472229
- 0.0
- 0.0
---
header:
  stamp:
    sec: 1756277568
    nanosec: 709074909
  frame_id: ''
name:
- fr3_joint1
- fr3_joint2
- fr3_joint3
- fr3_joint4
- fr3_joint5
- fr3_joint6
- fr3_joint7
- fr3_finger_joint1
- fr3_finger_joint2
position:
- -0.28579878288498073
- 0.1862504538729536
- 0.8366339803880757
- -1.530709671787367
- -0.25450819079006504
- 2.136465167002346
- 1.0431755685586388
- 0.0
- 0.0
velocity:
- -0.01506755286961403
- 0.07479517329301859
- 0.1569783581397356
- 0.07385467948693726
- 0.06316862952386991
- -0.033468724457013606
- 0.088653323631426
- 0.0
- 0.0
effort:
- -0.797724723815918
- -26.394014358520508
- 4.626911163330078
- 23.398908615112305
- 1.4483829736709595
- 2.5700838565826416
- 0.336800217628479
- 0.0
- 0.0
---
header:
  stamp:
    sec: 1756277568
    nanosec: 741996255
  frame_id: ''
name:
- fr3_joint1
- fr3_joint2
- fr3_joint3
- fr3_joint4
- fr3_joint5
- fr3_joint6
- fr3_joint7
- fr3_finger_joint1
- fr3_finger_joint2
position:
- -0.2863408995651003
- 0.18859170526852634
- 0.8417243611695999
- -1.5284484761501589
- -0.25232434306174095
- 2.1353994225754453
- 1.0463880684632896
- 0.0
- 0.0
velocity:
- -0.021546853538703684
- 0.07012470689663594
- 0.16029264355281714
- 0.06838407973503567
- 0.06704539340403891
- -0.03652449506467094
- 0.1010184753543639
- 0.0
- 0.0
effort:
- -0.646967887878418
- -26.267061233520508
- 4.785602569580078
- 23.529829025268555
- 1.4547916650772095
- 2.5966341495513916
- 0.370674729347229
- 0.0
- 0.0
---
header:
  stamp:
    sec: 1756277568
    nanosec: 775618354
  frame_id: ''
name:
- fr3_joint1
- fr3_joint2
- fr3_joint3
- fr3_joint4
- fr3_joint5
- fr3_joint6
- fr3_joint7
- fr3_finger_joint1
- fr3_finger_joint2
position:
- -0.2868874386595481
- 0.1909633074409747
- 0.8469791291589741
- -1.526102218772175
- -0.24995229921020454
- 2.134223202107829
- 1.0501789705536888
- 0.0
- 0.0
velocity:
- -0.018747911482079285
- 0.07306469824884941
- 0.15753107033084585
- 0.0738628856838479
- 0.07464648487186423
- -0.0360742486632741
- 0.12145797224603781
- 0.0
- 0.0
effort:
- -0.571589469909668
- -26.421785354614258
- 4.888751983642578
- 23.553632736206055
- 1.4612003564834595
- 2.6231844425201416
- 0.295601487159729
- 0.0
- 0.0
---
header:
  stamp:
    sec: 1756277568
    nanosec: 808929746
  frame_id: ''
name:
- fr3_joint1
- fr3_joint2
- fr3_joint3
- fr3_joint4
- fr3_joint5
- fr3_joint6
- fr3_joint7
- fr3_finger_joint1
- fr3_finger_joint2
position:
- -0.28747476903809827
- 0.1934751502513764
- 0.8521771174625581
- -1.5235842171903802
- -0.24750975278912765
- 2.1330790024676904
- 1.0540191516731565
- 0.0
- 0.0
velocity:
- -0.01208468984862599
- 0.07442532183880475
- 0.14993417432536116
- 0.0792027816541292
- 0.07136416965550693
- -0.03354462728166487
- 0.10326362618029769
- 0.0
- 0.0
effort:
- -0.797724723815918
- -26.116304397583008
- 4.654682159423828
- 23.319562911987305
- 1.4355655908584595
- 2.5764925479888916
- 0.316658616065979
- 0.0
- 0.0
---
header:
  stamp:
    sec: 1756277568
    nanosec: 842657461
  frame_id: ''
name:
- fr3_joint1
- fr3_joint2
- fr3_joint3
- fr3_joint4
- fr3_joint5
- fr3_joint6
- fr3_joint7
- fr3_finger_joint1
- fr3_finger_joint2
position:
- -0.28780659657740426
- 0.19588097531341223
- 0.8571929598901019
- -1.5211175747409567
- -0.2451879774376802
- 2.1320093772063
- 1.0569695970174462
- 0.0
- 0.0
velocity:
- -0.007979526084197965
- 0.07404033347895357
- 0.1562709122798428
- 0.07589663437835903
- 0.06963068599712914
- -0.034844909009126276
- 0.08503063305120108
- 0.0
- 0.0
effort:
- -0.928645133972168
- -26.191682815551758
- 4.706256866455078
- 23.371137619018555
- 1.4218326807022095
- 2.5902254581451416
- 0.336800217628479
- 0.0
- 0.0
---
header:
  stamp:
    sec: 1756277568
    nanosec: 875791777
  frame_id: ''
name:
- fr3_joint1
- fr3_joint2
- fr3_joint3
- fr3_joint4
- fr3_joint5
- fr3_joint6
- fr3_joint7
- fr3_finger_joint1
- fr3_finger_joint2
position:
- -0.28820273846847805
- 0.19834615812970852
- 0.8625704757636978
- -1.5185782667258203
- -0.24283354915031663
- 2.1308913323490066
- 1.0598888927201484
- 0.0
- 0.0
velocity:
- -0.012667786976823926
- 0.070663544874018
- 0.158949122148004
- 0.07600070576820943
- 0.06867506326247054
- -0.03266561067026465
- 0.08870830886114646
- 0.0
- 0.0
effort:
- -0.646967887878418
- -26.342439651489258
- 5.043476104736328
- 23.212446212768555
- 1.4218326807022095
- 2.5499422550201416
- 0.316658616065979
- 0.0
- 0.0
---
header:
  stamp:
    sec: 1756277568
    nanosec: 908948010
  frame_id: ''
name:
- fr3_joint1
- fr3_joint2
- fr3_joint3
- fr3_joint4
- fr3_joint5
- fr3_joint6
- fr3_joint7
- fr3_finger_joint1
- fr3_finger_joint2
position:
- -0.28858551352009326
- 0.20044614454232496
- 0.8673347944180873
- -1.5164104872566406
- -0.24070104151275043
- 2.1298720850056254
- 1.0628410375417465
- 0.0
- 0.0
velocity:
- -0.01577941882417203
- 0.06385283784703466
- 0.16167539700421624
- 0.06711022972906298
- 0.07140989241751595
- -0.032140857390395725
- 0.10501088934018481
- 0.0
- 0.0
effort:
- -0.595393180847168
- -26.116304397583008
- 5.118854522705078
- 23.081525802612305
- 1.4218326807022095
- 2.5499422550201416
- 0.282784104347229
- 0.0
- 0.0
---
header:
  stamp:
    sec: 1756277568
    nanosec: 942121702
  frame_id: ''
name:
- fr3_joint1
- fr3_joint2
- fr3_joint3
- fr3_joint4
- fr3_joint5
- fr3_joint6
- fr3_joint7
- fr3_finger_joint1
- fr3_finger_joint2
position:
- -0.2890933391460147
- 0.2027641801942121
- 0.8730652286554177
- -1.5140078151307197
- -0.238202540777839
- 2.128579824206003
- 1.0666882734603873
- 0.0
- 0.0
velocity:
- -0.017368701283372822
- 0.06554294130470367
- 0.16009706982735178
- 0.06891655562542497
- 0.06941139026233271
- -0.040209647091881254
- 0.10502108168515237
- 0.0
- 0.0
effort:
- -0.520014762878418
- -26.040925979614258
- 5.222003936767578
- 23.343366622924805
- 1.4282413721084595
- 2.6094515323638916
- 0.295601487159729
- 0.0
- 0.0
---
header:
  stamp:
    sec: 1756277568
    nanosec: 975670329
  frame_id: ''
name:
- fr3_joint1
- fr3_joint2
- fr3_joint3
- fr3_joint4
- fr3_joint5
- fr3_joint6
- fr3_joint7
- fr3_finger_joint1
- fr3_finger_joint2
position:
- -0.28955171680577163
- 0.20517672644892
- 0.8783432411345204
- -1.5116105612317559
- -0.2359167137711519
- 2.1273945303064914
- 1.070397946069908
- 0.0
- 0.0
velocity:
- -0.010459837423887314
- 0.0725728721493578
- 0.15550705382697008
- 0.06955107808108948
- 0.0684272421743311
- -0.034231804965096875
- 0.11433572512702804
- 0.0
- 0.0
effort:
- -0.825495719909668
- -25.862398147583008
- 4.991901397705078
- 23.137067794799805
- 1.3961979150772095
- 2.5563509464263916
- 0.343208909034729
- 0.0
- 0.0
---
header:
  stamp:
    sec: 1756277569
    nanosec: 8712804
  frame_id: ''
name:
- fr3_joint1
- fr3_joint2
- fr3_joint3
- fr3_joint4
- fr3_joint5
- fr3_joint6
- fr3_joint7
- fr3_finger_joint1
- fr3_finger_joint2
position:
- -0.28985464349946516
- 0.2075732753465839
- 0.883563053242366
- -1.5092553191028817
- -0.233829425134361
- 2.126178040292918
- 1.0736802421762393
- 0.0
- 0.0
velocity:
- -0.003440470707781396
- 0.07498968292036587
- 0.15705276559833756
- 0.0717174749144312
- 0.06538010274996452
- -0.03872054340711834
- 0.09112208483757117
- 0.0
- 0.0
effort:
- -1.182551383972168
- -25.735445022583008
- 4.785602569580078
- 23.371137619018555
- 1.4218326807022095
- 2.5829012393951416
- 0.336800217628479
- 0.0
- 0.0
---
header:
  stamp:
    sec: 1756277569
    nanosec: 41984821
  frame_id: ''
name:
- fr3_joint1
- fr3_joint2
- fr3_joint3
- fr3_joint4
- fr3_joint5
- fr3_joint6
- fr3_joint7
- fr3_finger_joint1
- fr3_finger_joint2
position:
- -0.29021325799782477
- 0.2101310645787145
- 0.8890624768582893
- -1.5067160827127943
- -0.23153878896889676
- 2.1247214725874333
- 1.076566467364613
- 0.0
- 0.0
velocity:
- -0.011355224559101467
- 0.0761222793571614
- 0.16159554627232417
- 0.07863858275776238
- 0.07008309606112961
- -0.0440855820746729
- 0.08110041063531943
- 0.0
- 0.0
effort:
- -0.952448844909668
- -25.735445022583008
- 5.043476104736328
- 23.267988204956055
- 1.4483829736709595
- 2.5966341495513916
- 0.282784104347229
- 0.0
- 0.0
---
header:
  stamp:
    sec: 1756277569
    nanosec: 75732761
  frame_id: ''
name:
- fr3_joint1
- fr3_joint2
- fr3_joint3
- fr3_joint4
- fr3_joint5
- fr3_joint6
- fr3_joint7
- fr3_finger_joint1
- fr3_finger_joint2
position:
- -0.29062596115363615
- 0.21261160377368654
- 0.8943746803276946
- -1.5042116815136766
- -0.22921516288042645
- 2.123371131695038
- 1.0794050489539169
- 0.0
- 0.0
velocity:
- -0.012625064878173315
- 0.07298231245991517
- 0.16158508832931823
- 0.07087772539079928
- 0.0688931502987668
- -0.04028196144837453
- 0.08708897848960293
- 0.0
- 0.0
effort:
- -1.004023551940918
- -25.834627151489258
- 5.222003936767578
- 23.212446212768555
- 1.4483829736709595
- 2.5499422550201416
- 0.295601487159729
- 0.0
- 0.0
---
header:
  stamp:
    sec: 1756277569
    nanosec: 108998360
  frame_id: ''
name:
- fr3_joint1
- fr3_joint2
- fr3_joint3
- fr3_joint4
- fr3_joint5
- fr3_joint6
- fr3_joint7
- fr3_finger_joint1
- fr3_finger_joint2
position:
- -0.2912270487627468
- 0.21496077132114913
- 0.8996976767789517
- -1.5019364471682397
- -0.2268305176752631
- 2.122059068291564
- 1.08236669377809
- 0.0
- 0.0
velocity:
- -0.021042922952889544
- 0.06979378343814274
- 0.1537061897632953
- 0.06791109829552518
- 0.07119677402378817
- -0.041047833701341685
- 0.09207279320252339
- 0.0
- 0.0
effort:
- -0.750117301940918
- -25.810823440551758
- 5.432270050048828
- 23.319562911987305
- 1.4419742822647095
- 2.5829012393951416
- 0.302925705909729
- 0.0
- 0.0
---
header:
  stamp:
    sec: 1756277569
    nanosec: 142195996
  frame_id: ''
name:
- fr3_joint1
- fr3_joint2
- fr3_joint3
- fr3_joint4
- fr3_joint5
- fr3_joint6
- fr3_joint7
- fr3_finger_joint1
- fr3_finger_joint2
position:
- -0.2918311292182474
- 0.2173173946783763
- 0.9046093038675794
- -1.4995926369802053
- -0.2245487308085858
- 2.1207041834021365
- 1.085840254954503
- 0.0
- 0.0
velocity:
- -0.01467235945272005
- 0.07434917510300251
- 0.14809061879380087
- 0.07401556757915743
- 0.0711735819236917
- -0.042176066002585465
- 0.11132362469865151
- 0.0
- 0.0
effort:
- -0.952448844909668
- -25.810823440551758
- 5.352924346923828
- 23.398908615112305
- 1.4026066064834595
- 2.6094515323638916
- 0.377083420753479
- 0.0
- 0.0
---
header:
  stamp:
    sec: 1756277569
    nanosec: 175398587
  frame_id: ''
name:
- fr3_joint1
- fr3_joint2
- fr3_joint3
- fr3_joint4
- fr3_joint5
- fr3_joint6
- fr3_joint7
- fr3_finger_joint1
- fr3_finger_joint2
position:
- -0.29231890920892933
- 0.21975769217270344
- 0.9097808446918157
- -1.4970737422198375
- -0.22215221771253565
- 2.1193699367950836
- 1.089669655209202
- 0.0
- 0.0
velocity:
- -0.011931367746644887
- 0.06979341296842108
- 0.1535945015065766
- 0.07491419108612986
- 0.07419614812404367
- -0.03805628867648693
- 0.11544315839709603
- 0.0
- 0.0
effort:
- -0.849299430847168
- -25.632295608520508
- 5.456073760986328
- 22.978376388549805
- 1.4218326807022095
- 2.5563509464263916
- 0.255318284034729
- 0.0
- 0.0
---
header:
  stamp:
    sec: 1756277569
    nanosec: 208978579
  frame_id: ''
name:
- fr3_joint1
- fr3_joint2
- fr3_joint3
- fr3_joint4
- fr3_joint5
- fr3_joint6
- fr3_joint7
- fr3_finger_joint1
- fr3_finger_joint2
position:
- -0.2928838536331317
- 0.22223108813890677
- 0.9151512656174624
- -1.4945901920693714
- -0.2197237386122842
- 2.118015673469206
- 1.0933249117086183
- 0.0
- 0.0
velocity:
- -0.015921864146153798
- 0.07697150789604984
- 0.15582369710424793
- 0.0756349460521456
- 0.0650347614945476
- -0.03990015118605293
- 0.10467212709556716
- 0.0
- 0.0
effort:
- -0.797724723815918
- -25.862398147583008
- 5.662372589111328
- 23.081525802612305
- 1.4090152978897095
- 2.5700838565826416
- 0.282784104347229
- 0.0
- 0.0
---
header:
  stamp:
    sec: 1756277569
    nanosec: 242057934
  frame_id: ''
name:
- fr3_joint1
- fr3_joint2
- fr3_joint3
- fr3_joint4
- fr3_joint5
- fr3_joint6
- fr3_joint7
- fr3_finger_joint1
- fr3_finger_joint2
position:
- -0.2934429976182285
- 0.22464088338824967
- 0.9203266694439844
- -1.4921617008589403
- -0.21757982452572697
- 2.116770557844558
- 1.096484017577147
- 0.0
- 0.0
velocity:
- -0.01816390290991525
- 0.07432807488042757
- 0.16162045402022085
- 0.07433466437121006
- 0.06635191105801964
- -0.03692814142450667
- 0.09683185401206135
- 0.0
- 0.0
effort:
- -0.797724723815918
- -25.834627151489258
- 5.690143585205078
- 23.160871505737305
- 1.4547916650772095
- 2.5764925479888916
- 0.316658616065979
- 0.0
- 0.0
---
header:
  stamp:
    sec: 1756277569
    nanosec: 275538104
  frame_id: ''
name:
- fr3_joint1
- fr3_joint2
- fr3_joint3
- fr3_joint4
- fr3_joint5
- fr3_joint6
- fr3_joint7
- fr3_finger_joint1
- fr3_finger_joint2
position:
- -0.294111841718559
- 0.2270215079848089
- 0.9256952829364454
- -1.4897672165155715
- -0.21538175217127398
- 2.1155635535283284
- 1.0995849802445878
- 0.0
- 0.0
velocity:
- -0.023711457203499063
- 0.06871901896873782
- 0.1595766616819367
- 0.06609369700532004
- 0.06689004037702048
- -0.0377254611017034
- 0.09306306329307855
- 0.0
- 0.0
effort:
- -0.670771598815918
- -26.040925979614258
- 5.844867706298828
- 23.081525802612305
- 1.4090152978897095
- 2.5902254581451416
- 0.316658616065979
- 0.0
- 0.0
---
header:
  stamp:
    sec: 1756277569
    nanosec: 308979538
  frame_id: ''
name:
- fr3_joint1
- fr3_joint2
- fr3_joint3
- fr3_joint4
- fr3_joint5
- fr3_joint6
- fr3_joint7
- fr3_finger_joint1
- fr3_finger_joint2
position:
- -0.29493377412274535
- 0.22925054190396882
- 0.9308713853790636
- -1.4875185506666555
- -0.21306762659930212
- 2.114430268799995
- 1.1028618463619735
- 0.0
- 0.0
velocity:
- -0.02111270119613192
- 0.06651535296803626
- 0.15234034197506088
- 0.07154983420726915
- 0.07154372852284784
- -0.035707191358758356
- 0.10064160014593596
- 0.0
- 0.0
effort:
- -0.773921012878418
- -25.632295608520508
- 5.765522003173828
- 23.137067794799805
- 1.4355655908584595
- 2.5966341495513916
- 0.275459885597229
- 0.0
- 0.0
---
header:
  stamp:
    sec: 1756277569
    nanosec: 342064012
  frame_id: ''
name:
- fr3_joint1
- fr3_joint2
- fr3_joint3
- fr3_joint4
- fr3_joint5
- fr3_joint6
- fr3_joint7
- fr3_finger_joint1
- fr3_finger_joint2
position:
- -0.2955063510605275
- 0.23157330153159691
- 0.9359867003407932
- -1.4851960443509489
- -0.21078153016168624
- 2.11332021566636
- 1.1062249112117393
- 0.0
- 0.0
velocity:
- -0.014085615506845485
- 0.07138758777389193
- 0.15475991114189278
- 0.07112022501029781
- 0.07393591888613672
- -0.029174438139313738
- 0.10837493145454871
- 0.0
- 0.0
effort:
- -0.849299430847168
- -25.223665237426758
- 5.713947296142578
- 22.978376388549805
- 1.4419742822647095
- 2.5627596378326416
- 0.309334397315979
- 0.0
- 0.0
---
header:
  stamp:
    sec: 1756277569
    nanosec: 375663689
  frame_id: ''
name:
- fr3_joint1
- fr3_joint2
- fr3_joint3
- fr3_joint4
- fr3_joint5
- fr3_joint6
- fr3_joint7
- fr3_finger_joint1
- fr3_finger_joint2
position:
- -0.2960678930956011
- 0.23411014985462306
- 0.9414012873460206
- -1.4826881266446275
- -0.2084436447492601
- 2.112110555919081
- 1.1100106211858913
- 0.0
- 0.0
velocity:
- -0.01740300530732742
- 0.07820949607258185
- 0.15982786424149686
- 0.07602715088394588
- 0.06981348730750415
- -0.03780897040189725
- 0.1155064258662224
- 0.0
- 0.0
effort:
- -0.773921012878418
- -25.378389358520508
- 5.920246124267578
- 23.160871505737305
- 1.4355655908584595
- 2.6167757511138916
- 0.269051194190979
- 0.0
- 0.0
---
header:
  stamp:
    sec: 1756277569
    nanosec: 408640914
  frame_id: ''
name:
- fr3_joint1
- fr3_joint2
- fr3_joint3
- fr3_joint4
- fr3_joint5
- fr3_joint6
- fr3_joint7
- fr3_finger_joint1
- fr3_finger_joint2
position:
- -0.29655042570289575
- 0.23662794564496226
- 0.9465601415230587
- -1.4802378751254868
- -0.2060647335165051
- 2.1109585915737545
- 1.1131743823678277
- 0.0
- 0.0
velocity:
- -0.014604764903498704
- 0.0767327604441105
- 0.1637066931583306
- 0.07455105756598117
- 0.07423324093196206
- -0.03679636208938171
- 0.09383325343692703
- 0.0
- 0.0
effort:
- -0.849299430847168
- -25.350618362426758
- 5.999591827392578
- 23.081525802612305
- 1.4547916650772095
- 2.5700838565826416
- 0.309334397315979
- 0.0
- 0.0
---
header:
  stamp:
    sec: 1756277569
    nanosec: 442026034
  frame_id: ''
name:
- fr3_joint1
- fr3_joint2
- fr3_joint3
- fr3_joint4
- fr3_joint5
- fr3_joint6
- fr3_joint7
- fr3_finger_joint1
- fr3_finger_joint2
position:
- -0.2970515028529267
- 0.23918511698622222
- 0.9518440825761928
- -1.4776929919323865
- -0.2036706183052328
- 2.109765877139947
- 1.1159832292938086
- 0.0
- 0.0
velocity:
- -0.020121621663158
- 0.07507606866766256
- 0.1560914372021274
- 0.0715904403205768
- 0.07344056345088998
- -0.035749783785781954
- 0.08481211078653383
- 0.0
- 0.0
effort:
- -0.670771598815918
- -25.556917190551758
- 6.257465362548828
- 22.875226974487305
- 1.4676090478897095
- 2.5563509464263916
- 0.323067307472229
- 0.0
- 0.0
---
header:
  stamp:
    sec: 1756277569
    nanosec: 475410837
  frame_id: ''
name:
- fr3_joint1
- fr3_joint2
- fr3_joint3
- fr3_joint4
- fr3_joint5
- fr3_joint6
- fr3_joint7
- fr3_finger_joint1
- fr3_finger_joint2
position:
- -0.29776992859007567
- 0.24164676742973762
- 0.9569691387323532
- -1.475380817324608
- -0.20124123123930068
- 2.1085468051951266
- 1.1190043932039926
- 0.0
- 0.0
velocity:
- -0.015693847285524545
- 0.07202482754508109
- 0.14616354766599784
- 0.0686547608317501
- 0.07212719235911313
- -0.03805318332636945
- 0.0922364892264486
- 0.0
- 0.0
effort:
- -0.849299430847168
- -25.608491897583008
- 6.154315948486328
- 23.057722091674805
- 1.4612003564834595
- 2.5829012393951416
- 0.384407639503479
- 0.0
- 0.0
---
header:
  stamp:
    sec: 1756277569
    nanosec: 509024602
  frame_id: ''
name:
- fr3_joint1
- fr3_joint2
- fr3_joint3
- fr3_joint4
- fr3_joint5
- fr3_joint6
- fr3_joint7
- fr3_finger_joint1
- fr3_finger_joint2
position:
- -0.2983016377635811
- 0.24402961314052554
- 0.9621127090085807
- -1.4729179822801726
- -0.19894719467404143
- 2.1072659913550518
- 1.1220470618267675
- 0.0
- 0.0
velocity:
- -0.014916720816940308
- 0.06919260151022066
- 0.15431309908439594
- 0.07258967777599634
- 0.06651933457715109
- -0.03907789492767694
- 0.09073936114688003
- 0.0
- 0.0
effort:
- -0.849299430847168
- -25.429964065551758
- 6.182086944580078
- 22.768110275268555
- 1.4419742822647095
- 2.5563509464263916
- 0.356941819190979
- 0.0
- 0.0
---
header:
  stamp:
    sec: 1756277569
    nanosec: 542176630
  frame_id: ''
name:
- fr3_joint1
- fr3_joint2
- fr3_joint3
- fr3_joint4
- fr3_joint5
- fr3_joint6
- fr3_joint7
- fr3_finger_joint1
- fr3_finger_joint2
position:
- -0.2988982193829033
- 0.2463827654216815
- 0.9673182795062261
- -1.4704794071124638
- -0.19680614801050197
- 2.10597744434164
- 1.125386271171902
- 0.0
- 0.0
velocity:
- -0.013167930429258925
- 0.07161840061172327
- 0.15591643391784682
- 0.07624569607478454
- 0.0632610136667534
- -0.03858176734696567
- 0.10613869457609185
- 0.0
- 0.0
effort:
- -0.773921012878418
- -25.429964065551758
- 6.463764190673828
- 22.847455978393555
- 1.4483829736709595
- 2.5563509464263916
- 0.329475998878479
- 0.0
- 0.0
---
header:
  stamp:
    sec: 1756277569
    nanosec: 575477116
  frame_id: ''
name:
- fr3_joint1
- fr3_joint2
- fr3_joint3
- fr3_joint4
- fr3_joint5
- fr3_joint6
- fr3_joint7
- fr3_finger_joint1
- fr3_finger_joint2
position:
- -0.2994313474047421
- 0.2488615255049702
- 0.9726522576924462
- -1.4679275792569448
- -0.1947161796437835
- 2.1045605100406006
- 1.1291680188782756
- 0.0
- 0.0
velocity:
- -0.016795101356817284
- 0.07192664939649267
- 0.16260778407851936
- 0.07469024754281546
- 0.0663350790911918
- -0.04126632719340077
- 0.1155842550210896
- 0.0
- 0.0
effort:
- -0.722346305847168
- -25.402193069458008
- 6.543109893798828
- 22.950605392456055
- 1.4877506494522095
- 2.5829012393951416
- 0.356941819190979
- 0.0
- 0.0
---
header:
  stamp:
    sec: 1756277569
    nanosec: 608683984
  frame_id: ''
name:
- fr3_joint1
- fr3_joint2
- fr3_joint3
- fr3_joint4
- fr3_joint5
- fr3_joint6
- fr3_joint7
- fr3_finger_joint1
- fr3_finger_joint2
position:
- -0.2999319502987808
- 0.251262564297386
- 0.9778803739033815
- -1.465470904235234
- -0.19248965412840469
- 2.1032434571954295
- 1.1328193921714738
- 0.0
- 0.0
velocity:
- -0.018083259065801
- 0.07364421307371426
- 0.158493437793156
- 0.0739758855800102
- 0.0698817797682238
- -0.038734820217933966
- 0.10560293936264874
- 0.0
- 0.0
effort:
- -0.571589469909668
- -25.580720901489258
- 6.777179718017578
- 22.875226974487305
- 1.4612003564834595
- 2.5563509464263916
- 0.255318284034729
- 0.0
- 0.0
---
header:
  stamp:
    sec: 1756277569
    nanosec: 642049659
  frame_id: ''
name:
- fr3_joint1
- fr3_joint2
- fr3_joint3
- fr3_joint4
- fr3_joint5
- fr3_joint6
- fr3_joint7
- fr3_finger_joint1
- fr3_finger_joint2
position:
- -0.3005205480998714
- 0.2535746639661367
- 0.9829876393437954
- -1.463173081674152
- -0.19011280167642927
- 2.1019076862355828
- 1.13585773950169
- 0.0
- 0.0
velocity:
- -0.015208088199547299
- 0.0652323595817534
- 0.14837345426916507
- 0.06610128722157252
- 0.06910655598739138
- -0.03539529476103318
- 0.08759577306002693
- 0.0
- 0.0
effort:
- -0.520014762878418
- -25.223665237426758
- 6.725605010986328
- 22.875226974487305
