header:
  stamp:
    sec: 1756280398
    nanosec: 361052027
  frame_id: ''
name:
- fr3_joint1
- fr3_joint2
- fr3_joint3
- fr3_joint4
- fr3_joint5
- fr3_joint6
- fr3_joint7
- fr3_finger_joint1
- fr3_finger_joint2
position:
- -0.2368623798055174
- -0.1491368202826171
- 0.4317315414233913
- -2.2371085982327084
- 0.06138163089089083
- 2.152324594776232
- 0.14600436042504428
- 0.0
- 0.0
velocity:
- -0.05832726059628427
- -0.014301643300278867
- 0.10605565706199752
- 0.02799007341632961
- 0.1381096753275279
- -0.037812201528336704
- -0.13735603498360224
- 0.0
- 0.0
effort:
- -0.05980968475341797
- -23.446321487426758
- -1.3200492858886719
- 22.950605392456055
- 1.1535831689834595
- 2.3100740909576416
- -0.1511758416891098
- 0.0
- 0.0
---
header:
  stamp:
    sec: 1756280398
    nanosec: 394518800
  frame_id: ''
name:
- fr3_joint1
- fr3_joint2
- fr3_joint3
- fr3_joint4
- fr3_joint5
- fr3_joint6
- fr3_joint7
- fr3_finger_joint1
- fr3_finger_joint2
position:
- -0.2386307938816671
- -0.14978524829107934
- 0.43531277892331466
- -2.2362935977210587
- 0.06620477432333818
- 2.151006985400074
- 0.14115131746991663
- 0.0
- 0.0
velocity:
- -0.05260169501733727
- -0.021554640638208757
- 0.11130026173801195
- 0.0220635921824836
- 0.14406969451502286
- -0.03978016156059721
- -0.15295777903787086
- 0.0
- 0.0
effort:
- -0.34148693084716797
- -23.267793655395508
- -1.6334648132324219
- 23.029951095581055
- 1.1599918603897095
- 2.3228914737701416
- -0.1786416620016098
- 0.0
- 0.0
---
header:
  stamp:
    sec: 1756280398
    nanosec: 427501197
  frame_id: ''
name:
- fr3_joint1
- fr3_joint2
- fr3_joint3
- fr3_joint4
- fr3_joint5
- fr3_joint6
- fr3_joint7
- fr3_finger_joint1
- fr3_finger_joint2
position:
- -0.24038576834515685
- -0.1505970239029717
- 0.43897544613176404
- -2.235553070698362
- 0.07076967034423153
- 2.149691605315145
- 0.13607558762560465
- 0.0
- 0.0
velocity:
- -0.0555190847020953
- -0.02527714792936006
- 0.113780346742484
- 0.023532250619356047
- 0.1369575395381628
- -0.04351724924700953
- -0.14634236401515763
- 0.0
- 0.0
effort:
- -0.619196891784668
- -23.267793655395508
- -1.8635673522949219
- 23.109296798706055
- 1.1801334619522095
- 2.3100740909576416
- -0.1713174432516098
- 0.0
- 0.0
---
header:
  stamp:
    sec: 1756280398
    nanosec: 460878637
  frame_id: ''
name:
- fr3_joint1
- fr3_joint2
- fr3_joint3
- fr3_joint4
- fr3_joint5
- fr3_joint6
- fr3_joint7
- fr3_finger_joint1
- fr3_finger_joint2
position:
- -0.24251221326105427
- -0.15153366118478082
- 0.4429513261858911
- -2.2346953492720707
- 0.07536791744627068
- 2.1482848574326523
- 0.1317751992434082
- 0.0
- 0.0
velocity:
- -0.06619661459317047
- -0.029272075667370195
- 0.11573858984360988
- 0.02963964922057372
- 0.13583239758026494
- -0.04373573822709204
- -0.12358697056788066
- 0.0
- 0.0
effort:
- -0.797724723815918
- -22.859163284301758
- -2.121440887451172
- 22.875226974487305
- 1.1334415674209595
- 2.2761995792388916
- -0.286673903465271
- 0.0
- 0.0
---
header:
  stamp:
    sec: 1756280398
    nanosec: 494338141
  frame_id: ''
name:
- fr3_joint1
- fr3_joint2
- fr3_joint3
- fr3_joint4
- fr3_joint5
- fr3_joint6
- fr3_joint7
- fr3_finger_joint1
- fr3_finger_joint2
position:
- -0.2447472526892373
- -0.15244712551028752
- 0.44674832109204815
- -2.2336620808704684
- 0.07996230575081952
- 2.1468783664478615
- 0.12767876090300098
- 0.0
- 0.0
velocity:
- -0.06268024043740855
- -0.0245594073065554
- 0.10656238189676939
- 0.033299869174776627
- 0.1330238946014206
- -0.044230441095471265
- -0.12962653779294434
- 0.0
- 0.0
effort:
- -0.900874137878418
- -22.859163284301758
- -2.200786590576172
- 22.978376388549805
- 1.1471744775772095
- 2.2633821964263916
- -0.293998122215271
- 0.0
- 0.0
---
header:
  stamp:
    sec: 1756280398
    nanosec: 527746320
  frame_id: ''
name:
- fr3_joint1
- fr3_joint2
- fr3_joint3
- fr3_joint4
- fr3_joint5
- fr3_joint6
- fr3_joint7
- fr3_finger_joint1
- fr3_finger_joint2
position:
- -0.24697510929155864
- -0.1532523945908295
- 0.4502850118598977
- -2.232473602756224
- 0.08437954055193993
- 2.145438863486457
- 0.12301258649408502
- 0.0
- 0.0
velocity:
- -0.06795689693265972
- -0.024149226378443227
- 0.10461538487383291
- 0.03640498014779617
- 0.13783771844521645
- -0.04243982898186294
- -0.15507431107353623
- 0.0
- 0.0
effort:
- -0.900874137878418
- -22.656831741333008
- -2.252361297607422
- 22.795881271362305
- 1.1801334619522095
- 2.2368319034576416
- -0.348014235496521
- 0.0
- 0.0
---
header:
  stamp:
    sec: 1756280398
    nanosec: 561168588
  frame_id: ''
name:
- fr3_joint1
- fr3_joint2
- fr3_joint3
- fr3_joint4
- fr3_joint5
- fr3_joint6
- fr3_joint7
- fr3_finger_joint1
- fr3_finger_joint2
position:
- -0.24924650557795025
- -0.15405899866913403
- 0.4537139796712537
- -2.231385155556527
- 0.08894506185108274
- 2.1440788273656954
- 0.11740667800460294
- 0.0
- 0.0
velocity:
- -0.06787435240277236
- -0.02184491893961142
- 0.10159339575143517
- 0.030612617220303787
- 0.13698846056548689
- -0.04235196799965482
- -0.17492962545751783
- 0.0
- 0.0
effort:
- -0.26214122772216797
- -22.605257034301758
- -1.6056938171386719
- 22.768110275268555
- 1.1664005517959595
- 2.2569735050201416
- -0.266532301902771
- 0.0
- 0.0
---
header:
  stamp:
    sec: 1756280398
    nanosec: 594205271
  frame_id: ''
name:
- fr3_joint1
- fr3_joint2
- fr3_joint3
- fr3_joint4
- fr3_joint5
- fr3_joint6
- fr3_joint7
- fr3_finger_joint1
- fr3_finger_joint2
position:
- -0.25145419714380474
- -0.1547777040532417
- 0.45693317739495565
- -2.230385878712115
- 0.09357489744107096
- 2.142742466895686
- 0.11216502626874193
- 0.0
- 0.0
velocity:
- -0.06946968452694419
- -0.020072332651291405
- 0.09834845223875865
- 0.029652810154460515
- 0.14691804639137043
- -0.04138911127699776
- -0.146807624620688
- 0.0
- 0.0
effort:
- -0.23833751678466797
- -22.605257034301758
- -1.5779228210449219
- 22.819684982299805
- 1.1407657861709595
- 2.2569735050201416
- -0.286673903465271
- 0.0
- 0.0
---
header:
  stamp:
    sec: 1756280398
    nanosec: 627525135
  frame_id: ''
name:
- fr3_joint1
- fr3_joint2
- fr3_joint3
- fr3_joint4
- fr3_joint5
- fr3_joint6
- fr3_joint7
- fr3_finger_joint1
- fr3_finger_joint2
position:
- -0.25364694853008996
- -0.15547273281253193
- 0.46022084146221415
- -2.2294235610343773
- 0.09832691579160865
- 2.1412653783513913
- 0.10748689462070139
- 0.0
- 0.0
velocity:
- -0.06308956479469355
- -0.019750647831538005
- 0.09780490308901858
- 0.026897361150807104
- 0.13758807858410113
- -0.04136367371650132
- -0.13885558388029362
- 0.0
- 0.0
effort:
- -0.39306163787841797
- -22.506074905395508
- -1.7604179382324219
- 22.795881271362305
- 1.1471744775772095
- 2.2569735050201416
- -0.2262490838766098
- 0.0
- 0.0
---
header:
  stamp:
    sec: 1756280398
    nanosec: 661160031
  frame_id: ''
name:
- fr3_joint1
- fr3_joint2
- fr3_joint3
- fr3_joint4
- fr3_joint5
- fr3_joint6
- fr3_joint7
- fr3_finger_joint1
- fr3_finger_joint2
position:
- -0.2559520603355497
- -0.1560877641507624
- 0.46372764581375125
- -2.2285002391688553
- 0.10304258915280252
- 2.1398302272252785
- 0.10240792325890534
- 0.0
- 0.0
velocity:
- -0.07005929129378385
- -0.017264270662397416
- 0.10607517905553493
- 0.028083551693661297
- 0.14380318439518908
- -0.043506694833323485
- -0.1607560972747094
- 0.0
- 0.0
effort:
- -0.698542594909668
- -22.529878616333008
- -2.200786590576172
- 22.875226974487305
- 1.1270328760147095
- 2.2761995792388916
- -0.286673903465271
- 0.0
- 0.0
---
header:
  stamp:
    sec: 1756280398
    nanosec: 694232241
  frame_id: ''
name:
- fr3_joint1
- fr3_joint2
- fr3_joint3
- fr3_joint4
- fr3_joint5
- fr3_joint6
- fr3_joint7
- fr3_finger_joint1
- fr3_finger_joint2
position:
- -0.2582458633740307
- -0.15668369862472128
- 0.46718598958899904
- -2.2275670150507643
- 0.10766741887126657
- 2.1384523336286305
- 0.09695525677018232
- 0.0
- 0.0
velocity:
- -0.07142843112835437
- -0.01716023244401064
- 0.10610493412402838
- 0.029089423474929606
- 0.1402507802597409
- -0.04283747423866072
- -0.1578363280925961
- 0.0
- 0.0
effort:
- -0.49224376678466797
- -22.529878616333008
- -1.8913383483886719
- 22.847455978393555
- 1.1664005517959595
- 2.2697908878326416
- -0.2326577752828598
- 0.0
- 0.0
---
header:
  stamp:
    sec: 1756280398
    nanosec: 727730827
  frame_id: ''
name:
- fr3_joint1
- fr3_joint2
- fr3_joint3
- fr3_joint4
- fr3_joint5
- fr3_joint6
- fr3_joint7
- fr3_finger_joint1
- fr3_finger_joint2
position:
- -0.2607046993227079
- -0.15735773908706752
- 0.4708158529300285
- -2.2266021495129453
- 0.11256074562869783
- 2.137044346859886
- 0.09184695109978265
- 0.0
- 0.0
velocity:
- -0.07104483340904784
- -0.018966686785210986
- 0.10721091640425623
- 0.027318390424676924
- 0.14737327091178237
- -0.04124800067309887
- -0.14919310973186414
- 0.0
- 0.0
effort:
- -0.36529064178466797
- -22.553682327270508
- -1.8913383483886719
- 22.847455978393555
- 1.1206241846084595
- 2.2304232120513916
- -0.272940993309021
- 0.0
- 0.0
---
header:
  stamp:
    sec: 1756280398
    nanosec: 761120186
  frame_id: ''
name:
- fr3_joint1
- fr3_joint2
- fr3_joint3
- fr3_joint4
- fr3_joint5
- fr3_joint6
- fr3_joint7
- fr3_finger_joint1
- fr3_finger_joint2
position:
- -0.26282125309759985
- -0.1580786936499686
- 0.47417431536499266
- -2.2256804497986162
- 0.11712837961079516
- 2.135680788526977
- 0.08709690140548122
- 0.0
- 0.0
velocity:
- -0.06308511947386489
- -0.021183017900322853
- 0.10229603300849477
- 0.027317958454466693
- 0.1329400805525909
- -0.039067192854519976
- -0.14571573279624467
- 0.0
- 0.0
effort:
- -0.543818473815918
- -22.454500198364258
- -1.9429130554199219
- 22.819684982299805
- 1.0949894189834595
- 2.2761995792388916
- -0.2262490838766098
- 0.0
- 0.0
---
header:
  stamp:
    sec: 1756280398
    nanosec: 794307930
  frame_id: ''
name:
- fr3_joint1
- fr3_joint2
- fr3_joint3
- fr3_joint4
- fr3_joint5
- fr3_joint6
- fr3_joint7
- fr3_finger_joint1
- fr3_finger_joint2
position:
- -0.26485055090678333
- -0.1588283468611848
- 0.4775720410156417
- -2.224745598527662
- 0.12135269553734052
- 2.1344026972225074
- 0.08177128949934767
- 0.0
- 0.0
velocity:
- -0.062433870929232554
- -0.024634498731583535
- 0.10370694251233764
- 0.029206557376060243
- 0.1336498834574679
- -0.03722193541801067
- -0.1821817335404645
- 0.0
- 0.0
effort:
- -0.619196891784668
- -22.402925491333008
- -2.069866180419922
- 22.950605392456055
- 1.1206241846084595
- 2.2963411808013916
- -0.2390664666891098
- 0.0
- 0.0
---
header:
  stamp:
    sec: 1756280398
    nanosec: 827619216
  frame_id: ''
name:
- fr3_joint1
- fr3_joint2
- fr3_joint3
- fr3_joint4
- fr3_joint5
- fr3_joint6
- fr3_joint7
- fr3_finger_joint1
- fr3_finger_joint2
position:
- -0.26710476168142616
- -0.15964758370524484
- 0.481164876078631
- -2.2237667629254543
- 0.12616729645599128
- 2.1331170896624383
- 0.07564218480069479
- 0.0
- 0.0
velocity:
- -0.0674793722213101
- -0.02605459485519218
- 0.10459137619932089
- 0.027937705777025142
- 0.1409633428207094
- -0.03683183401484704
- -0.16741814018458823
- 0.0
- 0.0
effort:
- -0.46844005584716797
- -22.248201370239258
- -1.9429130554199219
- 22.744306564331055
- 1.0812565088272095
- 2.2761995792388916
- -0.260123610496521
- 0.0
- 0.0
---
header:
  stamp:
    sec: 1756280398
    nanosec: 860911770
  frame_id: ''
name:
- fr3_joint1
- fr3_joint2
- fr3_joint3
- fr3_joint4
- fr3_joint5
- fr3_joint6
- fr3_joint7
- fr3_finger_joint1
- fr3_finger_joint2
position:
- -0.26959456921057334
- -0.16052425605180146
- 0.48484065934491305
- -2.222926345011811
- 0.13070473134130642
- 2.131899259774712
- 0.07047373229609814
- 0.0
- 0.0
velocity:
- -0.0741484500372927
- -0.02531797454700841
- 0.1107089912027222
- 0.02359424546031373
- 0.13767427926135556
- -0.03637324724252926
- -0.14843850219876326
- 0.0
- 0.0
effort:
- -0.797724723815918
- -21.994295120239258
- -2.355510711669922
- 22.847455978393555
- 1.1270328760147095
- 2.2697908878326416
- -0.306815505027771
- 0.0
- 0.0
---
header:
  stamp:
    sec: 1756280398
    nanosec: 894247481
  frame_id: ''
name:
- fr3_joint1
- fr3_joint2
- fr3_joint3
- fr3_joint4
- fr3_joint5
- fr3_joint6
- fr3_joint7
- fr3_finger_joint1
- fr3_finger_joint2
position:
- -0.27188188875982666
- -0.16137488421826024
- 0.4882970421983642
- -2.222152561692385
- 0.1353300898769591
- 2.13061831543565
- 0.06551631646236342
- 0.0
- 0.0
velocity:
- -0.07195733602156874
- -0.02381971305907027
- 0.11027015774658823
- 0.024451549190662746
- 0.13678955019762953
- -0.04154527452092901
- -0.14888356661673322
- 0.0
- 0.0
effort:
- -0.722346305847168
- -22.097444534301758
- -2.303936004638672
- 22.795881271362305
- 1.1664005517959595
- 2.2761995792388916
- -0.260123610496521
- 0.0
- 0.0
---
header:
  stamp:
    sec: 1756280398
    nanosec: 927708845
  frame_id: ''
name:
- fr3_joint1
- fr3_joint2
- fr3_joint3
- fr3_joint4
- fr3_joint5
- fr3_joint6
- fr3_joint7
- fr3_finger_joint1
- fr3_finger_joint2
position:
- -0.27422216351926626
- -0.16226131340844882
- 0.49189396455991957
- -2.2213215440442675
- 0.13981189598708615
- 2.1291959818517014
- 0.05985871581705683
- 0.0
- 0.0
velocity:
- -0.06756157527395808
- -0.023975301198052232
- 0.10572182141807082
- 0.026045344376361572
- 0.13108986642033618
- -0.04218562920133685
- -0.18030977522641764
- 0.0
- 0.0
effort:
- -0.46844005584716797
- -22.121248245239258
- -2.046062469482422
- 22.875226974487305
- 1.1993595361709595
- 2.2496492862701416
- -0.293998122215271
- 0.0
- 0.0
---
header:
  stamp:
    sec: 1756280398
    nanosec: 960939685
  frame_id: ''
name:
- fr3_joint1
- fr3_joint2
- fr3_joint3
- fr3_joint4
- fr3_joint5
- fr3_joint6
- fr3_joint7
- fr3_finger_joint1
- fr3_finger_joint2
position:
- -0.27631058466282515
- -0.16311271711095643
- 0.4952805774376218
- -2.220474982493573
- 0.1445826476432516
- 2.12774510986143
- 0.05451128833434421
- 0.0
- 0.0
velocity:
- -0.06175086810535264
- -0.0264896511658484
- 0.09862099790136596
- 0.027449240428167977
- 0.14424982759047414
- -0.04176945417015021
- -0.144964156676011
- 0.0
- 0.0
effort:
- -0.520014762878418
- -22.022066116333008
- -2.069866180419922
- 23.057722091674805
- 1.1471744775772095
- 2.2761995792388916
- -0.306815505027771
- 0.0
- 0.0
---
header:
  stamp:
    sec: 1756280398
    nanosec: 994210277
  frame_id: ''
name:
- fr3_joint1
- fr3_joint2
- fr3_joint3
- fr3_joint4
- fr3_joint5
- fr3_joint6
- fr3_joint7
- fr3_finger_joint1
- fr3_finger_joint2
position:
- -0.27837703685634296
- -0.1639383950882203
- 0.49860974327396024
- -2.2195650187149507
- 0.1491798293809349
- 2.1263252224437066
- 0.04988100052074988
- 0.0
- 0.0
velocity:
- -0.059115878702673416
- -0.025727226974212584
- 0.09962871199772041
- 0.028823910821963155
- 0.13902550110278783
- -0.045669181930259366
- -0.149261463945644
- 0.0
- 0.0
effort:
- -0.49224376678466797
- -21.942720413208008
- -2.121440887451172
- 22.950605392456055
- 1.1078068017959595
- 2.2761995792388916
- -0.260123610496521
- 0.0
- 0.0
---
header:
  stamp:
    sec: 1756280399
    nanosec: 27459199
  frame_id: ''
name:
- fr3_joint1
- fr3_joint2
- fr3_joint3
- fr3_joint4
- fr3_joint5
- fr3_joint6
- fr3_joint7
- fr3_finger_joint1
- fr3_finger_joint2
position:
- -0.28047348620805646
- -0.16478574404922036
- 0.5020938230041299
- -2.2186111126514882
- 0.15396532136928326
- 2.124742836142135
- 0.04456198270655084
- 0.0
- 0.0
velocity:
- -0.06470677993814662
- -0.02598217129153628
- 0.10497057020247322
- 0.028171771251204913
- 0.13484184321553064
- -0.04865150421667905
- -0.16996309068371593
- 0.0
- 0.0
effort:
- -0.595393180847168
- -21.815767288208008
- -2.200786590576172
- 22.819684982299805
- 1.0876652002334595
- 2.2633821964263916
- -0.2262490838766098
- 0.0
- 0.0
---
header:
  stamp:
    sec: 1756280399
    nanosec: 61187623
  frame_id: ''
name:
- fr3_joint1
- fr3_joint2
- fr3_joint3
- fr3_joint4
- fr3_joint5
- fr3_joint6
- fr3_joint7
- fr3_finger_joint1
- fr3_finger_joint2
position:
- -0.282826339105323
- -0.16558956655066873
- 0.5057667106277046
- -2.217698067991532
- 0.1584790473339567
- 2.1231567115783
- 0.03852754054845044
- 0.0
- 0.0
velocity:
- -0.0782180073606791
- -0.02570439272363991
- 0.11530417966943235
- 0.02693476467185745
- 0.1300873445596729
- -0.04832149626744993
- -0.18609894587155693
- 0.0
- 0.0
effort:
- -0.44066905975341797
- -21.716585159301758
- -2.018291473388672
- 22.875226974487305
- 1.1270328760147095
- 2.2633821964263916
- -0.272940993309021
- 0.0
- 0.0
---
header:
  stamp:
    sec: 1756280399
    nanosec: 94224916
  frame_id: ''
name:
- fr3_joint1
- fr3_joint2
- fr3_joint3
- fr3_joint4
- fr3_joint5
- fr3_joint6
- fr3_joint7
- fr3_finger_joint1
- fr3_finger_joint2
position:
- -0.28524125565959113
- -0.16633992365010225
- 0.5092474084053241
- -2.2168072653803415
- 0.1628541754344544
- 2.121663995961152
- 0.03312537358419265
- 0.0
- 0.0
velocity:
- -0.07563333342087201
- -0.021589118171691745
- 0.10836067362505411
- 0.02782990220171693
- 0.13727114727267536
- -0.04412876882474644
- -0.15052072817769757
- 0.0
- 0.0
effort:
- -0.39306163787841797
- -21.716585159301758
- -2.018291473388672
- 22.950605392456055
- 1.1407657861709595
- 2.2761995792388916
- -0.2326577752828598
- 0.0
- 0.0
---
header:
  stamp:
    sec: 1756280399
    nanosec: 127744213
  frame_id: ''
name:
- fr3_joint1
- fr3_joint2
- fr3_joint3
- fr3_joint4
- fr3_joint5
- fr3_joint6
- fr3_joint7
- fr3_finger_joint1
- fr3_finger_joint2
position:
- -0.28762518802966547
- -0.16707650720166667
- 0.5127670807408802
- -2.215810705691653
- 0.16745890223521068
- 2.120146322570223
- 0.028335240020009204
- 0.0
- 0.0
velocity:
- -0.06457330558593481
- -0.019366285857108836
- 0.09965913050694097
- 0.029874874345046838
- 0.13634206795503923
- -0.04376416601549549
- -0.14382762451708628
- 0.0
- 0.0
effort:
- -0.44066905975341797
- -21.665010452270508
- -2.173015594482422
- 23.057722091674805
- 1.1801334619522095
- 2.2761995792388916
- -0.2390664666891098
- 0.0
- 0.0
---
header:
  stamp:
    sec: 1756280399
    nanosec: 161234533
  frame_id: ''
name:
- fr3_joint1
- fr3_joint2
- fr3_joint3
- fr3_joint4
- fr3_joint5
- fr3_joint6
- fr3_joint7
- fr3_finger_joint1
- fr3_finger_joint2
position:
- -0.2896307906228345
- -0.16774600064762665
- 0.5161387574007582
- -2.2147693664843717
- 0.1721217692843658
- 2.118596165298803
- 0.02306614614209331
- 0.0
- 0.0
velocity:
- -0.058697306632915565
- -0.021136292126029636
- 0.10066137761274332
- 0.02875509072371035
- 0.14639580523612122
- -0.045366849188432465
- -0.17019623607125658
- 0.0
- 0.0
effort:
- -0.595393180847168
- -21.613435745239258
- -2.383281707763672
- 22.875226974487305
- 1.1407657861709595
- 2.2569735050201416
- -0.280265212059021
- 0.0
- 0.0
---
header:
  stamp:
    sec: 1756280399
    nanosec: 194245223
  frame_id: ''
name:
- fr3_joint1
- fr3_joint2
- fr3_joint3
- fr3_joint4
- fr3_joint5
- fr3_joint6
- fr3_joint7
- fr3_finger_joint1
- fr3_finger_joint2
position:
- -0.2916569277604846
- -0.16847481294771954
- 0.5195952512715094
- -2.213848783621137
- 0.17667477317741717
- 2.117206578472762
- 0.01763068977796645
- 0.0
- 0.0
velocity:
- -0.061526936393257
- -0.02206799532308642
- 0.10502317014901102
- 0.030439249829674823
- 0.13857258296079433
- -0.04508755957351703
- -0.1547076345193582
- 0.0
- 0.0
effort:
- -0.571589469909668
- -21.538057327270508
- -2.252361297607422
- 23.006147384643555
- 1.1206241846084595
- 2.2835237979888916
- -0.300406813621521
- 0.0
- 0.0
---
header:
  stamp:
    sec: 1756280399
    nanosec: 227510695
  frame_id: ''
name:
- fr3_joint1
- fr3_joint2
- fr3_joint3
- fr3_joint4
- fr3_joint5
- fr3_joint6
- fr3_joint7
- fr3_finger_joint1
- fr3_finger_joint2
position:
- -0.2939417378744111
- -0.16922055786638057
- 0.5232715839483103
- -2.212833648289114
- 0.18147549456953185
- 2.1157188478283575
- 0.01251237651694326
- 0.0
- 0.0
velocity:
- -0.07142296744456433
- -0.022001753882241813
- 0.11112707611399505
- 0.03185684933928434
- 0.1431384126527485
- -0.043706378778964314
- -0.14658863200970762
- 0.0
- 0.0
effort:
- -0.646967887878418
- -21.307954788208008
- -2.458660125732422
- 22.950605392456055
- 1.1334415674209595
- 2.2633821964263916
- -0.280265212059021
- 0.0
- 0.0
---
header:
  stamp:
    sec: 1756280399
    nanosec: 261164175
  frame_id: ''
name:
- fr3_joint1
- fr3_joint2
- fr3_joint3
- fr3_joint4
- fr3_joint5
- fr3_joint6
- fr3_joint7
- fr3_finger_joint1
- fr3_finger_joint2
position:
- -0.2963445266318431
- -0.16992120407185687
- 0.5269144890810544
- -2.211772947471998
- 0.18619022205429914
- 2.114355677633047
- 0.007544071693037686
- 0.0
- 0.0
velocity:
- -0.07336575793873829
- -0.019522262001464712
- 0.10972629980748685
- 0.032889185166501904
- 0.13970994649311985
- -0.04153511625988991
- -0.15165711775024257
- 0.0
- 0.0
effort:
- -0.619196891784668
- -21.462678909301758
- -2.589580535888672
- 22.899030685424805
- 1.1334415674209595
- 2.3036653995513916
- -0.286673903465271
- 0.0
- 0.0
---
header:
  stamp:
    sec: 1756280399
    nanosec: 294530864
  frame_id: ''
name:
- fr3_joint1
- fr3_joint2
- fr3_joint3
- fr3_joint4
- fr3_joint5
- fr3_joint6
- fr3_joint7
- fr3_finger_joint1
- fr3_finger_joint2
position:
- -0.29871117692492855
- -0.17065866492155826
- 0.5304898986448253
- -2.210752697908399
- 0.19105458703095815
- 2.113047202121641
- 0.001711399884499632
- 0.0
- 0.0
velocity:
- -0.07114979450713028
- -0.022563144389320337
- 0.10377920268348659
- 0.028274679717728676
- 0.14546204284210468
- -0.03791730807836144
- -0.19069751958776224
- 0.0
- 0.0
effort:
- -0.797724723815918
- -21.284151077270508
- -2.613384246826172
- 22.899030685424805
- 1.1535831689834595
- 2.2304232120513916
- -0.1987832635641098
- 0.0
- 0.0
---
header:
  stamp:
    sec: 1756280399
    nanosec: 327706600
  frame_id: ''
name:
- fr3_joint1
- fr3_joint2
- fr3_joint3
- fr3_joint4
- fr3_joint5
- fr3_joint6
- fr3_joint7
- fr3_finger_joint1
- fr3_finger_joint2
position:
- -0.3011096897830223
- -0.17147333665604783
- 0.5338848937147341
- -2.2099158805776478
- 0.19552607785938092
- 2.1116972298659484
- -0.0040809185775606905
- 0.0
- 0.0
velocity:
- -0.06591663425716006
- -0.024773728411830467
- 0.09813713320286885
- 0.022801436151991726
- 0.1321877256542558
- -0.04011620713379268
- -0.1636910320012293
- 0.0
- 0.0
effort:
- -0.36529064178466797
- -21.081819534301758
- -2.331707000732422
- 22.926801681518555
- 1.1471744775772095
- 2.2569735050201416
- -0.272940993309021
- 0.0
- 0.0
---
header:
  stamp:
    sec: 1756280399
    nanosec: 361171178
  frame_id: ''
name:
- fr3_joint1
- fr3_joint2
- fr3_joint3
- fr3_joint4
- fr3_joint5
- fr3_joint6
- fr3_joint7
- fr3_finger_joint1
- fr3_finger_joint2
position:
- -0.3033470778723631
- -0.17225384414124897
- 0.5371682001614634
- -2.2090769577797027
- 0.19982737981545418
- 2.1102726017290934
- -0.009103724395725663
- 0.0
- 0.0
velocity:
- -0.06591133913509657
- -0.02263959820036763
- 0.09848885316494455
- 0.02483294413401262
- 0.137379531843382
- -0.039131973175203005
- -0.1497476510154431
- 0.0
- 0.0
effort:
- -0.39306163787841797
- -21.129426956176758
- -2.331707000732422
- 22.978376388549805
- 1.1664005517959595
- 2.2166903018951416
- -0.293998122215271
- 0.0
- 0.0
---
header:
  stamp:
    sec: 1756280399
    nanosec: 394225776
  frame_id: ''
name:
- fr3_joint1
- fr3_joint2
- fr3_joint3
- fr3_joint4
- fr3_joint5
- fr3_joint6
- fr3_joint7
- fr3_finger_joint1
- fr3_finger_joint2
position:
- -0.3053471136956256
- -0.1729491403666917
- 0.5403602211823033
- -2.2082260136292184
- 0.20435407320052115
- 2.1088558707134895
- -0.014007004735499129
- 0.0
- 0.0
velocity:
- -0.05852376743992077
- -0.019955495538952202
- 0.0974982366729765
- 0.027817308236223474
- 0.13668174824422996
- -0.04355268648040068
- -0.1517142408685777
- 0.0
- 0.0
effort:
- -0.28991222381591797
- -21.181001663208008
- -2.200786590576172
- 23.057722091674805
- 1.1599918603897095
- 2.2569735050201416
- -0.280265212059021
- 0.0
- 0.0
---
header:
  stamp:
    sec: 1756280399
    nanosec: 427743847
  frame_id: ''
name:
- fr3_joint1
- fr3_joint2
- fr3_joint3
- fr3_joint4
- fr3_joint5
- fr3_joint6
- fr3_joint7
- fr3_finger_joint1
- fr3_finger_joint2
position:
- -0.30749250687461865
- -0.1736584211622068
- 0.5439276335297388
- -2.207227603822552
- 0.20897540241587284
- 2.1074736333944184
- -0.019723304951800667
- 0.0
- 0.0
velocity:
- -0.06831471354669769
- -0.019994949089838187
- 0.11231346458063639
- 0.03198653236151927
- 0.13726359135780242
- -0.04370227416355386
- -0.17631865071363076
- 0.0
- 0.0
effort:
- -0.520014762878418
- -21.105623245239258
- -2.561809539794922
- 23.109296798706055
- 1.1929508447647095
- 2.2304232120513916
- -0.286673903465271
- 0.0
- 0.0
---
header:
  stamp:
    sec: 1756280399
    nanosec: 460861252
  frame_id: ''
name:
- fr3_joint1
- fr3_joint2
- fr3_joint3
- fr3_joint4
- fr3_joint5
- fr3_joint6
- fr3_joint7
- fr3_finger_joint1
- fr3_finger_joint2
position:
- -0.3099045687461857
- -0.1743829577344017
- 0.5476419632928267
- -2.206145815030656
- 0.2137132628371261
- 2.1059657642907723
- -0.024985183191604678
- 0.0
- 0.0
velocity:
- -0.07161857240964255
- -0.023121918177122492
- 0.10514773171704447
- 0.02987903227391384
- 0.1390542215298992
- -0.04494730349075887
- -0.14805948392585938
- 0.0
- 0.0
effort:
- -0.49224376678466797
- -21.157197952270508
- -2.538005828857422
- 22.819684982299805
- 1.1664005517959595
- 2.2230989933013916
- -0.260123610496521
- 0.0
- 0.0
---
header:
  stamp:
    sec: 1756280399
    nanosec: 494518111
  frame_id: ''
name:
- fr3_joint1
- fr3_joint2
- fr3_joint3
- fr3_joint4
- fr3_joint5
- fr3_joint6
- fr3_joint7
- fr3_finger_joint1
- fr3_finger_joint2
position:
- -0.3122482668311363
- -0.17531503387873407
- 0.5511944134400996
- -2.2052370189350303
- 0.21834306260798245
- 2.1043527106575657
- -0.029863189204688563
- 0.0
- 0.0
velocity:
- -0.06708411360901753
- -0.029233711149439057
- 0.10039495632716589
- 0.025848855452679374
- 0.13670051364323912
- -0.04962141904074492
- -0.14700613297712703
- 0.0
- 0.0
effort:
- -0.595393180847168
- -20.954866409301758
- -2.641155242919922
- 23.057722091674805
- 1.1801334619522095
- 2.2633821964263916
- -0.260123610496521
- 0.0
- 0.0
---
header:
  stamp:
    sec: 1756280399
    nanosec: 527569550
  frame_id: ''
name:
- fr3_joint1
- fr3_joint2
- fr3_joint3
- fr3_joint4
- fr3_joint5
- fr3_joint6
- fr3_joint7
- fr3_finger_joint1
- fr3_finger_joint2
position:
- -0.3143970928595516
- -0.17626010211496312
- 0.5545946963594977
- -2.2043121183293968
- 0.22301949807622082
- 2.1027655787343287
- -0.03513946392616636
- 0.0
- 0.0
velocity:
- -0.060687115200556745
- -0.028472014650626376
- 0.10021934478981331
- 0.028901914590579354
- 0.14306220885361565
- -0.05044090985565857
- -0.17477824934958178
- 0.0
- 0.0
effort:
- -0.571589469909668
- -20.851716995239258
- -2.613384246826172
- 23.057722091674805
- 1.1929508447647095
- 2.2496492862701416
- -0.327872633934021
- 0.0
- 0.0
---
header:
  stamp:
    sec: 1756280399
    nanosec: 560891488
  frame_id: ''
name:
- fr3_joint1
- fr3_joint2
- fr3_joint3
- fr3_joint4
- fr3_joint5
- fr3_joint6
- fr3_joint7
- fr3_finger_joint1
- fr3_finger_joint2
position:
- -0.31653791658434555
- -0.17718799070657432
- 0.5581044830697107
- -2.2032924577254143
- 0.22767322006181964
- 2.10123975339627
- -0.04130850869403315
- 0.0
- 0.0
velocity:
- -0.07055928707222012
- -0.02763593132857601
- 0.11198044869032567
- 0.031781800240896725
- 0.13754622234798408
- -0.04316297617783831
- -0.18370820016219075
- 0.0
- 0.0
effort:
- -0.34148693084716797
- -20.800142288208008
- -2.407085418701172
- 23.029951095581055
- 1.1664005517959595
- 2.2569735050201416
- -0.272940993309021
- 0.0
- 0.0
---
header:
  stamp:
    sec: 1756280399
    nanosec: 594507819
  frame_id: ''
name:
- fr3_joint1
- fr3_joint2
- fr3_joint3
- fr3_joint4
- fr3_joint5
- fr3_joint6
- fr3_joint7
- fr3_finger_joint1
- fr3_finger_joint2
position:
- -0.31880372593630707
- -0.17807654256339994
- 0.5616630048629604
- -2.202209962577446
- 0.23226697417310938
- 2.099857481283934
- -0.04656726125879629
- 0.0
- 0.0
velocity:
- -0.06494362246995564
- -0.023794659341985422
- 0.10389775267068736
- 0.03181227190167408
- 0.13250364294526326
- -0.03976738003548967
- -0.1400516534406701
- 0.0
- 0.0
effort:
- -0.23833751678466797
- -20.522432327270508
- -2.252361297607422
- 23.057722091674805
- 1.2323185205459595
- 2.2496492862701416
- -0.2463906854391098
- 0.0
- 0.0
---
header:
  stamp:
    sec: 1756280399
    nanosec: 627734115
  frame_id: ''
name:
- fr3_joint1
- fr3_joint2
- fr3_joint3
- fr3_joint4
- fr3_joint5
- fr3_joint6
- fr3_joint7
- fr3_finger_joint1
- fr3_finger_joint2
position:
- -0.32105403719140174
- -0.17885608427157962
- 0.5651472559216266
- -2.2011165344799526
- 0.2366340419785051
- 2.0985073844710374
- -0.05120979765932806
- 0.0
- 0.0
velocity:
- -0.07311672289072828
- -0.024264443970525698
- 0.1089012908072836
- 0.03239615349192918
- 0.13017573095229926
- -0.039553017068079115
- -0.1488124781157256
- 0.0
- 0.0
effort:
- -0.619196891784668
- -20.494661331176758
- -2.847454071044922
- 22.926801681518555
- 1.2121769189834595
- 2.2368319034576416
- -0.280265212059021
- 0.0
- 0.0
---
header:
  stamp:
    sec: 1756280399
    nanosec: 661377959
  frame_id: ''
name:
- fr3_joint1
- fr3_joint2
- fr3_joint3
- fr3_joint4
- fr3_joint5
- fr3_joint6
- fr3_joint7
- fr3_finger_joint1
- fr3_finger_joint2
position:
- -0.3234160003975405
- -0.17967776190802587
- 0.5688012817885342
- -2.200101084751316
- 0.24109015104642598
- 2.0971798506792267
- -0.05669516003372582
- 0.0
- 0.0
velocity:
- -0.06449674607612133
- -0.02509209076612289
- 0.10502100445420351
- 0.028275408872619798
- 0.13551533108433092
- -0.0382079157724568
- -0.16918650602626897
- 0.0
- 0.0
effort:
- -0.928645133972168
- -20.292329788208008
- -3.133098602294922
- 23.006147384643555
- 1.2121769189834595
- 2.2697908878326416
- -0.293998122215271
- 0.0
- 0.0
---
header:
  stamp:
    sec: 1756280399
    nanosec: 694586414
  frame_id: ''
name:
- fr3_joint1
- fr3_joint2
- fr3_joint3
- fr3_joint4
- fr3_joint5
- fr3_joint6
- fr3_joint7
- fr3_finger_joint1
- fr3_finger_joint2
position:
- -0.32584372879141843
- -0.18044737999883903
- 0.572478397415739
- -2.1990917711815685
- 0.24585776226089348
- 2.095907348579999
- -0.062185065310638214
- 0.0
- 0.0
velocity:
- -0.068867995692988
- -0.021737142689235146
- 0.10403136308507724
- 0.02813396789149915
- 0.1389319299164283
- -0.03824697567690811
- -0.15371316475066643
- 0.0
- 0.0
effort:
- -0.773921012878418
- -20.189180374145508
- -2.950603485107422
- 22.926801681518555
- 1.2121769189834595
- 2.2633821964263916
- -0.252799391746521
- 0.0
- 0.0
---
header:
  stamp:
    sec: 1756280399
    nanosec: 727615122
  frame_id: ''
name:
- fr3_joint1
- fr3_joint2
- fr3_joint3
- fr3_joint4
- fr3_joint5
- fr3_joint6
- fr3_joint7
- fr3_finger_joint1
- fr3_finger_joint2
position:
- -0.32800984480887774
- -0.18111325713842008
- 0.5757840865687732
- -2.19814183500788
- 0.250394010028235
- 2.0947767538793514
- -0.06701449639072002
- 0.0
- 0.0
velocity:
- -0.0632128464466845
- -0.020464504299301117
- 0.0981636159081329
- 0.029074265434758557
- 0.14341652350232229
- -0.03735561212312044
- -0.14351117530708218
- 0.0
- 0.0
effort:
- -0.39306163787841797
- -20.316133499145508
- -2.664958953857422
- 22.819684982299805
- 1.2515445947647095
- 2.2432405948638916
- -0.327872633934021
- 0.0
- 0.0
---
header:
  stamp:
    sec: 1756280399
    nanosec: 760888593
  frame_id: ''
name:
- fr3_joint1
- fr3_joint2
- fr3_joint3
- fr3_joint4
- fr3_joint5
- fr3_joint6
- fr3_joint7
- fr3_finger_joint1
- fr3_finger_joint2
position:
- -0.33011648680972655
- -0.18178916751722152
- 0.5790904447063908
- -2.1973295083875137
- 0.2549781766437477
- 2.0935470974310078
- -0.0719669420829322
- 0.0
- 0.0
velocity:
- -0.0629828034430045
- -0.020334739288100277
- 0.10210485847372505
- 0.02284071785612935
- 0.1385234226627575
- -0.037876715474891604
- -0.15787930802041553
- 0.0
- 0.0
effort:
- -0.520014762878418
- -20.165376663208008
- -2.795879364013672
- 22.847455978393555
- 1.2121769189834595
- 2.2496492862701416
- -0.266532301902771
- 0.0
- 0.0
---
header:
  stamp:
    sec: 1756280399
    nanosec: 794270392
  frame_id: ''
name:
- fr3_joint1
- fr3_joint2
- fr3_joint3
- fr3_joint4
- fr3_joint5
- fr3_joint6
- fr3_joint7
- fr3_finger_joint1
- fr3_finger_joint2
position:
- -0.33212758732501757
- -0.1824111957287973
- 0.5823516816878419
- -2.196642229561148
- 0.25953438133618606
- 2.0922982215380825
- -0.07775312964879465
- 0.0
- 0.0
velocity:
- -0.05996018511026494
- -0.01828135615070245
- 0.1000920250953231
- 0.020053355295436268
- 0.14687416528487823
- -0.04171600509441738
- -0.18838461609444335
- 0.0
- 0.0
effort:
- -0.571589469909668
- -20.113801956176758
- -2.795879364013672
- 23.006147384643555
- 1.2057682275772095
- 2.2963411808013916
- -0.314139723777771
- 0.0
- 0.0
---
header:
  stamp:
    sec: 1756280399
    nanosec: 827625731
  frame_id: ''
name:
- fr3_joint1
- fr3_joint2
- fr3_joint3
- fr3_joint4
- fr3_joint5
- fr3_joint6
- fr3_joint7
- fr3_finger_joint1
- fr3_finger_joint2
position:
- -0.3345878137205369
- -0.18304212478598703
- 0.5860194057270983
- -2.1958613029099077
- 0.26444052661203704
- 2.0909152410731524
- -0.08348781157172136
- 0.0
- 0.0
velocity:
- -0.07735493660923676
- -0.018976280801570797
- 0.10775276989178038
- 0.023756612393222028
- 0.14028648639506372
- -0.042018125054584535
- -0.1536007012217542
- 0.0
- 0.0
effort:
- -0.571589469909668
- -20.292329788208008
- -2.978374481201172
- 23.057722091674805
- 1.2057682275772095
- 2.2368319034576416
- -0.293998122215271
- 0.0
- 0.0
---
header:
  stamp:
    sec: 1756280399
    nanosec: 860891471
  frame_id: ''
name:
- fr3_joint1
- fr3_joint2
- fr3_joint3
- fr3_joint4
- fr3_joint5
- fr3_joint6
- fr3_joint7
- fr3_finger_joint1
- fr3_finger_joint2
position:
- -0.33708827793120283
- -0.1836926364087684
- 0.5895579574522324
- -2.1950723285089624
- 0.26916657912697556
- 2.089493494215051
- -0.08846543678013717
- 0.0
- 0.0
velocity:
- -0.07206689119214268
- -0.02172677411130533
- 0.10191058676029972
- 0.02271205516132981
- 0.14282003113742145
- -0.0448697192637793
- -0.1514738513466794
- 0.0
- 0.0
effort:
- -0.571589469909668
- -20.216951370239258
- -2.899028778076172
- 23.160871505737305
- 1.2121769189834595
- 2.2761995792388916
- -0.327872633934021
- 0.0
- 0.0
---
header:
  stamp:
    sec: 1756280399
    nanosec: 894386455
  frame_id: ''
name:
- fr3_joint1
- fr3_joint2
- fr3_joint3
- fr3_joint4
- fr3_joint5
- fr3_joint6
- fr3_joint7
- fr3_finger_joint1
- fr3_finger_joint2
position:
- -0.3394580773984733
- -0.18440991014258395
- 0.5930844708168519
- -2.1941828094198548
- 0.2737109009023607
- 2.0880428802555957
- -0.09359190800969708
- 0.0
- 0.0
velocity:
- -0.06678457178902922
- -0.02268550833567676
- 0.10524916641441703
- 0.02542177758021186
- 0.12546717843065727
- -0.042840256594545933
- -0.15807650251885555
- 0.0
- 0.0
effort:
- -0.543818473815918
- -20.113801956176758
- -2.926799774169922
- 23.137067794799805
- 1.2845035791397095
- 2.2496492862701416
- -0.286673903465271
- 0.0
- 0.0
---
header:
  stamp:
    sec: 1756280399
    nanosec: 927793248
  frame_id: ''
name:
- fr3_joint1
- fr3_joint2
- fr3_joint3
- fr3_joint4
- fr3_joint5
- fr3_joint6
- fr3_joint7
- fr3_finger_joint1
- fr3_finger_joint2
position:
- -0.3414678897892943
- -0.18513605565529748
- 0.5964083512245097
- -2.1932596188496647
- 0.27784915309515956
- 2.0866167189229303
- -0.09922279186110447
- 0.0
- 0.0
velocity:
- -0.06274387268588527
- -0.022356833732116773
- 0.10428819094000026
- 0.027337409215574766
- 0.13157856751916452
- -0.043008903927933155
- -0.17178496199997864
- 0.0
- 0.0
effort:
- -0.31371593475341797
- -20.010652542114258
- -2.716533660888672
- 23.006147384643555
- 1.2515445947647095
- 2.2230989933013916
- -0.286673903465271
- 0.0
- 0.0
---
header:
  stamp:
    sec: 1756280399
    nanosec: 961281867
  frame_id: ''
name:
- fr3_joint1
- fr3_joint2
- fr3_joint3
- fr3_joint4
- fr3_joint5
- fr3_joint6
- fr3_joint7
- fr3_finger_joint1
- fr3_finger_joint2
position:
- -0.3435597763771521
- -0.18596301536864263
- 0.5999641548429924
- -2.192371298689391
- 0.28246655548310096
- 2.0850412155601834
- -0.1042889277568007
- 0.0
- 0.0
velocity:
- -0.0651730436109908
- -0.02553037686720867
- 0.10445438017549914
- 0.02681175410096461
- 0.1378352237615077
- -0.048838553971743345
- -0.14655106520703345
- 0.0
- 0.0
effort:
- -0.46844005584716797
- -19.784517288208008
- -2.899028778076172
- 23.057722091674805
- 1.2515445947647095
- 2.2761995792388916
- -0.252799391746521
- 0.0
- 0.0
---
header:
  stamp:
    sec: 1756280399
    nanosec: 994277089
  frame_id: ''
name:
- fr3_joint1
- fr3_joint2
- fr3_joint3
- fr3_joint4
- fr3_joint5
- fr3_joint6
- fr3_joint7
- fr3_finger_joint1
- fr3_finger_joint2
position:
- -0.34559971495633257
- -0.1867746697716013
- 0.6033977692598641
- -2.191515361952064
- 0.2868950666777609
- 2.083476598720823
- -0.1090372676175729
- 0.0
- 0.0
velocity:
- -0.06256249382884221
- -0.02473083041051039
- 0.10675370101918127
- 0.026745536792498647
- 0.1392164093213434
- -0.04740975492844208
- -0.15076360409757872
- 0.0
- 0.0
effort:
- -0.722346305847168
- -19.629793167114258
- -3.208477020263672
- 23.006147384643555
- 1.2387272119522095
- 2.2697908878326416
- -0.252799391746521
- 0.0
- 0.0
---
header:
  stamp:
    sec: 1756280400
    nanosec: 27723649
  frame_id: ''
name:
- fr3_joint1
- fr3_joint2
- fr3_joint3
- fr3_joint4
- fr3_joint5
- fr3_joint6
- fr3_joint7
- fr3_finger_joint1
- fr3_finger_joint2
position:
- -0.34798926893372184
- -0.1876480422615053
- 0.607162125452828
- -2.1906073826820585
- 0.291774976061313
- 2.081838250718461
- -0.11463272919449215
- 0.0
- 0.0
velocity:
- -0.06978083929022133
- -0.027887244023892085
- 0.1102797488125421
- 0.025652923581716523
- 0.14381730639622597
- -0.04721408911565403
- -0.17524734337080458
- 0.0
- 0.0
effort:
- -0.877070426940918
- -19.681367874145508
- -3.363201141357422
- 23.137067794799805
- 1.2716861963272095
- 2.2633821964263916
- -0.293998122215271
- 0.0
- 0.0
---
header:
  stamp:
    sec: 1756280400
    nanosec: 60888309
  frame_id: ''
name:
- fr3_joint1
- fr3_joint2
- fr3_joint3
- fr3_joint4
- fr3_joint5
- fr3_joint6
- fr3_joint7
- fr3_finger_joint1
- fr3_finger_joint2
position:
- -0.35039830626362023
- -0.18851413083424517
- 0.6108194364102669
- -2.189661960022164
- 0.2963187668956814
- 2.0802109040028425
- -0.12075763718970904
- 0.0
- 0.0
velocity:
- -0.07592924092053258
- -0.02715646728872398
- 0.11093909190216256
- 0.02850083243589019
- 0.13265286260199138
- -0.04773433847015498
- -0.17535105394828648
- 0.0
- 0.0
effort:
- -0.520014762878418
- -19.605989456176758
- -3.002178192138672
- 23.160871505737305
- 1.2652775049209595
- 2.2496492862701416
- -0.280265212059021
- 0.0
- 0.0
---
header:
  stamp:
    sec: 1756280400
    nanosec: 94291072
  frame_id: ''
name:
- fr3_joint1
- fr3_joint2
- fr3_joint3
- fr3_joint4
- fr3_joint5
- fr3_joint6
- fr3_joint7
- fr3_finger_joint1
- fr3_finger_joint2
position:
- -0.35282316335748637
- -0.18939354999900654
- 0.6142578251523741
- -2.1886552997242035
- 0.3008854193507327
- 2.0786898611494835
- -0.12549737333960276
- 0.0
- 0.0
velocity:
- -0.07126854730427777
- -0.027167877003669027
- 0.10510879370240557
- 0.02976694262620591
- 0.1385531427568772
- -0.04392518715099762
- -0.13456780225727694
- 0.0
- 0.0
effort:
- -0.39306163787841797
- -19.530611038208008
- -2.950603485107422
- 23.029951095581055
- 1.2973209619522095
- 2.2368319034576416
- -0.327872633934021
- 0.0
- 0.0
---
header:
  stamp:
    sec: 1756280400
    nanosec: 127528944
  frame_id: ''
name:
- fr3_joint1
- fr3_joint2
- fr3_joint3
- fr3_joint4
- fr3_joint5
- fr3_joint6
- fr3_joint7
- fr3_finger_joint1
- fr3_finger_joint2
position:
- -0.35500488509789724
- -0.19031109579207928
- 0.6175774720996365
- -2.1876298324615475
- 0.30570134923331876
- 2.0772853862697884
- -0.13032776482582473
- 0.0
- 0.0
velocity:
- -0.06275924737327028
- -0.02553631268516132
- 0.09943390731883457
- 0.030686811341890694
- 0.13492236454601578
- -0.037926755103974086
- -0.15059203627766116
- 0.0
- 0.0
effort:
- -0.44066905975341797
- -19.451265335083008
- -3.081523895263672
- 23.137067794799805
- 1.2845035791397095
- 2.2368319034576416
- -0.286673903465271
- 0.0
- 0.0
---
header:
  stamp:
    sec: 1756280400
    nanosec: 160908545
  frame_id: ''
name:
- fr3_joint1
- fr3_joint2
- fr3_joint3
- fr3_joint4
- fr3_joint5
- fr3_joint6
- fr3_joint7
- fr3_finger_joint1
- fr3_finger_joint2
position:
- -0.35707640989548767
- -0.19117392854744095
- 0.6209401110016778
- -2.1865589073306264
- 0.310268861365919
- 2.075980909405924
- -0.1358654518738472
- 0.0
- 0.0
velocity:
- -0.0587663530583939
- -0.0261016262755269
- 0.09654978382444518
- 0.03299006598244852
- 0.13899894861329942
- -0.03820988578954247
- -0.17572526476962255
- 0.0
- 0.0
effort:
- -0.571589469909668
- -19.427461624145508
- -3.208477020263672
- 23.081525802612305
- 1.2652775049209595
- 2.2304232120513916
- -0.266532301902771
- 0.0
- 0.0
---
header:
  stamp:
    sec: 1756280400
    nanosec: 194235795
  frame_id: ''
name:
- fr3_joint1
- fr3_joint2
- fr3_joint3
- fr3_joint4
- fr3_joint5
- fr3_joint6
- fr3_joint7
- fr3_finger_joint1
- fr3_finger_joint2
position:
- -0.35905444505166917
- -0.19199779272354842
- 0.6242858344809135
- -2.1855531439807736
- 0.3147383052179963
- 2.0747963402314578
- -0.1410436967234453
- 0.0
- 0.0
velocity:
- -0.06920477730864169
- -0.025145859487554628
- 0.10801312180448017
- 0.03290083316616485
- 0.13153391543223708
- -0.03928799822479883
- -0.15057076381068793
- 0.0
- 0.0
effort:
- -0.520014762878418
- -19.272737503051758
- -3.105327606201172
- 23.029951095581055
- 1.2579532861709595
- 2.2304232120513916
- -0.272940993309021
- 0.0
- 0.0
---
header:
  stamp:
    sec: 1756280400
    nanosec: 227687699
  frame_id: ''
name:
- fr3_joint1
- fr3_joint2
- fr3_joint3
- fr3_joint4
- fr3_joint5
- fr3_joint6
- fr3_joint7
- fr3_finger_joint1
- fr3_finger_joint2
position:
- -0.36151886617481804
- -0.19290685631613183
- 0.6280499401809454
- -2.1845494684232527
- 0.31928817539923027
- 2.0734930854485762
- -0.14618892436829714
- 0.0
- 0.0
velocity:
- -0.07338800258710013
- -0.025129981653523092
- 0.11021322642507489
- 0.028061809931410744
- 0.1359632232577505
- -0.04217588764731295
- -0.1482019014418601
- 0.0
- 0.0
effort:
- -0.49224376678466797
- -18.995027542114258
- -3.236248016357422
- 22.899030685424805
- 1.3110538721084595
- 2.2102816104888916
- -0.306815505027771
- 0.0
- 0.0
---
header:
  stamp:
    sec: 1756280400
    nanosec: 261263336
  frame_id: ''
name:
- fr3_joint1
- fr3_joint2
- fr3_joint3
- fr3_joint4
- fr3_joint5
- fr3_joint6
- fr3_joint7
- fr3_finger_joint1
- fr3_finger_joint2
position:
- -0.363817529454278
- -0.19373108897503324
- 0.6315350140566756
- -2.183694063576261
- 0.32383220980288346
- 2.0720516856828617
- -0.15118827143813662
- 0.0
- 0.0
velocity:
- -0.0710102699744328
- -0.023083856468991425
- 0.10655565454731605
- 0.024909884029037595
- 0.1393413611334685
- -0.04415474016494196
- -0.1620880090047742
- 0.0
- 0.0
effort:
- -0.571589469909668
- -18.891878128051758
- -3.287822723388672
- 22.978376388549805
- 1.3174625635147095
- 2.1965487003326416
- -0.293998122215271
- 0.0
- 0.0
---
header:
  stamp:
    sec: 1756280400
    nanosec: 294535632
  frame_id: ''
name:
- fr3_joint1
- fr3_joint2
- fr3_joint3
- fr3_joint4
- fr3_joint5
- fr3_joint6
- fr3_joint7
- fr3_finger_joint1
- fr3_finger_joint2
position:
- -0.3660708224932073
- -0.19443398317745952
- 0.6350741144934345
- -2.182867900195118
- 0.3285048728525332
- 2.070586720287778
- -0.15740055221539334
- 0.0
- 0.0
velocity:
- -0.06375031492515205
- -0.01900211670873725
- 0.09982429751900022
- 0.02520604817453344
- 0.14344672370662834
- -0.041788888941361235
- -0.18804133221629615
- 0.0
- 0.0
effort:
- -0.571589469909668
- -18.995027542114258
- -3.339397430419922
- 23.057722091674805
- 1.3632389307022095
- 2.2230989933013916
- -0.2463906854391098
- 0.0
- 0.0
---
header:
  stamp:
    sec: 1756280400
    nanosec: 327776244
  frame_id: ''
name:
- fr3_joint1
- fr3_joint2
- fr3_joint3
- fr3_joint4
- fr3_joint5
- fr3_joint6
- fr3_joint7
- fr3_finger_joint1
- fr3_finger_joint2
position:
- -0.36826224814940756
- -0.1950446493688204
- 0.6385015507220058
- -2.182035456671411
- 0.33306477316310074
- 2.069130976607502
- -0.16282634099555318
- 0.0
- 0.0
velocity:
- -0.06641467964462702
- -0.019950954702836175
- 0.10033598185864268
- 0.02663795089699572
- 0.13897736296722013
- -0.04085652833360686
- -0.15453994518496958
- 0.0
- 0.0
effort:
- -0.46844005584716797
- -18.891878128051758
- -3.184673309326172
- 23.212446212768555
- 1.3430973291397095
- 2.2102816104888916
- -0.306815505027771
- 0.0
- 0.0
---
header:
  stamp:
    sec: 1756280400
    nanosec: 361224239
  frame_id: ''
name:
- fr3_joint1
- fr3_joint2
- fr3_joint3
- fr3_joint4
- fr3_joint5
- fr3_joint6
- fr3_joint7
- fr3_finger_joint1
- fr3_finger_joint2
position:
- -0.3705212155275352
- -0.1956204758731255
- 0.6419773150444424
- -2.1810603180634636
- 0.33781853341972246
- 2.06766410748086
- -0.1679272870007311
- 0.0
- 0.0
velocity:
- -0.06175182728465598
- -0.017664853190100634
- 0.09974024405878146
- 0.03180960702996162
- 0.14449141087251952
- -0.04385397267404725
- -0.15396605834514582
- 0.0
- 0.0
effort:
- -0.49224376678466797
- -18.891878128051758
- -3.236248016357422
- 23.212446212768555
- 1.3238712549209595
- 2.2230989933013916
- -0.260123610496521
- 0.0
- 0.0
---
header:
  stamp:
    sec: 1756280400
    nanosec: 394264251
  frame_id: ''
name:
- fr3_joint1
- fr3_joint2
- fr3_joint3
- fr3_joint4
- fr3_joint5
- fr3_joint6
- fr3_joint7
- fr3_finger_joint1
- fr3_finger_joint2
position:
- -0.372610484207429
- -0.19620404224070861
- 0.645310928688643
- -2.1800123302432963
- 0.3425433375286433
- 2.0661451701855382
- -0.17292262038178127
- 0.0
- 0.0
velocity:
- -0.06699445299515414
- -0.02105502197854339
- 0.10713262673629881
- 0.030244128924632956
- 0.14324413206310693
- -0.04687522255650254
- -0.16250953058040998
- 0.0
- 0.0
effort:
- -0.646967887878418
- -18.840303421020508
- -3.442546844482422
- 22.926801681518555
- 1.2515445947647095
- 2.1965487003326416
- -0.314139723777771
- 0.0
- 0.0
---
header:
  stamp:
    sec: 1756280400
    nanosec: 427733092
  frame_id: ''
name:
- fr3_joint1
- fr3_joint2
- fr3_joint3
- fr3_joint4
- fr3_joint5
- fr3_joint6
- fr3_joint7
- fr3_finger_joint1
- fr3_finger_joint2
position:
- -0.3750669259459245
- -0.1969958873270317
- 0.6490411805756214
- -2.1790413552733856
- 0.3473700219152469
- 2.0646199184682295
- -0.17875717700232327
- 0.0
- 0.0
velocity:
- -0.07526063156357972
- -0.024485209841109714
- 0.11210570625964142
- 0.02976099900960808
- 0.13915664991576884
- -0.04571655849153734
- -0.16396127617752743
- 0.0
- 0.0
effort:
- -0.520014762878418
- -18.665742874145508
- -3.521892547607422
- 23.160871505737305
- 1.3366886377334595
- 2.2569735050201416
- -0.286673903465271
- 0.0
- 0.0
---
header:
  stamp:
    sec: 1756280400
    nanosec: 461137058
  frame_id: ''
name:
- fr3_joint1
- fr3_joint2
- fr3_joint3
- fr3_joint4
- fr3_joint5
- fr3_joint6
- fr3_joint7
- fr3_finger_joint1
- fr3_finger_joint2
position:
- -0.37756106780173126
- -0.19786619805823008
- 0.6526786623421791
- -2.178074240351188
- 0.3517945738652178
- 2.0631338623997726
- -0.1838249157779237
- 0.0
- 0.0
velocity:
- -0.07511008287963714
- -0.026771924240054295
- 0.10515101825546647
- 0.028367241826938963
- 0.1267710036292194
- -0.044746372484360065
- -0.1483011182479248
- 0.0
- 0.0
effort:
- -0.595393180847168
- -18.459444046020508
- -3.545696258544922
- 23.188642501831055
- 1.3302799463272095
- 2.2569735050201416
- -0.280265212059021
- 0.0
- 0.0
---
header:
  stamp:
    sec: 1756280400
    nanosec: 494269475
  frame_id: ''
name:
- fr3_joint1
- fr3_joint2
- fr3_joint3
- fr3_joint4
- fr3_joint5
- fr3_joint6
- fr3_joint7
- fr3_finger_joint1
- fr3_finger_joint2
position:
- -0.37977112873667873
- -0.19872218328962052
- 0.6559727280093687
- -2.177153586620791
- 0.3559423000559209
- 2.06182002019844
- -0.18865294728323465
- 0.0
- 0.0
velocity:
- -0.06089843144949065
- -0.025320361879777847
- 0.09579683126576313
- 0.028182599317112478
- 0.12658803571886162
- -0.04150553465755024
- -0.15585402187962372
- 0.0
- 0.0
effort:
- -0.41686534881591797
- -18.407869338989258
- -3.414775848388672
- 23.160871505737305
- 1.3760563135147095
- 2.2432405948638916
- -0.286673903465271
- 0.0
- 0.0
---
header:
  stamp:
    sec: 1756280400
    nanosec: 527722586
  frame_id: ''
name:
- fr3_joint1
- fr3_joint2
- fr3_joint3
- fr3_joint4
- fr3_joint5
- fr3_joint6
- fr3_joint7
- fr3_finger_joint1
- fr3_finger_joint2
position:
- -0.3817989794454669
- -0.19949800508252827
- 0.659171346248166
- -2.176175537477918
- 0.36045177970578923
- 2.06049099860444
- -0.1941381412415286
- 0.0
- 0.0
velocity:
- -0.06362250514145555
- -0.02320705970679289
- 0.09953715382705758
- 0.03143502226872972
- 0.14006646172299847
- -0.044841627792931375
- -0.18049012997516242
- 0.0
- 0.0
effort:
- -0.44066905975341797
- -18.407869338989258
- -3.363201141357422
- 23.081525802612305
- 1.3366886377334595
- 2.2166903018951416
- -0.300406813621521
- 0.0
- 0.0
---
header:
  stamp:
    sec: 1756280400
    nanosec: 561145985
  frame_id: ''
name:
- fr3_joint1
- fr3_joint2
- fr3_joint3
- fr3_joint4
- fr3_joint5
- fr3_joint6
- fr3_joint7
- fr3_finger_joint1
- fr3_finger_joint2
position:
- -0.38402327319304025
- -0.20028715242829842
- 0.6627803325253623
- -2.175084259134116
- 0.3652587680128627
- 2.059062687136134
- -0.20033428878749554
- 0.0
- 0.0
velocity:
- -0.06466486212929773
- -0.023947250065961174
- 0.10569467323379195
- 0.0312782379074641
- 0.13848074962840962
- -0.038691918902620206
- -0.16117598730757424
- 0.0
- 0.0
effort:
- -0.08361339569091797
- -18.308687210083008
- -3.002178192138672
- 23.081525802612305
- 1.3366886377334595
- 2.1901400089263916
- -0.266532301902771
- 0.0
- 0.0
---
header:
  stamp:
    sec: 1756280400
    nanosec: 594264793
  frame_id: ''
name:
- fr3_joint1
- fr3_joint2
- fr3_joint3
- fr3_joint4
- fr3_joint5
- fr3_joint6
- fr3_joint7
- fr3_finger_joint1
- fr3_finger_joint2
position:
- -0.3862714781281455
- -0.20104664933616037
- 0.6662322387828375
- -2.1740937647409426
- 0.36997941293160486
- 2.0577525509365473
- -0.2050186499454327
- 0.0
- 0.0
velocity:
- -0.07286468692121402
- -0.02500566548357046
- 0.10866505787599272
- 0.03039052973102278
- 0.14451060584289954
- -0.040755997504897175
- -0.13840278542573417
- 0.0
- 0.0
effort:
- -0.31371593475341797
- -18.332490921020508
- -3.339397430419922
- 23.057722091674805
- 1.3430973291397095
- 2.2230989933013916
- -0.334281325340271
- 0.0
- 0.0
---
header:
  stamp:
    sec: 1756280400
    nanosec: 627582471
  frame_id: ''
name:
- fr3_joint1
- fr3_joint2
- fr3_joint3
- fr3_joint4
- fr3_joint5
- fr3_joint6
- fr3_joint7
- fr3_finger_joint1
- fr3_finger_joint2
position:
- -0.3887435008530606
- -0.2019160725047375
- 0.6698552255544612
- -2.173127597682994
- 0.3746968434248919
- 2.056399100376325
- -0.21008294576480183
- 0.0
- 0.0
velocity:
- -0.07098116014977955
- -0.024479369771655955
- 0.10465082109823962
- 0.028427357084966843
- 0.13346537921418156
- -0.03866017856468291
- -0.15907702757612546
- 0.0
- 0.0
effort:
- -0.41686534881591797
- -18.280916213989258
- -3.573467254638672
- 23.057722091674805
- 1.3302799463272095
- 2.2368319034576416
- -0.300406813621521
- 0.0
- 0.0
---
header:
  stamp:
    sec: 1756280400
    nanosec: 661268970
  frame_id: ''
name:
- fr3_joint1
- fr3_joint2
- fr3_joint3
- fr3_joint4
- fr3_joint5
- fr3_joint6
- fr3_joint7
- fr3_finger_joint1
- fr3_finger_joint2
position:
- -0.3910267606264898
- -0.20280488207954928
- 0.6733992272543065
- -2.1721682273565786
- 0.3794232133390134
- 2.055117025274941
- -0.21567182464821621
- 0.0
- 0.0
velocity:
- -0.06570537071399299
- -0.02548003525170692
- 0.10322395154847562
- 0.029933135622006838
- 0.1428417889062514
- -0.03932331384152229
- -0.16910018965314746
- 0.0
- 0.0
effort:
- -0.722346305847168
- -18.130159378051758
- -3.831340789794922
- 23.029951095581055
- 1.2973209619522095
- 2.2304232120513916
- -0.286673903465271
- 0.0
- 0.0
---
header:
  stamp:
    sec: 1756280400
    nanosec: 694223931
  frame_id: ''
name:
- fr3_joint1
- fr3_joint2
- fr3_joint3
- fr3_joint4
- fr3_joint5
- fr3_joint6
- fr3_joint7
- fr3_finger_joint1
- fr3_finger_joint2
position:
- -0.3931320632804522
- -0.20370888301246545
- 0.6768206056396004
- -2.1712858432130453
- 0.38401010731547114
- 2.0538717971077434
- -0.22073258058859346
- 0.0
- 0.0
velocity:
- -0.05990991503306459
- -0.02866916855688489
- 0.10359969769211612
- 0.027060416900127462
- 0.13729747621411198
- -0.03875194589075128
- -0.15684037961630068
- 0.0
- 0.0
effort:
- -0.44066905975341797
- -17.824678421020508
- -3.414775848388672
- 22.875226974487305
- 1.3366886377334595
- 2.1901400089263916
- -0.361747145652771
- 0.0
- 0.0
---
header:
  stamp:
    sec: 1756280400
    nanosec: 727742220
  frame_id: ''
name:
- fr3_joint1
- fr3_joint2
- fr3_joint3
- fr3_joint4
- fr3_joint5
- fr3_joint6
- fr3_joint7
- fr3_finger_joint1
- fr3_finger_joint2
position:
- -0.3952404521767246
- -0.20464459240569
- 0.6803645443950342
- -2.1704298756291713
- 0.38862634134944835
- 2.0526064553816563
- -0.22589513748904616
- 0.0
- 0.0
velocity:
- -0.06582406063663092
- -0.026763961532452224
- 0.10653623585048792
- 0.02620070275824085
- 0.13645721044573303
- -0.03832494600665776
- -0.1444277248878591
- 0.0
- 0.0
effort:
- -0.44066905975341797
- -17.622346878051758
- -3.597270965576172
- 22.899030685424805
- 1.3302799463272095
- 2.1699984073638916
- -0.300406813621521
- 0.0
- 0.0
---
header:
  stamp:
    sec: 1756280400
    nanosec: 760889542
  frame_id: ''
name:
- fr3_joint1
- fr3_joint2
- fr3_joint3
- fr3_joint4
- fr3_joint5
- fr3_joint6
- fr3_joint7
- fr3_finger_joint1
- fr3_finger_joint2
position:
- -0.39725710601503395
- -0.20545661693779096
- 0.6838305064915787
- -2.169610330834776
- 0.39312619456656533
- 2.0512754935663478
- -0.23108146960177797
- 0.0
- 0.0
velocity:
- -0.06174753978333498
- -0.02407993051401095
- 0.10536656044317913
- 0.02495157630279063
- 0.13254619282747934
- -0.03935189948137187
- -0.17365360909413066
- 0.0
- 0.0
effort:
- -0.619196891784668
- -17.646150588989258
- -3.728191375732422
- 23.081525802612305
- 1.3302799463272095
- 2.1965487003326416
- -0.320548415184021
- 0.0
- 0.0
---
header:
  stamp:
    sec: 1756280400
    nanosec: 794321665
  frame_id: ''
name:
- fr3_joint1
- fr3_joint2
- fr3_joint3
- fr3_joint4
- fr3_joint5
- fr3_joint6
- fr3_joint7
- fr3_finger_joint1
- fr3_finger_joint2
position:
- -0.399550885781821
- -0.20622047590529485
- 0.6875366370403707
- -2.168760993998391
- 0.3976699499525792
- 2.049822403186247
- -0.23742094009233827
- 0.0
- 0.0
velocity:
- -0.0717980166691428
- -0.023517623639219998
- 0.11057271651115207
- 0.02265902132911577
- 0.13939320578566655
- -0.04163339392863222
- -0.18222310361319252
- 0.0
- 0.0
effort:
- -0.797724723815918
- -17.570772171020508
- -4.009868621826172
- 23.212446212768555
- 1.3174625635147095
- 2.2166903018951416
- -0.252799391746521
- 0.0
- 0.0
---
header:
  stamp:
    sec: 1756280400
    nanosec: 827489982
  frame_id: ''
name:
- fr3_joint1
- fr3_joint2
- fr3_joint3
- fr3_joint4
- fr3_joint5
- fr3_joint6
- fr3_joint7
- fr3_finger_joint1
- fr3_finger_joint2
position:
- -0.40200020132702563
- -0.20691906402553562
- 0.6911454896058964
- -2.167909143886229
- 0.40223464496023104
- 2.0484026646401614
- -0.24254201823057425
- 0.0
- 0.0
velocity:
- -0.07218615145786768
- -0.019947882730827152
- 0.10441857059504407
- 0.026516896634560506
- 0.14018326476329357
- -0.04540820123406601
- -0.14970629424921972
- 0.0
- 0.0
effort:
- -0.670771598815918
- -17.519197463989258
- -3.958293914794922
- 23.109296798706055
- 1.3302799463272095
- 2.2166903018951416
- -0.266532301902771
- 0.0
- 0.0
---
header:
  stamp:
    sec: 1756280400
    nanosec: 860818780
  frame_id: ''
name:
- fr3_joint1
- fr3_joint2
- fr3_joint3
- fr3_joint4
- fr3_joint5
- fr3_joint6
- fr3_joint7
- fr3_finger_joint1
- fr3_finger_joint2
position:
- -0.40452125391040356
- -0.2075815960078466
- 0.6946838230545888
- -2.166975353579408
- 0.40692673247325817
- 2.046837521857747
- -0.24758719558603906
- 0.0
- 0.0
velocity:
- -0.07398489674549241
- -0.019581221668579212
- 0.10256911835003936
- 0.026900703373628293
- 0.14161804359013663
- -0.04539355430497112
- -0.15183495544374565
- 0.0
- 0.0
effort:
- -0.595393180847168
- -17.416048049926758
- -3.986064910888672
- 23.006147384643555
- 1.3504215478897095
- 2.1699984073638916
- -0.320548415184021
- 0.0
- 0.0
---
header:
  stamp:
    sec: 1756280400
    nanosec: 894160583
  frame_id: ''
name:
- fr3_joint1
- fr3_joint2
- fr3_joint3
- fr3_joint4
- fr3_joint5
- fr3_joint6
- fr3_joint7
- fr3_finger_joint1
- fr3_finger_joint2
position:
- -0.40660546217577526
- -0.20821293576915123
- 0.6978484320657221
- -2.1661427238574684
- 0.4114937267827499
- 2.0452747923139962
- -0.25258461578542657
- 0.0
- 0.0
velocity:
- -0.06487219311666337
- -0.018942077097284238
- 0.09964403414784806
- 0.025382211218504987
- 0.13920220099763408
- -0.04721562817215047
- -0.1651011753868515
- 0.0
- 0.0
effort:
- -0.39306163787841797
- -17.416048049926758
- -3.700420379638672
- 23.188642501831055
- 1.3366886377334595
- 2.2102816104888916
- -0.374564528465271
- 0.0
- 0.0
---
header:
  stamp:
    sec: 1756280400
    nanosec: 927550477
  frame_id: ''
name:
- fr3_joint1
- fr3_joint2
- fr3_joint3
- fr3_joint4
- fr3_joint5
- fr3_joint6
- fr3_joint7
- fr3_finger_joint1
- fr3_finger_joint2
position:
- -0.4087543957813158
- -0.2088713687795565
- 0.7012775941045027
- -2.1652796082103247
- 0.41621711478391205
- 2.04371011451785
- -0.2583050265804547
- 0.0
- 0.0
velocity:
- -0.06549087271548182
- -0.019529591884374895
- 0.10433767246324725
- 0.02471906553439771
- 0.142240342702794
- -0.04571188094591136
- -0.15560385549312827
- 0.0
- 0.0
effort:
- -0.39306163787841797
- -17.265291213989258
- -3.728191375732422
- 23.212446212768555
- 1.3760563135147095
- 2.2102816104888916
- -0.327872633934021
- 0.0
- 0.0
---
header:
  stamp:
    sec: 1756280400
    nanosec: 960855684
  frame_id: ''
name:
- fr3_joint1
- fr3_joint2
- fr3_joint3
- fr3_joint4
- fr3_joint5
- fr3_joint6
- fr3_joint7
- fr3_finger_joint1
- fr3_finger_joint2
position:
- -0.41085419873224566
- -0.20947061149060908
- 0.7046960092423791
- -2.164418693150179
- 0.4208110576348593
- 2.042282324594772
- -0.26328340193508076
- 0.0
- 0.0
velocity:
- -0.06264059981053255
- -0.017737489385852862
- 0.1011494331665805
- 0.027152539318143706
- 0.13586090393923358
- -0.04456936430662934
- -0.14647948882642156
- 0.0
- 0.0
effort:
- -0.44066905975341797
- -17.392244338989258
- -3.831340789794922
- 23.267988204956055
- 1.4154239892959595
- 2.1901400089263916
- -0.327872633934021
- 0.0
- 0.0
---
header:
  stamp:
    sec: 1756280400
    nanosec: 994339650
  frame_id: ''
name:
- fr3_joint1
- fr3_joint2
- fr3_joint3
- fr3_joint4
- fr3_joint5
- fr3_joint6
- fr3_joint7
- fr3_finger_joint1
- fr3_finger_joint2
position:
- -0.4132534223029891
- -0.21015624043382902
- 0.7083333696271631
- -2.163495039617539
- 0.4255594426498103
- 2.040694500507685
- -0.2683569381640337
- 0.0
- 0.0
velocity:
- -0.06908495316688518
- -0.022964456984977438
- 0.10536374655698126
- 0.027005018324466754
- 0.1436739751974902
- -0.04520341108722649
- -0.15637865825850325
- 0.0
- 0.0
effort:
- -0.722346305847168
- -17.241487503051758
- -4.116985321044922
- 23.343366622924805
- 1.3504215478897095
- 2.1901400089263916
- -0.368155837059021
- 0.0
- 0.0
---
header:
  stamp:
    sec: 1756280401
    nanosec: 27730691
  frame_id: ''
name:
- fr3_joint1
- fr3_joint2
- fr3_joint3
- fr3_joint4
- fr3_joint5
- fr3_joint6
- fr3_joint7
- fr3_finger_joint1
- fr3_finger_joint2
position:
- -0.4155225901217129
- -0.21087872224508283
- 0.7117622534596605
- -2.162533913832387
- 0.43012788788145384
- 2.0392383401388483
- -0.2742099625936203
- 0.0
- 0.0
velocity:
- -0.06879652582684369
- -0.02304965189112251
- 0.10422062966306254
- 0.027995527763830862
- 0.13182051409421755
- -0.04329357539624768
- -0.18601586815664237
- 0.0
- 0.0
effort:
- -0.619196891784668
- -17.114534378051758
- -4.009868621826172
- 23.109296798706055
- 1.3568302392959595
- 2.1965487003326416
- -0.354422926902771
- 0.0
- 0.0
---
header:
  stamp:
    sec: 1756280401
