header:
  stamp:
    sec: 1756281078
    nanosec: 447562200
  frame_id: ''
name:
- fr3_joint1
- fr3_joint2
- fr3_joint3
- fr3_joint4
- fr3_joint5
- fr3_joint6
- fr3_joint7
- fr3_finger_joint1
- fr3_finger_joint2
position:
- 0.115535940738769
- -0.03449379494067998
- 0.21937998113663576
- -1.644619427027009
- 0.1663220570757521
- 1.5809706713930514
- 0.5779875761632471
- 0.0
- 0.0
velocity:
- -0.10048731150914152
- -0.050010075540173324
- 0.04135619877510914
- -0.02585505461859453
- 0.1365572918922789
- 0.05630289020662935
- 0.060354599831226395
- 0.0
- 0.0
effort:
- -0.520014762878418
- -29.190950393676758
- -0.0029105544090270996
- 22.272199630737305
- 1.5728946924209595
- 2.2761995792388916
- 0.1738363653421402
- 0.0
- 0.0
---
header:
  stamp:
    sec: 1756281078
    nanosec: 480624264
  frame_id: ''
name:
- fr3_joint1
- fr3_joint2
- fr3_joint3
- fr3_joint4
- fr3_joint5
- fr3_joint6
- fr3_joint7
- fr3_finger_joint1
- fr3_finger_joint2
position:
- 0.11223207442835119
- -0.03614837240250049
- 0.22079619167078157
- -1.645483483632734
- 0.17080948367878088
- 1.5829201670919573
- 0.5800883790830502
- 0.0
- 0.0
velocity:
- -0.1008974172581793
- -0.04795921596759806
- 0.04632003182563007
- -0.025362036968357655
- 0.13461742068079832
- 0.05528210164040788
- 0.05732914747173478
- 0.0
- 0.0
effort:
- -0.44066905975341797
- -28.786287307739258
- -0.0029105544090270996
- 22.113508224487305
- 1.5921207666397095
- 2.2633821964263916
- 0.1875692754983902
- 0.0
- 0.0
---
header:
  stamp:
    sec: 1756281078
    nanosec: 513893667
  frame_id: ''
name:
- fr3_joint1
- fr3_joint2
- fr3_joint3
- fr3_joint4
- fr3_joint5
- fr3_joint6
- fr3_joint7
- fr3_finger_joint1
- fr3_finger_joint2
position:
- 0.1084763094094919
- -0.03774388738288408
- 0.2224136647511468
- -1.6463420415903625
- 0.17546737215570524
- 1.5847273928273256
- 0.5819836249709853
- 0.0
- 0.0
velocity:
- -0.10915783898666076
- -0.046886558764978006
- 0.04444924569129407
- -0.02719308293745441
- 0.1323261462688876
- 0.05246103146918112
- 0.054534800698324185
- 0.0
- 0.0
effort:
- -0.46844005584716797
- -28.683137893676758
- -0.1298636794090271
- 22.085737228393555
- 1.5728946924209595
- 2.2633821964263916
- 0.1472860723733902
- 0.0
- 0.0
---
header:
  stamp:
    sec: 1756281078
    nanosec: 547551176
  frame_id: ''
name:
- fr3_joint1
- fr3_joint2
- fr3_joint3
- fr3_joint4
- fr3_joint5
- fr3_joint6
- fr3_joint7
- fr3_finger_joint1
- fr3_finger_joint2
position:
- 0.1049916402885315
- -0.03918416654536277
- 0.22384105909302718
- -1.647171167929702
- 0.17979785609916263
- 1.5863867172362218
- 0.5836306540173966
- 0.0
- 0.0
velocity:
- -0.10336134586260537
- -0.04457900002739218
- 0.0413640263826481
- -0.02667430143472672
- 0.13398953374179842
- 0.05439966941093585
- 0.04838050156454004
- 0.0
- 0.0
effort:
- -0.543818473815918
- -28.810091018676758
- -0.1814383864402771
- 22.192853927612305
- 1.5921207666397095
- 2.2835237979888916
- 0.1738363653421402
- 0.0
- 0.0
---
header:
  stamp:
    sec: 1756281078
    nanosec: 580675931
  frame_id: ''
name:
- fr3_joint1
- fr3_joint2
- fr3_joint3
- fr3_joint4
- fr3_joint5
- fr3_joint6
- fr3_joint7
- fr3_finger_joint1
- fr3_finger_joint2
position:
- 0.10166583524014555
- -0.040611945879258746
- 0.225196128978504
- -1.6480034389900782
- 0.1843754598612898
- 1.5881392266099703
- 0.5851003812222164
- 0.0
- 0.0
velocity:
- -0.10198762805153339
- -0.04140424341880667
- 0.04159557723110578
- -0.021805302194580222
- 0.13600731250233786
- 0.05137943906151651
- 0.03926389185578804
- 0.0
- 0.0
effort:
- -0.571589469909668
- -28.810091018676758
- -0.1060599684715271
- 22.244428634643555
- 1.6049381494522095
- 2.2899324893951416
- 0.1939779669046402
- 0.0
- 0.0
---
header:
  stamp:
    sec: 1756281078
    nanosec: 613919976
  frame_id: ''
name:
- fr3_joint1
- fr3_joint2
- fr3_joint3
- fr3_joint4
- fr3_joint5
- fr3_joint6
- fr3_joint7
- fr3_finger_joint1
- fr3_finger_joint2
position:
- 0.09819622705035091
- -0.04204413964688656
- 0.2266611086486319
- -1.6487991464654757
- 0.18886513665685759
- 1.5899413331215992
- 0.5865572806243595
- 0.0
- 0.0
velocity:
- -0.10916894824798545
- -0.04366222472154746
- 0.04693776141536045
- -0.0234655668550914
- 0.13539593574915137
- 0.05511057402818716
- 0.04491917609074368
- 0.0
- 0.0
effort:
- -0.773921012878418
- -28.758516311645508
- -0.3639335036277771
- 22.244428634643555
- 1.6378971338272095
- 2.3228914737701416
- 0.1134115606546402
- 0.0
- 0.0
---
header:
  stamp:
    sec: 1756281078
    nanosec: 647737513
  frame_id: ''
name:
- fr3_joint1
- fr3_joint2
- fr3_joint3
- fr3_joint4
- fr3_joint5
- fr3_joint6
- fr3_joint7
- fr3_finger_joint1
- fr3_finger_joint2
position:
- 0.09459187933729173
- -0.04347201329942335
- 0.2282254022712523
- -1.6496517721164732
- 0.19333167835779602
- 1.5916935846814273
- 0.5879595181171331
- 0.0
- 0.0
velocity:
- -0.1075020174127406
- -0.044618901037209356
- 0.04675338101567499
- -0.027557127075728546
- 0.1314265360293749
- 0.05044720190838546
- 0.04285036209157817
- 0.0
- 0.0
effort:
- -0.900874137878418
- -28.837862014770508
- -0.4948539137840271
- 22.244428634643555
- 1.5591617822647095
- 2.3228914737701416
- 0.1060873419046402
- 0.0
- 0.0
---
header:
  stamp:
    sec: 1756281078
    nanosec: 680682493
  frame_id: ''
name:
- fr3_joint1
- fr3_joint2
- fr3_joint3
- fr3_joint4
- fr3_joint5
- fr3_joint6
- fr3_joint7
- fr3_finger_joint1
- fr3_finger_joint2
position:
- 0.09099783111941807
- -0.045052347425552294
- 0.22967187696380395
- -1.6505772935823246
- 0.19752225157118572
- 1.593436867136597
- 0.5894850208720884
- 0.0
- 0.0
velocity:
- -0.09905661390705907
- -0.04761604268661466
- 0.03726177944740392
- -0.026483389035699568
- 0.11988566748475434
- 0.053883734205322754
- 0.05169378861331078
- 0.0
- 0.0
effort:
- -0.36529064178466797
- -28.810091018676758
- 0.0248604416847229
- 22.192853927612305
- 1.6122623682022095
- 2.2963411808013916
- 0.1472860723733902
- 0.0
- 0.0
---
header:
  stamp:
    sec: 1756281078
    nanosec: 714090186
  frame_id: ''
name:
- fr3_joint1
- fr3_joint2
- fr3_joint3
- fr3_joint4
- fr3_joint5
- fr3_joint6
- fr3_joint7
- fr3_finger_joint1
- fr3_finger_joint2
position:
- 0.08756030569624494
- -0.04670112259335627
- 0.2309642154110775
- -1.6515246783881694
- 0.20185034670437085
- 1.5952226115079278
- 0.5912410079457222
- 0.0
- 0.0
velocity:
- -0.09956962267608682
- -0.04767575137224353
- 0.038044506940084315
- -0.02624345097213019
- 0.12953798057835275
- 0.05121021035445799
- 0.05295572591144807
- 0.0
- 0.0
effort:
- -0.26214122772216797
- -28.504610061645508
- 0.1280098557472229
- 22.216657638549805
- 1.6772648096084595
- 2.2899324893951416
- 0.1198202520608902
- 0.0
- 0.0
---
header:
  stamp:
    sec: 1756281078
    nanosec: 747594123
  frame_id: ''
name:
- fr3_joint1
- fr3_joint2
- fr3_joint3
- fr3_joint4
- fr3_joint5
- fr3_joint6
- fr3_joint7
- fr3_finger_joint1
- fr3_finger_joint2
position:
- 0.08408664592558193
- -0.04819395367613102
- 0.23234959412134912
- -1.6523120286317723
- 0.20612078185740598
- 1.5969909103074584
- 0.5929783597086542
- 0.0
- 0.0
velocity:
- -0.11487305129124283
- -0.0454283869982138
- 0.04738395842159744
- -0.023745299413187985
- 0.12974894843477158
- 0.05815504250696949
- 0.054991036433230826
- 0.0
- 0.0
effort:
- -0.619196891784668
- -28.429231643676758
- -0.2607840895652771
- 22.216657638549805
- 1.6708561182022095
- 2.3036653995513916
- 0.1939779669046402
- 0.0
- 0.0
---
header:
  stamp:
    sec: 1756281078
    nanosec: 780641205
  frame_id: ''
name:
- fr3_joint1
- fr3_joint2
- fr3_joint3
- fr3_joint4
- fr3_joint5
- fr3_joint6
- fr3_joint7
- fr3_finger_joint1
- fr3_finger_joint2
position:
- 0.0803323363811502
- -0.049661416548604904
- 0.23387149488007655
- -1.6530994321311567
- 0.21068424003317604
- 1.5988936912329788
- 0.5947143696919103
- 0.0
- 0.0
velocity:
- -0.11490499189044877
- -0.042052052952406306
- 0.04819324891846296
- -0.021980087721827447
- 0.14126803399299626
- 0.05183407059007735
- 0.051560766133838185
- 0.0
- 0.0
effort:
- -0.49224376678466797
- -28.377656936645508
- -0.2092093825340271
- 22.085737228393555
- 1.6644474267959595
- 2.2835237979888916
- 0.1536947637796402
- 0.0
- 0.0
---
header:
  stamp:
    sec: 1756281078
    nanosec: 813997333
  frame_id: ''
name:
- fr3_joint1
- fr3_joint2
- fr3_joint3
- fr3_joint4
- fr3_joint5
- fr3_joint6
- fr3_joint7
- fr3_finger_joint1
- fr3_finger_joint2
position:
- 0.07684861441771061
- -0.05107422937948766
- 0.23529217326357368
- -1.6539749133819395
- 0.21532896693223588
- 1.600779313714136
- 0.5966294469442063
- 0.0
- 0.0
velocity:
- -0.0952183847464724
- -0.04260829193718441
- 0.0419699368375302
- -0.026902669910781652
- 0.13263400070018136
- 0.05311054180288884
- 0.06042328057098528
- 0.0
- 0.0
effort:
- -0.44066905975341797
- -28.099946975708008
- -0.0782889723777771
- 22.061933517456055
- 1.6516300439834595
- 2.2761995792388916
- 0.1536947637796402
- 0.0
- 0.0
---
header:
  stamp:
    sec: 1756281078
    nanosec: 847732693
  frame_id: ''
name:
- fr3_joint1
- fr3_joint2
- fr3_joint3
- fr3_joint4
- fr3_joint5
- fr3_joint6
- fr3_joint7
- fr3_finger_joint1
- fr3_finger_joint2
position:
- 0.07363690626422448
- -0.05238606574430634
- 0.23668914655026924
- -1.654861550306542
- 0.21954264299926174
- 1.602535397158091
- 0.5985591830374736
- 0.0
- 0.0
velocity:
- -0.0981798920127571
- -0.04023163627010626
- 0.04435257672046329
- -0.026990664369842206
- 0.13385209816541016
- 0.05180460200136998
- 0.06417449397705897
- 0.0
- 0.0
effort:
- -0.49224376678466797
- -28.250703811645508
- -0.1814383864402771
- 22.113508224487305
- 1.6314884424209595
- 2.2963411808013916
- 0.1811605840921402
- 0.0
- 0.0
---
header:
  stamp:
    sec: 1756281078
    nanosec: 880636730
  frame_id: ''
name:
- fr3_joint1
- fr3_joint2
- fr3_joint3
- fr3_joint4
- fr3_joint5
- fr3_joint6
- fr3_joint7
- fr3_finger_joint1
- fr3_finger_joint2
position:
- 0.07004357457532796
- -0.05373353591519688
- 0.23833909629183117
- -1.6558467029513624
- 0.22425782462693636
- 1.6042522803919796
- 0.6004781199052581
- 0.0
- 0.0
velocity:
- -0.1075403336994099
- -0.04122939833369047
- 0.05141038064469949
- -0.027811622875250356
- 0.13566992852897514
- 0.04675036740594026
- 0.047149701855252864
- 0.0
- 0.0
effort:
- -0.750117301940918
- -28.226900100708008
- -0.5186576247215271
- 22.165082931518555
- 1.6516300439834595
- 2.2835237979888916
- 0.2013021856546402
- 0.0
- 0.0
---
header:
  stamp:
    sec: 1756281078
    nanosec: 914139742
  frame_id: ''
name:
- fr3_joint1
- fr3_joint2
- fr3_joint3
- fr3_joint4
- fr3_joint5
- fr3_joint6
- fr3_joint7
- fr3_finger_joint1
- fr3_finger_joint2
position:
- 0.06646277647293253
- -0.0551270884149201
- 0.23992679307720727
- -1.6568092494244904
- 0.22878648643883367
- 1.6058087750999488
- 0.6021284053170058
- 0.0
- 0.0
velocity:
- -0.10770775556188336
- -0.042547114839570674
- 0.04639759087460245
- -0.02826096661664041
- 0.13046627865572483
- 0.04375199587390383
- 0.05355664336690867
- 0.0
- 0.0
effort:
- -0.722346305847168
- -28.302278518676758
- -0.4155082106590271
- 22.403120040893555
- 1.6708561182022095
- 2.3164827823638916
- 0.2150350958108902
- 0.0
- 0.0
---
header:
  stamp:
    sec: 1756281078
    nanosec: 947781873
  frame_id: ''
name:
- fr3_joint1
- fr3_joint2
- fr3_joint3
- fr3_joint4
- fr3_joint5
- fr3_joint6
- fr3_joint7
- fr3_finger_joint1
- fr3_finger_joint2
position:
- 0.06323618305090747
- -0.05653800639322281
- 0.24124238335865383
- -1.6577172279371215
- 0.23301198416349217
- 1.6073014334685776
- 0.6035736591416815
- 0.0
- 0.0
velocity:
- -0.10050163460548472
- -0.04660354650441456
- 0.039770068805471556
- -0.030151077363911073
- 0.12575728903533592
- 0.04527846475018413
- 0.03618671354070961
- 0.0
- 0.0
effort:
- -0.543818473815918
- -28.429231643676758
- -0.2845878005027771
- 22.323774337768555
- 1.7230411767959595
- 2.3164827823638916
- 0.2489096075296402
- 0.0
- 0.0
---
header:
  stamp:
    sec: 1756281078
    nanosec: 980608779
  frame_id: ''
name:
- fr3_joint1
- fr3_joint2
- fr3_joint3
- fr3_joint4
- fr3_joint5
- fr3_joint6
- fr3_joint7
- fr3_finger_joint1
- fr3_finger_joint2
position:
- 0.05990082591330925
- -0.058160870983283715
- 0.242542853109204
- -1.6587906263561498
- 0.2371749374191464
- 1.608944509504248
- 0.6048481533711689
- 0.0
- 0.0
velocity:
- -0.1009140532518014
- -0.04862291235222783
- 0.04187495738861137
- -0.03261243979862587
- 0.12254801531076341
- 0.050127240320232296
- 0.03788092590197813
- 0.0
- 0.0
effort:
- -0.46844005584716797
- -28.377656936645508
- -0.1060599684715271
- 22.426923751831055
- 1.6974064111709595
- 2.3430330753326416
- 0.2013021856546402
- 0.0
- 0.0
---
header:
  stamp:
    sec: 1756281079
    nanosec: 13911617
  frame_id: ''
name:
- fr3_joint1
- fr3_joint2
- fr3_joint3
- fr3_joint4
- fr3_joint5
- fr3_joint6
- fr3_joint7
- fr3_finger_joint1
- fr3_finger_joint2
position:
- 0.056026051250895964
- -0.059919920330353704
- 0.2441662285155576
- -1.6598677437540377
- 0.2416029478218248
- 1.6107070352957134
- 0.6061650071032347
- 0.0
- 0.0
velocity:
- -0.11195853763932143
- -0.05244885141695382
- 0.04542560180661247
- -0.03061928232798623
- 0.13388943819169247
- 0.05033626431126034
- 0.03936536838243953
- 0.0
- 0.0
effort:
- -0.36529064178466797
- -27.893648147583008
- -0.1298636794090271
- 22.296003341674805
- 1.7166324853897095
- 2.3228914737701416
- 0.2013021856546402
- 0.0
- 0.0
---
header:
  stamp:
    sec: 1756281079
    nanosec: 47828093
  frame_id: ''
name:
- fr3_joint1
- fr3_joint2
- fr3_joint3
- fr3_joint4
- fr3_joint5
- fr3_joint6
- fr3_joint7
- fr3_finger_joint1
- fr3_finger_joint2
position:
- 0.05245004535534762
- -0.06156302268919324
- 0.24560775434656815
- -1.6607632779269494
- 0.24607805092426138
- 1.6124541824886474
- 0.6073796871153307
- 0.0
- 0.0
velocity:
- -0.10596459649354374
- -0.048479815871998656
- 0.04149818926758355
- -0.027032586308910922
- 0.13626407074222147
- 0.053110674217682376
- 0.04161494868209516
- 0.0
- 0.0
effort:
- -0.41686534881591797
- -27.818269729614258
- -0.1576346755027771
- 22.296003341674805
- 1.7166324853897095
- 2.3302156925201416
- 0.1536947637796402
- 0.0
- 0.0
---
header:
  stamp:
    sec: 1756281079
    nanosec: 80646254
  frame_id: ''
name:
- fr3_joint1
- fr3_joint2
- fr3_joint3
- fr3_joint4
- fr3_joint5
- fr3_joint6
- fr3_joint7
- fr3_finger_joint1
- fr3_finger_joint2
position:
- 0.049038719432156125
- -0.06314484193444825
- 0.24708085977267025
- -1.6615270958552206
- 0.2506431549772935
- 1.6143694354997131
- 0.6088213583763508
- 0.0
- 0.0
velocity:
- -0.10479245968260636
- -0.04525225963486343
- 0.04667866476983882
- -0.021462783772254024
- 0.13898292251280353
- 0.06123371854226456
- 0.04132985264501014
- 0.0
- 0.0
effort:
- -0.31371593475341797
- -27.794466018676758
- -0.1576346755027771
- 22.141279220581055
- 1.7230411767959595
- 2.2963411808013916
- 0.2415853887796402
- 0.0
- 0.0
---
header:
  stamp:
    sec: 1756281079
    nanosec: 113928787
  frame_id: ''
name:
- fr3_joint1
- fr3_joint2
- fr3_joint3
- fr3_joint4
- fr3_joint5
- fr3_joint6
- fr3_joint7
- fr3_finger_joint1
- fr3_finger_joint2
position:
- 0.045601586521228504
- -0.06466407145652729
- 0.24861819530630622
- -1.662305552940834
- 0.25515036216811177
- 1.6164812598635525
- 0.6102088201715037
- 0.0
- 0.0
velocity:
- -0.10832586802818689
- -0.04546506006036734
- 0.04970865777823662
- -0.023949004091926268
- 0.13209947608875944
- 0.0654531960460677
- 0.0425792277623254
- 0.0
- 0.0
effort:
- -0.750117301940918
- -27.592134475708008
- -0.5186576247215271
- 22.034162521362305
- 1.6900821924209595
- 2.2835237979888916
- 0.2351766973733902
- 0.0
- 0.0
---
header:
  stamp:
    sec: 1756281079
    nanosec: 147579566
  frame_id: ''
name:
- fr3_joint1
- fr3_joint2
- fr3_joint3
- fr3_joint4
- fr3_joint5
- fr3_joint6
- fr3_joint7
- fr3_finger_joint1
- fr3_finger_joint2
position:
- 0.042063806807672015
- -0.0661169276033507
- 0.25024419819863813
- -1.6632057574374262
- 0.2595474772784429
- 1.6185393570381448
- 0.6117865436158392
- 0.0
- 0.0
velocity:
- -0.10527479299185025
- -0.043953957395799964
- 0.04816709769523157
- -0.029519621429659096
- 0.1396446787718581
- 0.05902814381360721
- 0.052892218820712746
- 0.0
- 0.0
effort:
- -0.976252555847168
- -27.615938186645508
- -0.7765311598777771
- 22.141279220581055
- 1.6708561182022095
- 2.2963411808013916
- 0.269051194190979
- 0.0
- 0.0
---
header:
  stamp:
    sec: 1756281079
    nanosec: 180617953
  frame_id: ''
name:
- fr3_joint1
- fr3_joint2
- fr3_joint3
- fr3_joint4
- fr3_joint5
- fr3_joint6
- fr3_joint7
- fr3_finger_joint1
- fr3_finger_joint2
position:
- 0.038608397396938145
- -0.06757490879028662
- 0.25168991127868234
- -1.664197947382239
- 0.26410070826849413
- 1.6204912845093562
- 0.6135605596001243
- 0.0
- 0.0
velocity:
- -0.09551407448321388
- -0.04403460340959883
- 0.0371637714137032
- -0.02996264926086149
- 0.130519358366064
- 0.056338458406115934
- 0.055842859729528106
- 0.0
- 0.0
effort:
- -0.44066905975341797
- -27.465181350708008
- -0.3123587965965271
- 22.113508224487305
- 1.7495914697647095
- 2.2835237979888916
- 0.275459885597229
- 0.0
- 0.0
---
header:
  stamp:
    sec: 1756281079
    nanosec: 213884726
  frame_id: ''
name:
- fr3_joint1
- fr3_joint2
- fr3_joint3
- fr3_joint4
- fr3_joint5
- fr3_joint6
- fr3_joint7
- fr3_finger_joint1
- fr3_finger_joint2
position:
- 0.03528767647671935
- -0.069016399465319
- 0.2529954239875007
- -1.6652605395785987
- 0.26872267248222403
- 1.6224299564477136
- 0.6155574939054784
- 0.0
- 0.0
velocity:
- -0.09555931815795826
- -0.042473870670248944
- 0.0370754937829619
- -0.034429220715707747
- 0.1389858021155116
- 0.056001835594864255
- 0.0603993151917293
- 0.0
- 0.0
effort:
- -0.543818473815918
- -27.564363479614258
- -0.3917044997215271
- 22.272199630737305
- 1.7294498682022095
- 2.2835237979888916
- 0.2150350958108902
- 0.0
- 0.0
---
header:
  stamp:
    sec: 1756281079
    nanosec: 247540585
  frame_id: ''
name:
- fr3_joint1
- fr3_joint2
- fr3_joint3
- fr3_joint4
- fr3_joint5
- fr3_joint6
- fr3_joint7
- fr3_finger_joint1
- fr3_finger_joint2
position:
- 0.031918310736626605
- -0.07045254004107832
- 0.25431054947432247
- -1.666319192663199
- 0.27312471640768665
- 1.6241611191444476
- 0.6172657701428671
- 0.0
- 0.0
velocity:
- -0.11321618002468084
- -0.045711708834930545
- 0.046027339064155216
- -0.033980086346340456
- 0.13107970557164153
- 0.052952942245886675
- 0.05160313289277027
- 0.0
- 0.0
effort:
- -0.773921012878418
- -27.719087600708008
- -0.6495780348777771
- 22.296003341674805
- 1.6772648096084595
- 2.2835237979888916
- 0.2150350958108902
- 0.0
- 0.0
---
header:
  stamp:
    sec: 1756281079
    nanosec: 280631250
  frame_id: ''
name:
- fr3_joint1
- fr3_joint2
- fr3_joint3
- fr3_joint4
- fr3_joint5
- fr3_joint6
- fr3_joint7
- fr3_finger_joint1
- fr3_finger_joint2
position:
- 0.028128508218736286
- -0.07207779118068659
- 0.2557654199869092
- -1.6675583010062571
- 0.27734691233122166
- 1.6258144695279324
- 0.6191133812240612
- 0.0
- 0.0
velocity:
- -0.1130860343958752
- -0.05007717555453334
- 0.04574872159633604
- -0.03819415596189669
- 0.1260217215284843
- 0.04838334336852412
- 0.04952256506134644
- 0.0
- 0.0
effort:
- -0.646967887878418
- -27.639741897583008
- -0.4948539137840271
- 22.403120040893555
- 1.7367740869522095
- 2.3366243839263916
- 0.295601487159729
- 0.0
- 0.0
---
header:
  stamp:
    sec: 1756281079
    nanosec: 313935146
  frame_id: ''
name:
- fr3_joint1
- fr3_joint2
- fr3_joint3
- fr3_joint4
- fr3_joint5
- fr3_joint6
- fr3_joint7
- fr3_finger_joint1
- fr3_finger_joint2
position:
- 0.024560167277075735
- -0.07369513923911784
- 0.2571169553187133
- -1.6686890874925486
- 0.2818006818420144
- 1.6274973494353313
- 0.6208270479421963
- 0.0
- 0.0
velocity:
- -0.09867384125135638
- -0.04682540846424544
- 0.04112294097714887
- -0.029245490303049838
- 0.13410556130820767
- 0.05183210728258481
- 0.05020230903144378
- 0.0
- 0.0
effort:
- -0.36529064178466797
- -27.362031936645508
- -0.2092093825340271
- 22.351545333862305
- 1.7560001611709595
- 2.3366243839263916
- 0.269051194190979
- 0.0
- 0.0
---
header:
  stamp:
    sec: 1756281079
    nanosec: 347705218
  frame_id: ''
name:
- fr3_joint1
- fr3_joint2
- fr3_joint3
- fr3_joint4
- fr3_joint5
- fr3_joint6
- fr3_joint7
- fr3_finger_joint1
- fr3_finger_joint2
position:
- 0.021205308740243466
- -0.07508944795582048
- 0.2585437582173184
- -1.6696110308862886
- 0.2860974151216772
- 1.629159573335652
- 0.6224705434294702
- 0.0
- 0.0
velocity:
- -0.10201684256723784
- -0.041310443068906626
- 0.046730960293334664
- -0.029285747596496506
- 0.1305477402771825
- 0.052511927994878006
- 0.04642609010018907
- 0.0
- 0.0
effort:
- -0.39306163787841797
- -27.310457229614258
- -0.3639335036277771
- 22.296003341674805
- 1.7752262353897095
- 2.2963411808013916
- 0.295601487159729
- 0.0
- 0.0
---
header:
  stamp:
    sec: 1756281079
    nanosec: 380751655
  frame_id: ''
name:
- fr3_joint1
- fr3_joint2
- fr3_joint3
- fr3_joint4
- fr3_joint5
- fr3_joint6
- fr3_joint7
- fr3_finger_joint1
- fr3_finger_joint2
position:
- 0.017547780897826014
- -0.07643875144058512
- 0.2601988333699877
- -1.670433978898684
- 0.2908011914817028
- 1.6309200596018196
- 0.6240300971235322
- 0.0
- 0.0
velocity:
- -0.11048969761335907
- -0.04026418098428868
- 0.05149882816279462
- -0.02336381778382254
- 0.14124350627747492
- 0.05432171536985081
- 0.04354856888247024
- 0.0
- 0.0
effort:
- -0.646967887878418
- -27.258882522583008
- -0.5980033278465271
- 22.113508224487305
- 1.7038151025772095
- 2.2761995792388916
- 0.295601487159729
- 0.0
- 0.0
---
header:
  stamp:
    sec: 1756281079
    nanosec: 413892128
  frame_id: ''
name:
- fr3_joint1
- fr3_joint2
- fr3_joint3
- fr3_joint4
- fr3_joint5
- fr3_joint6
- fr3_joint7
- fr3_finger_joint1
- fr3_finger_joint2
position:
- 0.013958261076803747
- -0.0777764142676235
- 0.26178894626712373
- -1.671318623740241
- 0.2953044382645201
- 1.632686262604267
- 0.6255621262548217
- 0.0
- 0.0
velocity:
- -0.10388511137618449
- -0.039793617163850506
- 0.04582190124126057
- -0.02608175218607124
- 0.1289279291581304
- 0.05532477207536936
- 0.04723283784090735
- 0.0
- 0.0
effort:
- -0.619196891784668
- -27.056550979614258
- -0.6218070387840271
- 22.165082931518555
- 1.7431827783584595
- 2.3036653995513916
- 0.289192795753479
- 0.0
- 0.0
---
header:
  stamp:
    sec: 1756281079
    nanosec: 447266062
  frame_id: ''
name:
- fr3_joint1
- fr3_joint2
- fr3_joint3
- fr3_joint4
- fr3_joint5
- fr3_joint6
- fr3_joint7
- fr3_finger_joint1
- fr3_finger_joint2
position:
- 0.010742297128287124
- -0.07909966917495306
- 0.26308355005405437
- -1.6722908595998864
- 0.2996061235268879
- 1.634530718545527
- 0.6270829470995497
- 0.0
- 0.0
velocity:
- -0.10135644524920663
- -0.04169413505417412
- 0.040147121759435266
- -0.03140589946247753
- 0.13756649966224022
- 0.05562978047482285
- 0.04487472662158386
- 0.0
- 0.0
effort:
- -0.543818473815918
- -27.286653518676758
- -0.4432792067527771
- 22.296003341674805
- 1.7825504541397095
- 2.3036653995513916
- 0.261726975440979
- 0.0
- 0.0
---
header:
  stamp:
    sec: 1756281079
    nanosec: 480668715
  frame_id: ''
name:
- fr3_joint1
- fr3_joint2
- fr3_joint3
- fr3_joint4
- fr3_joint5
- fr3_joint6
- fr3_joint7
- fr3_finger_joint1
- fr3_finger_joint2
position:
- 0.007415490201112212
- -0.08047040624440209
- 0.2644148946196273
- -1.6732888135622135
- 0.30410658515757377
- 1.6364987098434742
- 0.6285721120937791
- 0.0
- 0.0
velocity:
- -0.10057803791109575
- -0.041314428389035124
- 0.04202073202817687
- -0.026147484010520354
- 0.13014143100112746
- 0.06153644977261457
- 0.04636001086417246
- 0.0
- 0.0
effort:
- -0.571589469909668
- -27.362031936645508
- -0.5464286208152771
- 22.244428634643555
- 1.7688175439834595
- 2.2963411808013916
- 0.255318284034729
- 0.0
- 0.0
---
header:
  stamp:
    sec: 1756281079
    nanosec: 514591956
  frame_id: ''
name:
- fr3_joint1
- fr3_joint2
- fr3_joint3
- fr3_joint4
- fr3_joint5
- fr3_joint6
- fr3_joint7
- fr3_finger_joint1
- fr3_finger_joint2
position:
- 0.0039243108368594475
- -0.08178324338296182
- 0.26588633953426855
- -1.674106745093929
- 0.3082474751469787
- 1.6382609258194891
- 0.6299809270950438
- 0.0
- 0.0
velocity:
- -0.10763958732456627
- -0.04277969370963016
- 0.044519500603668154
- -0.023108333008258812
- 0.13166333106791236
- 0.05323543925750995
- 0.042798005779784834
- 0.0
- 0.0
effort:
- -0.520014762878418
- -27.183504104614258
- -0.5464286208152771
- 22.323774337768555
- 1.7752262353897095
- 2.2835237979888916
- 0.269051194190979
- 0.0
- 0.0
---
header:
  stamp:
    sec: 1756281079
    nanosec: 547267727
  frame_id: ''
name:
- fr3_joint1
- fr3_joint2
- fr3_joint3
- fr3_joint4
- fr3_joint5
- fr3_joint6
- fr3_joint7
- fr3_finger_joint1
- fr3_finger_joint2
position:
- 0.0001448022035984221
- -0.08333176935396697
- 0.267407256546655
- -1.6749221711799795
- 0.3128516963276106
- 1.6401514293537351
- 0.631559937346971
- 0.0
- 0.0
velocity:
- -0.10198621522020179
- -0.046509304682480795
- 0.038025415984764645
- -0.024135158864053062
- 0.12739387990503465
- 0.056355808824819706
- 0.04794546373006503
- 0.0
- 0.0
effort:
- -0.46844005584716797
- -27.286653518676758
- -0.4948539137840271
- 22.403120040893555
- 1.7825504541397095
- 2.3100740909576416
- 0.316658616065979
- 0.0
- 0.0
---
header:
  stamp:
    sec: 1756281079
    nanosec: 580720754
  frame_id: ''
name:
- fr3_joint1
- fr3_joint2
- fr3_joint3
- fr3_joint4
- fr3_joint5
- fr3_joint6
- fr3_joint7
- fr3_finger_joint1
- fr3_finger_joint2
position:
- -0.003266273885067712
- -0.08506247988226409
- 0.2687944153339878
- -1.6758073289996118
- 0.31716772160766354
- 1.6418844328606277
- 0.633225352503581
- 0.0
- 0.0
velocity:
- -0.10735705025230706
- -0.056297769381366984
- 0.043445865282810754
- -0.028098960661191122
- 0.1286934617769964
- 0.04908506079877181
- 0.05049537917236231
- 0.0
- 0.0
effort:
- -0.36529064178466797
- -27.385835647583008
- -0.3917044997215271
- 22.351545333862305
- 1.7889591455459595
- 2.3228914737701416
- 0.316658616065979
- 0.0
- 0.0
---
header:
  stamp:
    sec: 1756281079
    nanosec: 613916330
  frame_id: ''
name:
- fr3_joint1
- fr3_joint2
- fr3_joint3
- fr3_joint4
- fr3_joint5
- fr3_joint6
- fr3_joint7
- fr3_finger_joint1
- fr3_finger_joint2
position:
- -0.0068255159949850335
- -0.086928901603717
- 0.27032944090082694
- -1.676655370355745
- 0.32156009525491175
- 1.6435403463995417
- 0.635104167038524
- 0.0
- 0.0
velocity:
- -0.11178450316530353
- -0.05455841946467938
- 0.05189780604223521
- -0.02184084119655166
- 0.13317778375607095
- 0.045520298604588665
- 0.06463240541741307
- 0.0
- 0.0
effort:
- -0.595393180847168
- -26.854219436645508
- -0.6495780348777771
- 22.244428634643555
- 1.7752262353897095
- 2.3366243839263916
- 0.2150350958108902
- 0.0
- 0.0
---
header:
  stamp:
    sec: 1756281079
    nanosec: 647746803
  frame_id: ''
name:
- fr3_joint1
- fr3_joint2
- fr3_joint3
- fr3_joint4
- fr3_joint5
- fr3_joint6
- fr3_joint7
- fr3_finger_joint1
- fr3_finger_joint2
position:
- -0.010470843655355536
- -0.08864992482706985
- 0.27198174900998495
- -1.6773391483269022
- 0.3260679847493285
- 1.6451250763559082
- 0.6371280178859362
- 0.0
- 0.0
velocity:
- -0.10850968307814032
- -0.05050411648900619
- 0.049587581274751664
- -0.021732753894438846
- 0.14063360257002533
- 0.04734433333893504
- 0.057872471135121284
- 0.0
- 0.0
effort:
- -0.750117301940918
- -26.445589065551758
- -0.8043021559715271
- 22.141279220581055
- 1.7230411767959595
- 2.3164827823638916
- 0.316658616065979
- 0.0
- 0.0
---
header:
  stamp:
    sec: 1756281079
    nanosec: 680638475
  frame_id: ''
name:
- fr3_joint1
- fr3_joint2
- fr3_joint3
- fr3_joint4
- fr3_joint5
- fr3_joint6
- fr3_joint7
- fr3_finger_joint1
- fr3_finger_joint2
position:
- -0.013983522937297418
- -0.09032301531348126
- 0.2735019185053321
- -1.6780970249944167
- 0.3306843043674021
- 1.6468491975815482
- 0.6391739203996611
- 0.0
- 0.0
velocity:
- -0.09461167390289892
- -0.04791752196897038
- 0.03882987457918956
- -0.02476525714555622
- 0.13269615298076748
- 0.0517601609899965
- 0.05260163619623569
- 0.0
- 0.0
effort:
- -0.41686534881591797
- -26.318635940551758
- -0.4432792067527771
- 22.085737228393555
- 1.7953678369522095
- 2.2899324893951416
- 0.289192795753479
- 0.0
- 0.0
---
header:
  stamp:
    sec: 1756281079
    nanosec: 714250440
  frame_id: ''
name:
- fr3_joint1
- fr3_joint2
- fr3_joint3
- fr3_joint4
- fr3_joint5
- fr3_joint6
- fr3_joint7
- fr3_finger_joint1
- fr3_finger_joint2
position:
- -0.017270027418772087
- -0.09185589089733853
- 0.27488526557917164
- -1.6788613443113172
- 0.33514265281414907
- 1.648605576960527
- 0.6408064648089524
- 0.0
- 0.0
velocity:
- -0.09476772125203703
- -0.04364554938627321
- 0.038605809695023405
- -0.024003702564041607
- 0.13189865400544168
- 0.05567860150653925
- 0.050839126849246956
- 0.0
- 0.0
effort:
- -0.41686534881591797
- -26.370210647583008
- -0.5702323317527771
- 22.034162521362305
- 1.7431827783584595
- 2.3036653995513916
- 0.255318284034729
- 0.0
- 0.0
---
header:
  stamp:
    sec: 1756281079
    nanosec: 747297483
  frame_id: ''
name:
- fr3_joint1
- fr3_joint2
- fr3_joint3
- fr3_joint4
- fr3_joint5
- fr3_joint6
- fr3_joint7
- fr3_finger_joint1
- fr3_finger_joint2
position:
- -0.020599509544305596
- -0.09326206899473623
- 0.27627960338591906
- -1.67971958149974
- 0.33957278729281154
- 1.6503525665412246
- 0.6424069462980212
- 0.0
- 0.0
velocity:
- -0.10884570083595677
- -0.043175281930052975
- 0.04485234403239465
- -0.030033399905638466
- 0.13654455814417787
- 0.054938786172756666
- 0.044573477693269636
- 0.0
- 0.0
effort:
- -0.750117301940918
- -26.370210647583008
- -0.8796805739402771
- 22.085737228393555
- 1.7825504541397095
- 2.3036653995513916
- 0.275459885597229
- 0.0
- 0.0
---
header:
  stamp:
    sec: 1756281079
    nanosec: 780764110
  frame_id: ''
name:
- fr3_joint1
- fr3_joint2
- fr3_joint3
- fr3_joint4
- fr3_joint5
- fr3_joint6
- fr3_joint7
- fr3_finger_joint1
- fr3_finger_joint2
position:
- -0.024273789663465013
- -0.09473523018301808
- 0.2777662340102535
- -1.680773489134065
- 0.34409560667335315
- 1.6521202160425297
- 0.6437504552508191
- 0.0
- 0.0
velocity:
- -0.11218274558270028
- -0.04401711060740398
- 0.045431037401602016
- -0.031567908172039846
- 0.13722600495960519
- 0.05020078452063157
- 0.041714982388410725
- 0.0
- 0.0
effort:
- -0.619196891784668
- -26.318635940551758
- -0.7765311598777771
- 22.272199630737305
- 1.7752262353897095
- 2.3503572940826416
- 0.269051194190979
- 0.0
- 0.0
---
header:
  stamp:
    sec: 1756281079
    nanosec: 813891723
  frame_id: ''
name:
- fr3_joint1
- fr3_joint2
- fr3_joint3
- fr3_joint4
- fr3_joint5
- fr3_joint6
- fr3_joint7
- fr3_finger_joint1
- fr3_finger_joint2
position:
- -0.027756669192927557
- -0.09616556838781931
- 0.27914623301066177
- -1.6818033114266147
- 0.3487081326640999
- 1.6539131554277706
- 0.6451988854373545
- 0.0
- 0.0
velocity:
- -0.09762062530865416
- -0.042848173152335946
- 0.03812641901933769
- -0.0277331698910766
- 0.13649509587224495
- 0.05337223903621101
- 0.048081234099148704
- 0.0
- 0.0
effort:
- -0.46844005584716797
- -26.497163772583008
- -0.6495780348777771
- 22.272199630737305
- 1.7560001611709595
- 2.3164827823638916
- 0.261726975440979
- 0.0
- 0.0
---
header:
  stamp:
    sec: 1756281079
    nanosec: 847792707
  frame_id: ''
name:
- fr3_joint1
- fr3_joint2
- fr3_joint3
- fr3_joint4
- fr3_joint5
- fr3_joint6
- fr3_joint7
- fr3_finger_joint1
- fr3_finger_joint2
position:
- -0.03100682381373141
- -0.09758117237629191
- 0.2804919851057783
- -1.682812360687471
- 0.35289529237538836
- 1.655714581868282
- 0.6466443405561788
- 0.0
- 0.0
velocity:
- -0.09980087916640086
- -0.044288617925943054
- 0.04242469441200701
- -0.02959683690534426
- 0.12641579679062306
- 0.059279089922539975
- 0.043979642384663134
- 0.0
- 0.0
effort:
- -0.571589469909668
- -26.600313186645508
- -0.7527274489402771
- 22.403120040893555
- 1.7431827783584595
- 2.3366243839263916
- 0.343208909034729
- 0.0
- 0.0
---
header:
  stamp:
    sec: 1756281079
    nanosec: 880809770
  frame_id: ''
name:
- fr3_joint1
- fr3_joint2
- fr3_joint3
- fr3_joint4
- fr3_joint5
- fr3_joint6
- fr3_joint7
- fr3_finger_joint1
- fr3_finger_joint2
position:
- -0.03469087483494031
- -0.09911793609929677
- 0.28210641538457937
- -1.683766098338405
- 0.35712310862552854
- 1.6577081797549778
- 0.6482206589545255
- 0.0
- 0.0
velocity:
- -0.11239705916330263
- -0.04633726951973819
- 0.04937239875211866
- -0.028188981189779135
- 0.13042166483538378
- 0.05782015113895732
- 0.046172035153792174
- 0.0
- 0.0
effort:
- -0.670771598815918
- -26.394014358520508
- -0.8796805739402771
- 22.296003341674805
- 1.8145939111709595
- 2.3302156925201416
- 0.275459885597229
- 0.0
- 0.0
---
header:
  stamp:
    sec: 1756281079
    nanosec: 914054377
  frame_id: ''
name:
- fr3_joint1
- fr3_joint2
- fr3_joint3
- fr3_joint4
- fr3_joint5
- fr3_joint6
- fr3_joint7
- fr3_finger_joint1
- fr3_finger_joint2
position:
- -0.038402785559999986
- -0.10067674797825946
- 0.28371870371987773
- -1.684692644066774
- 0.3616417739626538
- 1.659756521952693
- 0.6496923047548615
- 0.0
- 0.0
velocity:
- -0.1109067597798693
- -0.047167903654719734
- 0.047355259999822416
- -0.02744980614699832
- 0.13527360843692052
- 0.06027852961513292
- 0.043844731540521216
- 0.0
- 0.0
effort:
- -0.595393180847168
- -26.167879104614258
- -0.8796805739402771
- 22.192853927612305
- 1.7825504541397095
- 2.3164827823638916
- 0.329475998878479
- 0.0
- 0.0
---
header:
  stamp:
    sec: 1756281079
    nanosec: 947389024
  frame_id: ''
name:
- fr3_joint1
- fr3_joint2
- fr3_joint3
- fr3_joint4
- fr3_joint5
- fr3_joint6
- fr3_joint7
- fr3_finger_joint1
- fr3_finger_joint2
position:
- -0.0416603912432498
- -0.10212463967571274
- 0.2850221825064464
- -1.6855999829088808
- 0.36592859862746563
- 1.6616511533575558
- 0.6512882219459141
- 0.0
- 0.0
velocity:
- -0.09950218362445166
- -0.044671780624284535
- 0.03954298288842121
- -0.029680067787251022
- 0.13356022939727452
- 0.053482297637575525
- 0.053420019758982216
- 0.0
- 0.0
effort:
- -0.543818473815918
- -25.961580276489258
- -0.8043021559715271
- 22.085737228393555
- 1.7825504541397095
- 2.2963411808013916
- 0.282784104347229
- 0.0
- 0.0
---
header:
  stamp:
    sec: 1756281079
    nanosec: 980662323
  frame_id: ''
name:
- fr3_joint1
- fr3_joint2
- fr3_joint3
- fr3_joint4
- fr3_joint5
- fr3_joint6
- fr3_joint7
- fr3_finger_joint1
- fr3_finger_joint2
position:
- -0.04500143324209943
- -0.1035376766658615
- 0.2863342834414467
- -1.6865205377295107
- 0.37060522485518294
- 1.6635081471601794
- 0.6530213608214841
- 0.0
- 0.0
velocity:
- -0.10276259027175577
- -0.039808989661171565
- 0.04332487954997043
- -0.027130128400290623
- 0.13430091169762776
- 0.053853238068916405
- 0.0530072822156878
- 0.0
- 0.0
effort:
- -0.44066905975341797
- -25.961580276489258
- -0.7765311598777771
- 22.141279220581055
- 1.8017765283584595
- 2.3036653995513916
- 0.329475998878479
- 0.0
- 0.0
---
header:
  stamp:
    sec: 1756281080
    nanosec: 13929632
  frame_id: ''
name:
- fr3_joint1
- fr3_joint2
- fr3_joint3
- fr3_joint4
- fr3_joint5
- fr3_joint6
- fr3_joint7
- fr3_finger_joint1
- fr3_finger_joint2
position:
- -0.04875701079485546
- -0.1048943748527845
- 0.28790786129736606
- -1.6874212867330112
- 0.3750966798022678
- 1.6652093915784
- 0.6548862059728455
- 0.0
- 0.0
velocity:
- -0.10521966427441197
- -0.038316649912537866
- 0.042377075444216754
- -0.023570348872505028
- 0.13147601709863033
- 0.050701826477514776
- 0.05858797833403462
- 0.0
- 0.0
effort:
- -0.543818473815918
- -26.064729690551758
- -0.8796805739402771
- 22.323774337768555
- 1.8475528955459595
- 2.3366243839263916
- 0.255318284034729
- 0.0
- 0.0
---
header:
  stamp:
    sec: 1756281080
    nanosec: 47707644
  frame_id: ''
name:
- fr3_joint1
- fr3_joint2
- fr3_joint3
- fr3_joint4
- fr3_joint5
- fr3_joint6
- fr3_joint7
- fr3_finger_joint1
- fr3_finger_joint2
position:
- -0.05224665806508776
- -0.10619674117446942
- 0.2893061398206945
- -1.6883175254314298
- 0.37959754904297305
- 1.6669168400301475
- 0.6566054621808248
- 0.0
- 0.0
velocity:
- -0.10388492865610344
- -0.04126001973592944
- 0.03824901692454987
- -0.02982567159035996
- 0.1368471182434237
- 0.053020362949672224
- 0.056553326651031216
- 0.0
- 0.0
effort:
- -0.46844005584716797
- -25.910005569458008
- -0.7249564528465271
- 22.272199630737305
- 1.8017765283584595
- 2.2899324893951416
- 0.377083420753479
- 0.0
- 0.0
---
header:
  stamp:
    sec: 1756281080
    nanosec: 80654921
  frame_id: ''
name:
- fr3_joint1
- fr3_joint2
- fr3_joint3
- fr3_joint4
- fr3_joint5
- fr3_joint6
- fr3_joint7
- fr3_finger_joint1
- fr3_finger_joint2
position:
- -0.055623025979459735
- -0.10764644205176613
- 0.29068848274185277
- -1.6893343872070274
- 0.3841077807386045
- 1.6686875120752362
- 0.6586897751093085
- 0.0
- 0.0
velocity:
- -0.10227093936225126
- -0.04502621944388322
- 0.043244301578868646
- -0.031900652859954026
- 0.13031502475046627
- 0.0544951801211875
- 0.05564372300966427
- 0.0
- 0.0
effort:
- -0.49224376678466797
- -25.989351272583008
- -0.8043021559715271
- 22.216657638549805
- 1.7889591455459595
- 2.2899324893951416
- 0.309334397315979
- 0.0
- 0.0
---
header:
  stamp:
    sec: 1756281080
    nanosec: 113951153
  frame_id: ''
name:
- fr3_joint1
- fr3_joint2
- fr3_joint3
- fr3_joint4
- fr3_joint5
- fr3_joint6
- fr3_joint7
- fr3_finger_joint1
- fr3_finger_joint2
position:
- -0.059109215340030004
- -0.10918949261091511
- 0.29218190739589267
- -1.69039806659278
- 0.38852976712532206
- 1.670482108301566
- 0.6605048007694494
- 0.0
- 0.0
velocity:
- -0.10967032074195676
- -0.04618970415139591
- 0.0454576459331691
- -0.030745733439469482
- 0.13347023481151493
- 0.05121091862012047
- 0.05461807328341863
- 0.0
- 0.0
effort:
- -0.670771598815918
- -26.013154983520508
- -0.9590262770652771
- 22.351545333862305
- 1.8017765283584595
- 2.3036653995513916
- 0.295601487159729
- 0.0
- 0.0
---
header:
  stamp:
    sec: 1756281080
    nanosec: 147289426
  frame_id: ''
name:
- fr3_joint1
- fr3_joint2
- fr3_joint3
- fr3_joint4
- fr3_joint5
- fr3_joint6
- fr3_joint7
- fr3_finger_joint1
- fr3_finger_joint2
position:
- -0.0627177506867487
- -0.11082206749823986
- 0.2938039042735776
- -1.6914517387988435
- 0.3927700560509588
- 1.6721246384358566
- 0.6621239671803143
- 0.0
- 0.0
velocity:
- -0.10873877799792239
- -0.05273137657031107
- 0.0444989817400086
- -0.03169872183341064
- 0.1294611838702976
- 0.05051489023138682
- 0.04316436363144999
- 0.0
- 0.0
effort:
- -0.900874137878418
- -25.961580276489258
- -1.2168998718261719
- 22.534040451049805
- 1.8145939111709595
- 2.3164827823638916
- 0.377083420753479
- 0.0
- 0.0
---
header:
  stamp:
    sec: 1756281080
    nanosec: 180601920
  frame_id: ''
name:
- fr3_joint1
- fr3_joint2
- fr3_joint3
- fr3_joint4
- fr3_joint5
- fr3_joint6
- fr3_joint7
- fr3_finger_joint1
- fr3_finger_joint2
position:
- -0.0662840623526511
- -0.11255164810033338
- 0.2952948184001906
- -1.6924827537138636
- 0.39702984693057275
- 1.6738515847840043
- 0.6636729195180096
- 0.0
- 0.0
velocity:
- -0.10152739037867543
- -0.05055949150754522
- 0.04151013845604483
- -0.027671132465922996
- 0.13118230140013062
- 0.04958498492280942
- 0.04261785465559054
- 0.0
- 0.0
effort:
- -0.36529064178466797
- -25.453767776489258
- -0.7527274489402771
- 22.085737228393555
- 1.8347355127334595
- 2.2963411808013916
- 0.329475998878479
- 0.0
- 0.0
---
header:
  stamp:
    sec: 1756281080
    nanosec: 214025928
  frame_id: ''
name:
- fr3_joint1
- fr3_joint2
- fr3_joint3
- fr3_joint4
- fr3_joint5
- fr3_joint6
- fr3_joint7
- fr3_finger_joint1
- fr3_finger_joint2
position:
- -0.06968687868443098
- -0.11425879976427702
- 0.2966803265066781
- -1.6935010756218245
- 0.40158406862240464
- 1.6757399372778639
- 0.6651856281361515
- 0.0
- 0.0
velocity:
- -0.09894550164694844
- -0.05137888636032758
- 0.04124161075734223
- -0.03293785030242742
- 0.13472251975741792
- 0.06170073411486105
- 0.04259333493744248
- 0.0
- 0.0
effort:
- -0.31371593475341797
- -25.378389358520508
- -0.7011527419090271
- 22.141279220581055
- 1.8603702783584595
- 2.2633821964263916
- 0.255318284034729
- 0.0
- 0.0
---
header:
  stamp:
    sec: 1756281080
    nanosec: 247260999
  frame_id: ''
name:
- fr3_joint1
- fr3_joint2
- fr3_joint3
- fr3_joint4
- fr3_joint5
- fr3_joint6
- fr3_joint7
- fr3_finger_joint1
- fr3_finger_joint2
position:
- -0.0730981334834121
- -0.11579899747244272
- 0.2981090268111244
- -1.6944582875177856
- 0.4059284575777612
- 1.677581045547687
- 0.6666175177197442
- 0.0
- 0.0
velocity:
- -0.11430651742981951
- -0.047885544785511186
- 0.0472808838129681
- -0.030187546818612822
- 0.13285501542801711
- 0.05586995585097415
- 0.042975266694711585
- 0.0
- 0.0
effort:
- -0.595393180847168
- -25.303010940551758
- -1.0106010437011719
- 22.165082931518555
- 1.8805118799209595
- 2.2899324893951416
- 0.255318284034729
- 0.0
- 0.0
---
header:
  stamp:
    sec: 1756281080
    nanosec: 280711430
  frame_id: ''
name:
- fr3_joint1
- fr3_joint2
- fr3_joint3
- fr3_joint4
- fr3_joint5
- fr3_joint6
- fr3_joint7
- fr3_finger_joint1
- fr3_finger_joint2
position:
- -0.07683984254614981
- -0.1172394183231439
- 0.29969799173805284
- -1.6954080644843208
- 0.4104696907895099
- 1.6793889484878717
- 0.6681735974659635
- 0.0
- 0.0
velocity:
- -0.11305941839364551
- -0.042305098065620446
- 0.04688360215708463
- -0.029162872381798613
- 0.1359177175402413
- 0.0545560263492085
- 0.04981805665553441
- 0.0
- 0.0
effort:
- -0.46844005584716797
- -25.303010940551758
- -0.8796805739402771
- 22.216657638549805
- 1.8539615869522095
- 2.3100740909576416
- 0.269051194190979
- 0.0
- 0.0
---
header:
  stamp:
    sec: 1756281080
    nanosec: 314646143
  frame_id: ''
name:
- fr3_joint1
- fr3_joint2
- fr3_joint3
- fr3_joint4
- fr3_joint5
- fr3_joint6
- fr3_joint7
- fr3_finger_joint1
- fr3_finger_joint2
position:
- -0.08022809932351946
- -0.11863176410543931
- 0.30109048118694953
- -1.696366064957342
- 0.4150041103164968
- 1.6811707690192175
- 0.6698912470693094
- 0.0
- 0.0
velocity:
- -0.0933928179955555
- -0.04074956420666059
- 0.03941973112925746
- -0.027340518917887274
- 0.13469563549768093
- 0.05122823274385387
- 0.052061014470523
- 0.0
- 0.0
effort:
- -0.571589469909668
- -25.350618362426758
- -0.9074515700340271
- 22.216657638549805
- 1.8676944971084595
- 2.3036653995513916
- 0.302925705909729
- 0.0
- 0.0
---
header:
  stamp:
    sec: 1756281080
    nanosec: 347299865
  frame_id: ''
name:
- fr3_joint1
- fr3_joint2
- fr3_joint3
- fr3_joint4
- fr3_joint5
- fr3_joint6
- fr3_joint7
- fr3_finger_joint1
- fr3_finger_joint2
position:
- -0.08340496450271181
- -0.11994562004153908
- 0.3024564455890237
- -1.6973093953934
- 0.4194536189930136
- 1.6828520452364149
- 0.6716620688357127
- 0.0
- 0.0
velocity:
- -0.09766043313103984
- -0.04021585540628004
- 0.0399336560747607
- -0.03113021559588812
- 0.1333574188313725
- 0.05162996876965676
- 0.05491740597912023
- 0.0
- 0.0
effort:
- -0.619196891784668
- -25.429964065551758
- -1.0621757507324219
- 22.272199630737305
- 1.8741031885147095
- 2.2697908878326416
- 0.343208909034729
- 0.0
- 0.0
---
header:
  stamp:
    sec: 1756281080
    nanosec: 380759472
  frame_id: ''
name:
- fr3_joint1
- fr3_joint2
- fr3_joint3
- fr3_joint4
- fr3_joint5
- fr3_joint6
- fr3_joint7
- fr3_finger_joint1
- fr3_finger_joint2
position:
- -0.08702042372241853
- -0.1213607651149054
- 0.3040964998951716
- -1.6983354988930568
- 0.4239709423322831
- 1.6844125278145472
- 0.6734781278471477
- 0.0
- 0.0
velocity:
- -0.1095358141679731
- -0.04291628426016034
- 0.050098011002649406
- -0.030183904092940264
- 0.133998045120126
- 0.04499785062561234
- 0.0523202571554759
- 0.0
- 0.0
effort:
- -0.773921012878418
- -25.251436233520508
- -1.2962455749511719
- 22.323774337768555
- 1.8805118799209595
- 2.2899324893951416
- 0.309334397315979
- 0.0
- 0.0
---
header:
  stamp:
    sec: 1756281080
    nanosec: 413876447
  frame_id: ''
name:
- fr3_joint1
- fr3_joint2
- fr3_joint3
- fr3_joint4
- fr3_joint5
- fr3_joint6
- fr3_joint7
- fr3_finger_joint1
- fr3_finger_joint2
position:
- -0.09065469531399331
- -0.12286161288201834
- 0.3056942061699298
- -1.6993639905428792
- 0.42860384001485224
- 1.6859560278539516
- 0.675385435151115
- 0.0
- 0.0
velocity:
- -0.10812333148227439
- -0.045484121414492706
- 0.04686464156633203
- -0.02879893140183123
- 0.13169893443124697
- 0.042825919746951505
- 0.05654072350248692
- 0.0
- 0.0
effort:
- -0.773921012878418
- -25.402193069458008
- -1.3478202819824219
- 22.426923751831055
- 1.8283268213272095
- 2.3036653995513916
- 0.295601487159729
- 0.0
- 0.0
---
header:
  stamp:
    sec: 1756281080
    nanosec: 447712061
  frame_id: ''
name:
- fr3_joint1
- fr3_joint2
- fr3_joint3
- fr3_joint4
- fr3_joint5
- fr3_joint6
- fr3_joint7
- fr3_finger_joint1
- fr3_finger_joint2
position:
- -0.09385402215739382
- -0.12439119394393834
- 0.30692328893894316
- -1.7002459932830798
- 0.4326382918118944
- 1.687485486438734
- 0.6772151854220216
- 0.0
- 0.0
velocity:
- -0.09916294924680644
- -0.04594003392345107
- 0.03968403470044052
- -0.025314204679257764
- 0.12012601989106518
- 0.047751570871846706
- 0.057601026373223285
- 0.0
- 0.0
effort:
- -0.646967887878418
- -25.481538772583008
- -1.1930961608886719
- 22.534040451049805
- 1.9061466455459595
- 2.3430330753326416
- 0.363350510597229
- 0.0
- 0.0
---
header:
  stamp:
    sec: 1756281080
    nanosec: 480675171
  frame_id: ''
name:
- fr3_joint1
- fr3_joint2
- fr3_joint3
- fr3_joint4
- fr3_joint5
- fr3_joint6
- fr3_joint7
- fr3_finger_joint1
- fr3_finger_joint2
position:
- -0.09721382509150864
- -0.1259906498987524
- 0.30818814324043675
- -1.7009842441655063
- 0.43692202293405374
- 1.689257627009394
- 0.6790919953097361
- 0.0
- 0.0
velocity:
- -0.10180674031234659
- -0.04737851706066707
- 0.04127903651429479
- -0.021306200077952468
- 0.13345791488594297
- 0.057196742291853245
- 0.048302951480172135
- 0.0
- 0.0
effort:
- -0.646967887878418
- -25.072908401489258
- -1.1137504577636719
- 22.272199630737305
- 1.8741031885147095
- 2.3164827823638916
- 0.329475998878479
- 0.0
- 0.0
---
header:
  stamp:
    sec: 1756281080
    nanosec: 514005714
  frame_id: ''
name:
- fr3_joint1
- fr3_joint2
- fr3_joint3
- fr3_joint4
- fr3_joint5
- fr3_joint6
- fr3_joint7
- fr3_finger_joint1
- fr3_finger_joint2
position:
- -0.10104435343219542
- -0.12758187878126345
- 0.30972355629118453
- -1.701682011598222
- 0.4414398663064527
- 1.6912039488321906
- 0.6807019581456518
- 0.0
- 0.0
velocity:
- -0.1098312754564153
- -0.04521419371666895
- 0.04299000267433312
- -0.022822756706905267
- 0.13226428996962922
- 0.05834420279063339
- 0.04910713057670576
- 0.0
- 0.0
effort:
- -0.49224376678466797
- -24.894380569458008
- -1.0383720397949219
- 22.192853927612305
- 1.8997379541397095
- 2.2761995792388916
- 0.275459885597229
- 0.0
- 0.0
---
header:
  stamp:
    sec: 1756281080
    nanosec: 547623704
  frame_id: ''
name:
- fr3_joint1
- fr3_joint2
- fr3_joint3
- fr3_joint4
- fr3_joint5
- fr3_joint6
- fr3_joint7
- fr3_finger_joint1
- fr3_finger_joint2
position:
- -0.10462034635765381
- -0.1290554028804725
- 0.31113563804193306
- -1.7024244484238702
- 0.44585339012237074
- 1.6931441694141647
- 0.6821715726754533
- 0.0
- 0.0
velocity:
- -0.10482552221675347
- -0.044700910895270056
- 0.040589292006642436
- -0.024051035289724878
- 0.13788067409262184
- 0.0592563654004342
- 0.04068939711858208
- 0.0
- 0.0
effort:
- -0.44066905975341797
- -24.664278030395508
- -1.0106010437011719
- 22.165082931518555
- 1.9061466455459595
- 2.2633821964263916
- 0.282784104347229
- 0.0
- 0.0
---
header:
  stamp:
    sec: 1756281080
    nanosec: 580703544
  frame_id: ''
name:
- fr3_joint1
- fr3_joint2
- fr3_joint3
- fr3_joint4
- fr3_joint5
- fr3_joint6
- fr3_joint7
- fr3_finger_joint1
- fr3_finger_joint2
position:
- -0.10802017892577484
- -0.13048388351375487
- 0.31254498316047497
- -1.703240350128821
- 0.4505797840186282
- 1.695197050115761
- 0.6834732931201506
- 0.0
- 0.0
velocity:
- -0.10256645292182805
- -0.041039398124199246
- 0.04465057975425126
- -0.024007888463331187
- 0.13557056577648277
- 0.0648735240520867
- 0.0405588027074628
- 0.0
- 0.0
effort:
- -0.41686534881591797
- -24.743623733520508
- -0.9867972731590271
- 22.141279220581055
- 1.8676944971084595
- 2.2835237979888916
- 0.302925705909729
- 0.0
- 0.0
---
header:
  stamp:
    sec: 1756281080
    nanosec: 613953528
  frame_id: ''
name:
- fr3_joint1
- fr3_joint2
- fr3_joint3
- fr3_joint4
- fr3_joint5
- fr3_joint6
- fr3_joint7
- fr3_finger_joint1
- fr3_finger_joint2
position:
- -0.11148921343148695
- -0.13189924644545975
- 0.3140686645060263
- -1.7041353240620785
- 0.4550299084315431
- 1.69731905942215
- 0.6848669428977293
- 0.0
- 0.0
velocity:
- -0.1069246072469522
- -0.04272420500046764
- 0.04664541514578108
- -0.027607170141256365
- 0.13763305375046617
- 0.05996585599333667
- 0.04045676013540899
- 0.0
- 0.0
effort:
- -0.797724723815918
- -24.791231155395508
- -1.3200492858886719
- 22.113508224487305
- 1.8081852197647095
- 2.2963411808013916
- 0.363350510597229
- 0.0
- 0.0
---
header:
  stamp:
    sec: 1756281080
    nanosec: 647771288
  frame_id: ''
name:
- fr3_joint1
- fr3_joint2
- fr3_joint3
- fr3_joint4
- fr3_joint5
- fr3_joint6
- fr3_joint7
- fr3_finger_joint1
- fr3_finger_joint2
position:
- -0.1150861044824275
- -0.13326688387557448
- 0.3156958138561047
- -1.7050567789601945
- 0.4595318528711216
- 1.6991821233334552
- 0.6862196417309577
- 0.0
- 0.0
velocity:
- -0.1103114431249818
- -0.0413805919834952
- 0.04968698651020721
- -0.028936340744294263
- 0.13822525720120213
- 0.057968279456553945
- 0.04277233249437715
- 0.0
- 0.0
effort:
- -0.825495719909668
- -24.791231155395508
- -1.5263481140136719
- 22.296003341674805
- 1.8347355127334595
- 2.3100740909576416
- 0.289192795753479
- 0.0
- 0.0
---
header:
  stamp:
    sec: 1756281080
    nanosec: 680714185
  frame_id: ''
name:
- fr3_joint1
- fr3_joint2
- fr3_joint3
- fr3_joint4
- fr3_joint5
- fr3_joint6
- fr3_joint7
- fr3_finger_joint1
- fr3_finger_joint2
position:
- -0.11857919128501697
- -0.134688377851101
- 0.3171720542071488
- -1.7059787371832194
- 0.46393565741273385
- 1.7010145563413859
- 0.6876889969251877
- 0.0
- 0.0
velocity:
- -0.0975175675002606
- -0.04148216850224084
- 0.039095949419198146
- -0.02875689930860903
- 0.12724595082195192
- 0.05434773410287604
- 0.042512760614103265
- 0.0
- 0.0
effort:
- -0.44066905975341797
- -24.692049026489258
- -1.1415214538574219
- 22.165082931518555
- 1.8997379541397095
- 2.2697908878326416
- 0.377083420753479
- 0.0
- 0.0
---
header:
  stamp:
    sec: 1756281080
    nanosec: 714069348
  frame_id: ''
name:
- fr3_joint1
- fr3_joint2
- fr3_joint3
- fr3_joint4
- fr3_joint5
- fr3_joint6
- fr3_joint7
- fr3_finger_joint1
- fr3_finger_joint2
position:
- -0.12195101903661183
- -0.13622108214006218
- 0.3185084217788496
- -1.7069992039157473
- 0.46830140620326527
- 1.7028607088194356
- 0.6891818994875856
- 0.0
- 0.0
velocity:
- -0.10134506789874712
- -0.04703566545863689
- 0.03805198444378731
- -0.02967120524875419
- 0.12627951749976657
- 0.05191644587470406
- 0.04477276315463675
- 0.0
- 0.0
effort:
- -0.34148693084716797
- -24.870576858520508
- -1.0899467468261719
- 22.351545333862305
- 1.9061466455459595
- 2.3036653995513916
- 0.363350510597229
- 0.0
- 0.0
---
header:
  stamp:
    sec: 1756281080
    nanosec: 747833997
  frame_id: ''
name:
- fr3_joint1
- fr3_joint2
- fr3_joint3
- fr3_joint4
- fr3_joint5
- fr3_joint6
- fr3_joint7
- fr3_finger_joint1
- fr3_finger_joint2
position:
- -0.12537684710248495
- -0.13778597435659123
- 0.319867846771299
- -1.707967576134129
- 0.4724543850266202
- 1.7044663502765245
- 0.6908911209492086
- 0.0
- 0.0
velocity:
- -0.11880079173000957
- -0.05030647309294993
- 0.0462214756488452
- -0.026959956122660177
- 0.12773408578658385
- 0.04696260567504904
- 0.05646242492747375
- 0.0
- 0.0
effort:
- -0.520014762878418
- -24.870576858520508
- -1.3478202819824219
- 22.403120040893555
- 1.8539615869522095
- 2.3302156925201416
- 0.343208909034729
- 0.0
- 0.0
---
header:
  stamp:
    sec: 1756281080
    nanosec: 780715229
  frame_id: ''
name:
- fr3_joint1
- fr3_joint2
- fr3_joint3
- fr3_joint4
- fr3_joint5
- fr3_joint6
- fr3_joint7
- fr3_finger_joint1
- fr3_finger_joint2
position:
- -0.12915184800042082
- -0.13945876817737013
- 0.32136252104484286
- -1.7088722460504184
- 0.4768163998606695
- 1.7061057232362336
- 0.6927159063365173
- 0.0
- 0.0
velocity:
- -0.11569549664182009
- -0.04882833754080438
- 0.047340881851288936
- -0.02478622720970955
- 0.1363468503374912
- 0.05061484100990726
- 0.0537963691702588
- 0.0
- 0.0
effort:
- -0.543818473815918
- -24.588899612426758
- -1.2168998718261719
- 22.244428634643555
- 1.8741031885147095
- 2.2761995792388916
- 0.370674729347229
- 0.0
- 0.0
---
header:
  stamp:
    sec: 1756281080
    nanosec: 813937874
  frame_id: ''
name:
- fr3_joint1
- fr3_joint2
- fr3_joint3
- fr3_joint4
- fr3_joint5
- fr3_joint6
- fr3_joint7
- fr3_finger_joint1
- fr3_finger_joint2
position:
- -0.13267390142811375
- -0.14106808868093124
- 0.32278646970362873
- -1.709636800804675
- 0.4813497258455207
- 1.7079009245635606
- 0.6945992725802975
- 0.0
- 0.0
velocity:
- -0.09817738547523697
- -0.046641124750605965
- 0.042975070018551005
- -0.022639264176404116
- 0.13288720183539696
- 0.05690345323694131
- 0.05265229250184621
- 0.0
- 0.0
effort:
- -0.49224376678466797
- -24.231843948364258
- -1.1415214538574219
- 22.085737228393555
- 1.8869205713272095
- 2.2835237979888916
- 0.309334397315979
- 0.0
- 0.0
---
header:
  stamp:
    sec: 1756281080
    nanosec: 847297978
  frame_id: ''
name:
- fr3_joint1
- fr3_joint2
- fr3_joint3
- fr3_joint4
- fr3_joint5
- fr3_joint6
- fr3_joint7
- fr3_finger_joint1
- fr3_finger_joint2
position:
- -0.13595699860298344
- -0.14258748457094367
- 0.3242108739805616
- -1.7104354865323166
- 0.4857850196437781
- 1.709658917418958
- 0.6963077682441426
- 0.0
- 0.0
velocity:
- -0.10044293762079129
- -0.046029829191527434
- 0.04450040357066819
- -0.026428660440078806
- 0.1375622447977458
- 0.05345783052118089
- 0.05691197140933566
- 0.0
- 0.0
effort:
- -0.49224376678466797
- -24.184236526489258
- -1.2446708679199219
- 22.113508224487305
- 1.9061466455459595
- 2.2761995792388916
- 0.316658616065979
- 0.0
- 0.0
---
header:
  stamp:
    sec: 1756281080
    nanosec: 880631615
  frame_id: ''
name:
- fr3_joint1
- fr3_joint2
- fr3_joint3
- fr3_joint4
- fr3_joint5
- fr3_joint6
- fr3_joint7
- fr3_finger_joint1
- fr3_finger_joint2
position:
- -0.13966191303969283
- -0.14414128727829695
- 0.32594582540099043
- -1.711392010446161
- 0.4903460706888834
- 1.711418404551402
- 0.6980664360903533
- 0.0
- 0.0
velocity:
- -0.11360766353227895
- -0.044904547169941716
- 0.05195793830441003
- -0.029157662715560813
- 0.13870588010270052
- 0.056227350685081084
- 0.04667648167866897
- 0.0
- 0.0
effort:
- -0.543818473815918
- -24.132661819458008
- -1.4231986999511719
- 22.165082931518555
- 1.8676944971084595
- 2.2835237979888916
- 0.336800217628479
- 0.0
- 0.0
---
header:
  stamp:
    sec: 1756281080
    nanosec: 913948439
  frame_id: ''
name:
- fr3_joint1
- fr3_joint2
- fr3_joint3
- fr3_joint4
- fr3_joint5
- fr3_joint6
- fr3_joint7
- fr3_finger_joint1
- fr3_finger_joint2
position:
- -0.1432363087568864
- -0.14565159209486614
- 0.3275876519091223
- -1.712450777491242
- 0.4948925980251295
- 1.7132546364594345
- 0.6998022551747518
- 0.0
- 0.0
velocity:
- -0.10721625409826818
- -0.04338497585948612
- 0.04476378794569789
- -0.03214660683372521
- 0.13895150050938143
- 0.05479464314419083
- 0.05061533041564009
- 0.0
- 0.0
effort:
- -0.619196891784668
- -24.057283401489258
- -1.4747734069824219
- 22.113508224487305
- 1.8805118799209595
- 2.2963411808013916
- 0.370674729347229
- 0.0
- 0.0
---
header:
  stamp:
    sec: 1756281080
    nanosec: 947573700
  frame_id: ''
name:
- fr3_joint1
- fr3_joint2
- fr3_joint3
- fr3_joint4
- fr3_joint5
- fr3_joint6
- fr3_joint7
- fr3_finger_joint1
- fr3_finger_joint2
position:
- -0.14633213946575568
- -0.14706816104964981
- 0.3288785304066165
- -1.7134923587366293
- 0.49932492974743187
- 1.7151715675913506
- 0.7014982661569731
- 0.0
- 0.0
velocity:
- -0.09599902524839321
- -0.041391658534289326
- 0.03935756330931218
- -0.029293978346720696
- 0.1330834679172071
- 0.06059048726057734
- 0.048218447046837185
- 0.0
- 0.0
effort:
- -0.797724723815918
- -24.081087112426758
- -1.5779228210449219
- 22.351545333862305
- 1.8741031885147095
- 2.3164827823638916
- 0.384407639503479
- 0.0
- 0.0
---
header:
  stamp:
    sec: 1756281080
    nanosec: 980728688
  frame_id: ''
name:
- fr3_joint1
- fr3_joint2
- fr3_joint3
- fr3_joint4
- fr3_joint5
- fr3_joint6
- fr3_joint7
- fr3_finger_joint1
- fr3_finger_joint2
position:
- -0.14960088375026057
- -0.14847286548729768
- 0.3302209245968128
- -1.7143677358274567
- 0.5038923605607175
- 1.7170987525042642
- 0.7031173859947512
- 0.0
- 0.0
velocity:
- -0.09985457127728281
- -0.04385329972206161
- 0.04051658514530396
- -0.02851983007262455
- 0.13913587562822355
- 0.05373831668660847
- 0.0491209767657801
- 0.0
- 0.0
effort:
- -0.670771598815918
- -24.184236526489258
- -1.4747734069824219
- 22.272199630737305
- 1.8475528955459595
- 2.2899324893951416
- 0.336800217628479
- 0.0
- 0.0
---
header:
  stamp:
    sec: 1756281081
    nanosec: 13907784
  frame_id: ''
name:
- fr3_joint1
- fr3_joint2
- fr3_joint3
- fr3_joint4
- fr3_joint5
- fr3_joint6
- fr3_joint7
- fr3_finger_joint1
- fr3_finger_joint2
position:
- -0.15332076234949188
- -0.15001057059476222
- 0.33172704535068703
- -1.7153139929331687
- 0.5083636743224174
- 1.7189263673607067
- 0.7048297402508095
- 0.0
- 0.0
velocity:
- -0.1078884778809274
- -0.047449180016536814
- 0.04168744379529612
- -0.029134838923238676
- 0.1239945315386199
- 0.05371900050804033
- 0.04727166061441345
- 0.0
- 0.0
effort:
- -0.646967887878418
- -24.081087112426758
- -1.5025444030761719
- 22.323774337768555
- 1.8805118799209595
- 2.2899324893951416
- 0.336800217628479
- 0.0
- 0.0
---
header:
  stamp:
    sec: 1756281081
    nanosec: 47266645
  frame_id: ''
name:
- fr3_joint1
- fr3_joint2
- fr3_joint3
- fr3_joint4
- fr3_joint5
- fr3_joint6
- fr3_joint7
- fr3_finger_joint1
- fr3_finger_joint2
position:
- -0.15681907991322327
- -0.15159054396516566
- 0.33304640748275277
- -1.7162912609509902
- 0.5123497156491035
- 1.7205799419096761
- 0.7064022653163595
- 0.0
- 0.0
velocity:
- -0.10492766590230511
- -0.04861656381533402
- 0.0381634135725056
- -0.030628460960751357
- 0.12134777367120142
- 0.05303407869876144
- 0.04852780290582617
- 0.0
- 0.0
effort:
- -0.49224376678466797
- -23.850984573364258
- -1.3993949890136719
- 22.216657638549805
- 1.9326969385147095
- 2.2569735050201416
- 0.329475998878479
- 0.0
- 0.0
---
header:
  stamp:
    sec: 1756281081
    nanosec: 80584863
  frame_id: ''
name:
- fr3_joint1
- fr3_joint2
- fr3_joint3
- fr3_joint4
- fr3_joint5
- fr3_joint6
- fr3_joint7
- fr3_finger_joint1
- fr3_finger_joint2
position:
- -0.16026566478089066
- -0.15322168107370907
- 0.33443869215717337
- -1.717270625922038
- 0.5167351158813891
- 1.7222688531147057
- 0.7081094302294562
- 0.0
- 0.0
velocity:
- -0.10510645032678595
- -0.047851781069550216
- 0.04403075918198984
- -0.028171750153297107
- 0.13599899705916793
- 0.049530662524474675
- 0.048719374574315535
- 0.0
- 0.0
effort:
- -0.520014762878418
- -23.624849319458008
- -1.3993949890136719
- 22.192853927612305
- 1.9061466455459595
- 2.2963411808013916
- 0.329475998878479
- 0.0
- 0.0
---
header:
  stamp:
    sec: 1756281081
    nanosec: 113875061
  frame_id: ''
name:
- fr3_joint1
- fr3_joint2
- fr3_joint3
- fr3_joint4
- fr3_joint5
- fr3_joint6
- fr3_joint7
- fr3_finger_joint1
- fr3_finger_joint2
position:
- -0.16378991196479825
- -0.15475572557181716
- 0.3359613848965512
- -1.7181912393088772
- 0.5212436395691679
- 1.723895837243968
- 0.7098115385470198
- 0.0
- 0.0
velocity:
- -0.11019818488918429
- -0.04488800845817142
- 0.05036856112556282
- -0.028677114603866443
- 0.1364075212463047
- 0.049040754797607514
- 0.05123165309600789
- 0.0
- 0.0
effort:
- -0.698542594909668
- -23.573274612426758
- -1.5779228210449219
- 22.085737228393555
- 1.8933292627334595
- 2.2569735050201416
- 0.329475998878479
- 0.0
- 0.0
---
header:
  stamp:
    sec: 1756281081
    nanosec: 147578041
  frame_id: ''
name:
- fr3_joint1
- fr3_joint2
- fr3_joint3
- fr3_joint4
